Problem,NameTest,User,Module,Image,Timestamp,TimeBlock,TimeVideo,TimeDetection,URL_Media,Codigo_Media,URL,XEyeTracking,YEyeTracking,Distance,Velocity,Blinks,B_left_horizontal,B_left_vertical,B_right_horizontal,B_right_vertical,PLeftEAR,PRightEAR,XFrame,YFrame,WFrame,HFrame,XEyeLeft,YEyeLeft,GazeRatioLeft,LWLeft,RWLeft,XEyeRight,YEyeRight,GazeRatioRight,LWRight,RWRight,GazeRatioAvg,FrownT,Pitch,Roll,Yaw,XPose,YPose,WidthPose,HeightPose,MouthRatio,VMouth,HMouth,Anger,Disgust,Fear,Joy,Sadness,Surprise,Neutral,Anticipation,Trust,Love,Submission,Awe,Disapproval,Remorse,Contempt,Agressiveness,Optimism,Guilt,Curiosity,Despair,Unbelief,Envy,Cynicism,Pride,Hope,Delight,Sentimentality,Shame,Outrage,Pessimism,Morbidness,Dominance,Anxiety,Predominant,Trend,Veracity,Positive valence,Negative valence,Jvalence,Jarousal,Jdominance,Evalence,Earousal,Dvalence,Darousal,Intensity,eng_blinks,eng_frownt,FOCUS,Stress,Variant2,Stress_intens,Cognitive effort,Frustration,Interest,Rejection,Commitment,Confusion,Comprehension,Performance,Confidence 1,Confidence 2,PerformancePolit,Variant
0,Test,ID1,BV01,4,0,800,0,800,Undified,Nan,faces\4843524432141897333.png,,,,,11,13.341664064126336,2.118033988749895,14.0,1.0,15,7,266,129,49,7,266,131,57,15,26,300,129,140,7,5,98,12,170,-7,3,246,102,87,87,1.5132947009511986,47.51841748206689,31.40063693621516,0.0,0.0,0.0,0.0,0.0,0.0,100.0,50,0.0,0,0,0,0,0,0,0,0,0,0,0,0,0,25,0,25,0,0,0,0,25,0,0,25,Neutral,Neutral,80.0,0.0,0.0,-1,12,0,21,15,-5,-7,0.0,30,20.0,97.86759515267833,0.0,0.0,58.3645478143574,49.85518347005018,0.0,83.46387164788987,0.4264809694643333,16.692774329577976,4.6279442908393,84.14403173211755,27.280371085184225,100.0,100.0,40.76958074718348,15.426480969464333
0,Test,ID1,BV01,5,0,1000,0,1000,Undified,Nan,faces\-5919329022601017733.png,,,,,17,13.152946437965904,2.618033988749895,13.038404810405297,2.118033988749895,19,16,265,126,50,7,265,129,75,12,16,301,126,100,6,6,87,12,174,-7,5,246,102,87,87,1.5405275564331256,48.373546489791295,31.40063693621516,0.0,0.0,0.0,0.0,0.0,0.0,100.0,50,0.0,0,0,0,0,0,0,0,0,0,0,0,0,0,25,0,25,0,0,0,0,25,0,0,25,Neutral,Neutral,80.0,0.0,0.0,-3,13,4,21,16,-5,-8,0.0,30,20.0,96.83621206325527,0.0,0.0,58.3645478143574,49.85518347005018,0.0,82.74190348529373,0.6327575873489452,16.548380697058747,4.689827276204683,84.02232852756563,27.087708724079995,100.0,100.0,40.66128552279406,15.632757587348944
0,Test,ID1,BV01,6,0,1200,0,1200,Undified,Nan,faces\7591616517163187223.png,,,,,27,13.038404810405297,3.64269164289302,13.038404810405297,3.64269164289302,27,27,265,125,50,8,265,128,89,17,19,301,125,76,13,17,82,13,174,-6,4,246,102,87,87,1.515866274757704,47.38143096192854,31.256999216175572,0.0,0.0,0.0,0.0,0.0,0.0,100.0,50,0.0,0,0,0,0,0,0,0,0,0,0,0,0,0,25,0,25,0,0,0,0,25,0,0,25,Neutral,Neutral,80.0,0.0,0.0,-7,11,-1,12,9,-6,-7,0.0,30,0.0,97.36189547074287,0.0,0.0,54.04329964865341,46.83030975405738,0.0,82.20241975573721,0.5276209058514268,16.440483951147442,4.658286271755428,83.8936129581694,26.53996623475124,100.0,100.0,40.230362963360584,15.527620905851427
0,Test,ID1,BV01,7,0,1400,0,1400,Undified,Nan,faces\-8880075989435516340.png,,,,,11,13.152946437965904,2.118033988749895,13.0,1.0,16,7,266,129,49,6,266,131,75,15,20,301,129,150,6,4,112,12,170,-6,0,246,102,87,87,1.5574893886881829,48.507731342539614,31.144823004794873,0.0,0.0,0.0,0.0,0.0,0.0,100.0,50,0.0,0,0,0,0,0,0,0,0,0,0,0,0,0,25,0,25,0,0,0,0,25,0,0,25,Neutral,Neutral,80.0,0.0,0.0,0,7,-1,21,17,-4,-7,0.0,30,40.0,98.33587956325762,0.0,0.0,58.3645478143574,49.85518347005018,0.0,83.79167073529538,0.33282408734847596,16.758334147059077,4.599847226204543,84.2992892925659,27.777846613080435,100.0,100.0,41.16875061029431,15.332824087348476
0,Test,ID1,BV01,8,0,1600,0,1600,Undified,Nan,faces\5489785122343657931.png,,,,,17,14.142135623730953,3.0,14.035668847618199,2.0,21,14,265,127,51,7,265,129,78,18,23,301,127,133,8,6,105,12,170,-6,2,246,102,87,87,1.5531809727203776,48.373546489791295,31.144823004794873,0.0,0.0,0.0,0.0,1.0,0.0,99.0,50,0.0,0,0,0,0,0,0,0,0,0,0,0,0,0,25,0,25,0,0,0,0,26,0,0,25,Neutral,Neutral,80.0,0.0,0.0,-4,7,8,22,13,-6,-8,0.0,30,40.0,98.2404278726887,0.0,0.0,58.3645478143574,49.85518347005018,0.583645478143574,83.72485455189714,0.3519144254622603,16.74497091037943,4.926579340617644,83.83122198269561,26.914335836243843,100.0,100.0,40.45872818278457,15.35191442546226
0,Test,ID1,BV01,9,0,1800,0,1800,Undified,Nan,faces\-5190679460333791966.png,,,,,19,13.152946437965904,3.1622776601683795,14.0,2.0,24,14,266,127,50,7,266,129,73,17,23,301,127,183,11,6,128,13,171,-5,1,246,102,87,87,1.5495260332872929,48.25971404805462,31.144823004794873,0.0,0.0,0.0,0.0,45.0,0.0,55.0,50,0.0,0,0,0,22,22,0,0,0,0,0,22,0,22,25,0,25,0,0,0,0,48,0,0,25,Neutral,Neutral,80.0,0.0,0.0,-8,4,4,22,19,-5,-7,0.0,30,0.0,98.33694897577686,0.0,0.0,54.04329964865341,46.83030975405738,24.319484841894038,82.88495720926102,0.33261020484462733,16.576991441852204,17.97549972449511,73.40809594133002,26.062048896448257,100.0,100.0,40.682743581389154,15.332610204844627
0,Test,ID1,BV01,10,0,2000,0,2000,Undified,Nan,faces\4919560954827263911.png,,,,,17,13.152946437965904,2.58113883008419,14.0,2.118033988749895,19,15,266,127,50,6,266,129,60,9,15,301,127,150,12,8,105,12,171,-5,1,246,102,87,87,1.5495260332872929,48.25971404805462,31.144823004794873,0.0,0.0,0.0,0.0,5.0,0.0,95.0,50,0.0,0,0,0,2,2,0,0,0,0,0,2,0,2,25,0,25,0,0,0,0,28,0,0,25,Neutral,Neutral,80.0,0.0,0.0,-5,7,3,22,10,-4,-6,0.0,30,40.0,98.33694897577686,0.0,0.0,58.3645478143574,49.85518347005018,2.91822739071787,83.79241932405886,0.33261020484462733,16.758483864811772,6.204808126348217,83.01539543132732,27.649644374147442,100.0,100.0,41.16886289860883,15.332610204844627
0,Test,ID1,BV01,11,0,2200,0,2200,Undified,Nan,faces\-1432041813297236578.png,,,,,19,13.152946437965904,3.08113883008419,14.0,2.118033988749895,23,15,266,127,50,7,266,129,65,15,23,301,127,150,12,8,107,12,170,-6,1,246,102,87,87,1.543965040095087,48.25971404805462,31.256999216175572,0.0,0.0,0.0,0.0,0.0,0.0,100.0,50,0.0,0,0,0,0,0,0,0,0,0,0,0,0,0,25,0,25,0,0,0,0,25,0,0,25,Neutral,Neutral,80.0,0.0,0.0,-5,3,4,11,14,-6,-10,0.0,30,40.0,98.33694897577686,0.0,0.0,58.3645478143574,49.85518347005018,0.0,83.79241932405886,0.33261020484462733,16.758483864811772,4.5997830614533886,84.09941548324318,26.95804637933903,100.0,100.0,40.468862898608826,15.332610204844627
0,Test,ID1,BV01,12,0,2400,0,2400,Undified,Nan,faces\-4395160764889267590.png,,,,,16,13.152946437965904,2.23606797749979,14.0,2.118033988749895,17,15,266,127,50,6,266,129,55,10,18,301,127,275,11,4,165,13,170,-6,1,246,102,87,87,1.543965040095087,48.25971404805462,31.256999216175572,0.0,0.0,0.0,0.0,0.0,0.0,100.0,50,0.0,0,0,0,0,0,0,0,0,0,0,0,0,0,25,0,25,0,0,0,0,25,0,0,25,Neutral,Neutral,80.0,0.0,0.0,-7,4,6,16,14,-5,-7,0.0,30,0.0,98.33694897577686,0.0,0.0,54.04329964865341,46.83030975405738,0.0,82.88495720926102,0.33261020484462733,16.576991441852204,4.5997830614533886,84.10866927176339,27.132106229491594,100.0,100.0,40.682743581389154,15.332610204844627
0,Test,ID1,BV01,13,0,2600,0,2600,Undified,Nan,faces\8978275985400146029.png,,,,,17,14.142135623730953,3.08113883008419,14.035668847618199,2.0,21,14,266,127,50,7,266,129,72,18,25,301,127,200,10,5,136,13,171,-6,3,246,102,87,87,1.5945458347799144,48.25971404805462,30.265491900843116,0.0,0.0,0.0,0.0,0.0,0.0,100.0,50,0.0,0,0,0,0,0,0,0,0,0,0,0,0,0,25,0,25,0,0,0,0,25,0,0,25,Neutral,Neutral,80.0,0.0,0.0,-6,8,0,11,10,-4,-6,0.0,30,0.0,97.86759515267833,0.0,0.0,54.04329964865341,46.83030975405738,0.0,82.55640953309204,0.4264809694643333,16.511281906618407,4.6279442908393,84.15328552063775,27.45443093533678,100.0,100.0,40.9834614299638,15.426480969464333
0,Test,ID1,BV01,14,0,2800,0,2800,Undified,Nan,faces\-2442987503715113859.png,,,,,18,14.142135623730953,3.08113883008419,13.038404810405297,2.118033988749895,21,16,266,127,50,7,266,129,68,17,25,302,127,266,8,3,167,13,171,-6,3,246,102,87,87,1.5945458347799144,48.25971404805462,30.265491900843116,0.0,0.0,0.0,0.0,19.0,0.0,81.0,50,0.0,0,0,0,10,10,0,0,0,0,0,10,0,10,25,0,25,0,0,0,0,34,0,0,25,Neutral,Neutral,80.0,0.0,0.0,-6,3,0,23,13,-6,-7,0.0,30,0.0,97.86759515267833,0.0,0.0,54.04329964865341,46.83030975405738,10.268226933244147,82.55640953309204,0.4264809694643333,16.511281906618407,10.275469104123582,79.43526567001035,26.182628950274044,100.0,100.0,40.2834614299638,15.426480969464333
0,Test,ID1,BV01,15,0,3000,0,3000,Undified,Nan,faces\1396410273804537354.png,,,,,14,12.16552506059644,2.118033988749895,13.038404810405297,1.5,17,11,268,129,48,6,268,131,83,15,18,302,129,85,12,14,84,12,169,-6,3,246,102,87,87,1.5983069645216552,48.373546489791295,30.265491900843116,0.0,0.0,0.0,0.0,0.0,0.0,100.0,50,0.0,0,0,0,0,0,0,0,0,0,0,0,0,0,25,0,25,0,0,0,0,25,0,0,25,Neutral,Neutral,80.0,0.0,0.0,-7,11,5,21,9,-6,-7,0.0,30,40.0,97.86759515267833,0.0,0.0,58.3645478143574,49.85518347005018,0.0,83.46387164788987,0.4264809694643333,16.692774329577976,4.6279442908393,84.04403173211756,26.870371085184225,100.0,100.0,40.41958074718348,15.426480969464333
0,Test,ID1,BV01,16,0,3200,0,3200,Undified,Nan,faces\7722173238553572180.png,,,,,25,13.038404810405297,3.5615528128088303,13.0,3.1622776601683795,27,24,267,126,49,7,267,128,69,18,26,302,126,92,13,14,80,13,171,-5,-1,246,102,87,87,1.5616864694364745,47.2652091923859,30.265491900843116,0.0,0.0,0.0,0.0,0.0,0.0,100.0,50,0.0,0,0,0,0,0,0,0,0,0,0,0,0,0,25,0,25,0,0,0,0,25,0,0,25,Neutral,Neutral,80.0,0.0,0.0,-3,8,-1,12,20,-7,-6,0.0,30,0.0,98.34398171348894,0.0,0.0,54.04329964865341,46.83030975405738,0.0,82.88988012565947,0.33120365730221124,16.577976025131896,4.5993610971906635,83.90949913481342,26.31341994489621,100.0,100.0,39.98348201884892,15.331203657302211
0,Test,ID1,BV01,17,0,3400,0,3400,Undified,Nan,faces\3723723093141075946.png,,,,,19,13.152946437965904,3.08113883008419,13.038404810405297,2.118033988749895,23,16,267,127,49,7,267,129,69,18,26,302,127,100,9,9,84,13,171,-6,3,246,102,87,87,1.5983069645216552,48.373546489791295,30.265491900843116,0.0,0.0,0.0,0.0,0.0,0.0,100.0,50,0.0,0,0,0,0,0,0,0,0,0,0,0,0,0,25,0,25,0,0,0,0,25,0,0,25,Neutral,Neutral,80.0,0.0,0.0,-2,7,5,11,20,-6,-7,0.0,30,0.0,97.86759515267833,0.0,0.0,54.04329964865341,46.83030975405738,0.0,82.55640953309204,0.4264809694643333,16.511281906618407,4.6279442908393,83.95328552063776,26.634430935336784,100.0,100.0,40.2834614299638,15.426480969464333
0,Test,ID1,BV01,18,0,3600,0,3600,Undified,Nan,faces\-3486211546559189768.png,,,,,23,13.038404810405297,3.08113883008419,13.0,3.0,23,23,270,126,49,6,270,127,56,14,25,305,126,100,15,15,78,13,169,-4,-3,256,102,86,87,1.6019899130194075,48.16637831516918,30.066592756745816,0.0,0.0,0.0,0.0,0.0,0.0,100.0,50,0.0,0,0,0,0,0,0,0,0,0,0,0,0,0,25,0,25,0,0,0,0,25,0,0,25,Neutral,Neutral,80.0,0.0,0.0,-5,13,0,17,17,-4,-9,0.0,30,0.0,97.81548750430306,0.0,0.0,54.04329964865341,46.83030975405738,0.0,82.51993417922935,0.43690249913938717,16.503986835845872,4.631070749741816,84.14713681812948,27.444697226620285,100.0,100.0,40.9779901268844,15.436902499139388
0,Test,ID1,BV01,19,0,3800,0,3800,Undified,Nan,faces\-553461427766284899.png,,,,,19,13.038404810405297,2.58113883008419,13.038404810405297,2.618033988749895,19,20,272,126,49,5,272,127,66,14,21,307,126,89,17,19,77,13,168,-3,-2,256,102,86,87,1.5184529896790633,47.16990566028302,31.06444913401813,0.0,0.0,0.0,0.0,0.0,0.0,100.0,50,0.0,0,0,0,0,0,0,0,0,0,0,0,0,0,25,0,25,0,0,0,0,25,0,0,25,Neutral,Neutral,80.0,0.0,0.0,0,5,7,12,13,-4,-9,0.0,30,0.0,98.12826950307297,0.0,0.0,54.04329964865341,46.83030975405738,0.0,82.7388815783683,0.37434609938540575,16.54777631567366,4.612303829815621,84.18404509398434,27.503124903990503,100.0,100.0,41.01083223675524,15.374346099385406
0,Test,ID1,BV01,20,0,4000,0,4000,Undified,Nan,faces\5380488657098071409.png,,,,,21,12.041594578792296,3.0,13.038404810405297,2.5,24,19,272,125,49,5,272,126,88,16,18,307,125,90,18,20,89,12,168,-3,-1,256,102,86,87,1.6019899130194075,48.16637831516918,30.066592756745816,2.0,0.0,0.0,0.0,17.0,0.0,81.0,50,0.0,0,0,0,8,8,1,0,0,0,0,8,0,10,25,1,25,0,0,0,1,34,0,0,25,Neutral,Neutral,100.0,0.0,0.0,-1,10,7,11,15,-7,-7,0.0,30,40.0,98.34398171348894,0.0,0.0,58.3645478143574,49.85518347005018,9.921973128440758,83.79734224045731,1.9312036573022113,16.759468448091464,10.53644631783308,79.25057716977926,26.074393277092256,99.8,98.0,39.71960133606859,15.331203657302211
0,Test,ID1,BV01,21,0,4200,0,4200,Undified,Nan,faces\476599991100724829.png,,,,,26,12.041594578792296,3.5,12.041594578792296,3.0,29,24,271,124,48,7,271,126,100,20,20,306,124,92,12,13,96,12,172,-5,1,256,102,86,87,1.5314811600063338,46.17358552246078,30.14962686336267,2.0,0.0,0.0,0.0,0.0,0.0,98.0,50,0.0,0,0,0,0,0,1,0,0,0,0,0,0,1,25,1,25,0,0,0,1,25,0,0,25,Neutral,Neutral,100.0,0.0,0.0,0,7,7,11,17,-4,-9,0.0,30,40.0,98.33694897577686,0.0,0.0,58.3645478143574,49.85518347005018,1.167290956287148,83.79241932405886,1.9326102048446274,16.758483864811772,5.72179308741132,83.40180746247684,27.6882855772624,99.8,98.0,40.76886289860883,15.332610204844627
0,Test,ID1,BV01,22,0,4400,0,4400,Undified,Nan,faces\-8786686833850365631.png,,,,,17,12.041594578792296,2.5,13.0,2.0,20,15,271,128,47,5,271,129,83,15,18,304,128,85,12,14,84,11,166,-4,-1,256,102,86,87,1.5676880316493005,47.2652091923859,30.14962686336267,0.0,0.0,0.0,0.0,0.0,0.0,100.0,50,0.0,0,0,0,0,0,0,0,0,0,0,0,0,0,25,0,25,0,0,0,0,25,0,0,25,Neutral,Neutral,100.0,0.0,0.0,-7,3,4,16,16,-7,-8,0.0,30,40.0,98.34398171348894,0.0,0.0,63.031318659671975,53.12192306177038,0.0,84.77736411797338,0.33120365730221124,16.955472823594675,4.5993610971906635,84.0982475340448,26.804165782897826,100.0,100.0,40.266604617696004,15.331203657302211
0,Test,ID1,BV01,23,0,4600,0,4600,Undified,Nan,faces\4349073461631107536.png,,,,,23,13.038404810405297,3.0,13.0,3.08113883008419,23,23,269,125,48,7,269,127,57,15,26,303,125,81,13,16,69,13,171,-5,1,246,102,87,87,1.5837409176117307,46.17358552246078,29.154759474226502,0.0,0.0,0.0,98.0,0.0,0.0,2.0,50,0.0,49,0,0,0,0,0,0,0,49,0,0,0,0,25,49,25,49,0,0,0,25,49,0,25,Joy,Neutral,100.0,100.0,0.0,98,23,78,97,23,79,5,98.0,30,0.0,98.33694897577686,0.0,0.0,54.04329964865341,46.83030975405738,0.0,82.88495720926102,0.33261020484462733,86.74499144185219,4.5997830614533886,92.5086692717634,86.0721062294916,100.0,100.0,89.68274358138916,39.83261020484463
0,Test,ID1,BV01,24,0,4800,0,4800,Undified,Nan,faces\7183254118987754838.png,,,,,17,13.152946437965904,2.58113883008419,13.0,2.0,19,15,269,127,48,6,269,129,44,8,18,303,127,109,12,11,76,13,170,-6,0,246,102,87,87,1.591152005900867,46.38965401897282,29.154759474226502,0.0,0.0,0.0,0.0,50.0,0.0,50.0,50,0.0,0,0,0,25,25,0,0,0,0,0,25,0,25,25,0,25,0,0,0,0,50,0,0,25,Neutral,Neutral,80.0,0.0,0.0,1,3,2,14,13,-4,-8,0.0,30,0.0,98.33587956325762,0.0,0.0,54.04329964865341,46.83030975405738,27.021649824326705,82.88420862049755,0.33282408734847596,16.57684172409951,19.46175462958423,72.31901715838237,26.352953870962622,100.0,100.0,41.03263129307464,15.332824087348476
0,Test,ID1,BV01,25,0,5000,0,5000,Undified,Nan,faces\9137194289715881262.png,,,,,22,12.16552506059644,3.08113883008419,13.038404810405297,2.618033988749895,25,20,269,127,48,7,269,129,76,16,21,303,127,107,15,14,91,12,170,-6,5,246,102,87,87,1.501740830686925,45.276925690687094,30.14962686336267,0.0,0.0,0.0,0.0,50.0,0.0,50.0,50,0.0,0,0,0,25,25,0,0,0,0,0,25,0,25,25,0,25,0,0,0,0,50,0,0,25,Neutral,Neutral,80.0,0.0,0.0,-6,7,-1,22,18,-6,-7,0.0,30,20.0,96.83621206325527,0.0,0.0,58.3645478143574,49.85518347005018,29.1822739071787,82.74190348529373,0.6327575873489452,16.548380697058747,20.74007792515297,71.08212800840701,25.393688672164135,100.0,100.0,40.31128552279406,15.632757587348944
0,Test,ID1,BV01,26,0,5200,0,5200,Undified,Nan,faces\2509581942214910194.png,,,,,22,12.16552506059644,3.08113883008419,13.0,2.58113883008419,25,19,268,127,48,8,268,130,94,18,19,302,127,81,13,16,87,12,169,-6,0,246,102,87,87,1.552985739111069,45.276925690687094,29.154759474226502,0.0,0.0,0.0,0.0,19.0,0.0,81.0,50,0.0,0,0,0,10,10,0,0,0,0,0,10,0,10,25,0,25,0,0,0,0,34,0,0,25,Neutral,Neutral,80.0,0.0,0.0,-1,2,0,12,12,-6,-9,0.0,30,20.0,98.33587956325762,0.0,0.0,58.3645478143574,49.85518347005018,11.089264084727906,83.79167073529538,0.33282408734847596,16.758334147059077,10.698942472804893,79.22001309528564,26.46991899335241,100.0,100.0,40.46875061029431,15.332824087348476
0,Test,ID1,BV01,27,0,5400,0,5400,Undified,Nan,faces\-4585946335619214695.png,,,,,16,12.16552506059644,2.118033988749895,13.0,2.0,17,15,268,130,47,6,268,132,94,16,17,301,130,85,12,14,89,11,167,-5,0,246,102,87,87,1.5347102441677243,46.2709412050371,30.14962686336267,0.0,0.0,0.0,0.0,50.0,0.0,50.0,50,0.0,0,0,0,25,25,0,0,0,0,0,25,0,25,25,0,25,0,0,0,0,50,0,0,25,Neutral,Neutral,80.0,0.0,0.0,0,2,1,13,16,-7,-9,0.0,30,40.0,98.33587956325762,0.0,0.0,63.031318659671975,53.12192306177038,31.51565932983599,84.77169261281145,0.33282408734847596,16.954338522562292,21.933459857614338,70.23040137518967,25.41596329072183,100.0,100.0,40.26575389192172,15.332824087348476
0,Test,ID1,BV01,28,0,5600,0,5600,Undified,Nan,faces\-4714373610329206166.png,,,,,19,13.152946437965904,3.08113883008419,12.0,2.0,23,16,266,128,48,7,266,130,59,16,27,301,128,133,12,9,96,13,171,-6,2,246,102,87,87,1.5725418175583552,44.28317965096907,28.16025568065745,0.0,0.0,0.0,0.0,0.0,0.0,100.0,50,0.0,0,0,0,0,0,0,0,0,0,0,0,0,0,25,0,25,0,0,0,0,25,0,0,25,Neutral,Neutral,80.0,0.0,0.0,0,4,6,17,13,-6,-7,0.0,30,0.0,98.2404278726887,0.0,0.0,54.04329964865341,46.83030975405738,0.0,82.8173924370993,0.3519144254622603,16.56347848741986,4.605574327638678,83.997279781599,26.70407608743473,100.0,100.0,40.322608865564895,15.35191442546226
0,Test,ID1,BV01,29,0,5800,0,5800,Undified,Nan,faces\-3370364003599385541.png,,,,,24,12.16552506059644,3.08113883008419,13.0,3.08113883008419,25,23,266,126,48,8,266,129,75,18,24,300,126,94,16,17,84,12,172,-7,6,246,102,87,87,1.5959507584914432,46.52956049652737,29.154759474226502,0.0,0.0,0.0,0.0,0.0,0.0,100.0,50,0.0,0,0,0,0,0,0,0,0,0,0,0,0,0,25,0,25,0,0,0,0,25,0,0,25,Neutral,Neutral,80.0,0.0,0.0,-8,5,3,19,15,-7,-9,0.0,30,20.0,96.18104012833426,0.0,0.0,58.3645478143574,49.85518347005018,0.0,82.28328313084903,0.763791974333148,16.456656626169806,4.729137592299945,83.74501823924494,26.145322606636753,100.0,100.0,39.892492469627356,15.763791974333149
0,Test,ID1,BV01,30,0,6000,0,6000,Undified,Nan,faces\-952454105823587833.png,,,,,25,13.152946437965904,3.5615528128088303,13.038404810405297,3.08113883008419,27,23,266,126,49,7,266,128,75,18,24,301,126,93,15,16,84,12,171,-6,0,246,102,87,87,1.6431293000233451,46.2709412050371,28.16025568065745,0.0,0.0,0.0,0.0,0.0,0.0,100.0,50,0.0,0,0,0,0,0,0,0,0,0,0,0,0,0,25,0,25,0,0,0,0,25,0,0,25,Neutral,Neutral,80.0,0.0,0.0,0,7,0,12,9,-5,-7,0.0,30,20.0,98.33587956325762,0.0,0.0,58.3645478143574,49.85518347005018,0.0,83.79167073529538,0.33282408734847596,16.758334147059077,4.599847226204543,84.19928929256591,27.367846613080438,100.0,100.0,40.81875061029431,15.332824087348476
0,Test,ID1,BV01,31,0,6200,0,6200,Undified,Nan,faces\4240006124849149693.png,,,,,19,13.152946437965904,3.08113883008419,13.0,2.118033988749895,23,16,269,129,48,7,269,131,66,18,27,303,129,85,12,14,75,11,168,-6,3,246,102,87,87,1.4687803551154808,44.28317965096907,30.14962686336267,0.0,0.0,0.0,0.0,49.0,0.0,51.0,50,0.0,0,0,0,24,24,0,0,0,0,0,24,0,24,25,0,25,0,0,0,0,50,0,0,25,Neutral,Neutral,80.0,0.0,0.0,-5,7,0,15,14,-5,-7,0.0,30,40.0,97.86759515267833,0.0,0.0,63.031318659671975,53.12192306177038,30.885346143239268,84.44389352540594,0.4264809694643333,16.88877870508119,21.614884669620896,70.65248161684389,26.176221543035872,100.0,100.0,40.91658402881089,15.426480969464333
0,Test,ID1,BV01,32,0,6400,0,6400,Undified,Nan,faces\2736959029005130452.png,,,,,24,13.038404810405297,3.1622776601683795,12.0,3.08113883008419,24,25,268,127,48,7,268,129,65,17,26,303,127,92,13,14,78,11,171,-5,0,246,102,87,87,1.6211833005917768,47.2652091923859,29.154759474226502,0.0,0.0,0.0,0.0,49.0,0.0,51.0,50,0.0,0,0,0,24,24,0,0,0,0,0,24,0,24,25,0,25,0,0,0,0,50,0,0,25,Neutral,Neutral,80.0,0.0,0.0,0,3,8,11,9,-6,-6,0.0,30,40.0,98.33587956325762,0.0,0.0,63.031318659671975,53.12192306177038,30.885346143239268,84.77169261281145,0.33282408734847596,16.954338522562292,21.58678760498614,70.60773917729225,25.85369707093209,100.0,100.0,40.61575389192171,15.332824087348476
0,Test,ID1,BV01,33,0,6600,0,6600,Undified,Nan,faces\-3824662828286069498.png,,,,,21,12.16552506059644,3.08113883008419,12.041594578792296,2.118033988749895,25,17,268,128,47,7,268,130,81,18,22,302,128,90,9,10,85,12,172,-6,4,246,102,87,87,1.5571467118909963,45.39823785126467,29.154759474226502,0.0,0.0,0.0,0.0,43.0,0.0,57.0,50,0.0,0,0,0,22,22,0,0,0,0,0,22,0,22,25,0,25,0,0,0,0,46,0,0,25,Neutral,Neutral,80.0,0.0,0.0,-7,11,9,13,9,-5,-7,0.0,30,20.0,97.36189547074287,0.0,0.0,58.3645478143574,49.85518347005018,25.096755560173683,83.10988187053505,0.5276209058514268,16.62197637410701,18.461501829850956,73.04178672317275,26.081649139951036,100.0,100.0,40.71648228058026,15.527620905851427
0,Test,ID1,BV01,34,0,6800,0,6800,Undified,Nan,faces\89054065718730488.png,,,,,16,12.16552506059644,2.118033988749895,13.0,2.118033988749895,17,16,268,128,48,6,268,130,70,12,17,302,128,91,11,12,80,12,171,-6,1,246,102,87,87,1.552985739111069,45.276925690687094,29.154759474226502,0.0,0.0,0.0,0.0,0.0,0.0,100.0,50,0.0,0,0,0,0,0,0,0,0,0,0,0,0,0,25,0,25,0,0,0,0,25,0,0,25,Neutral,Neutral,80.0,0.0,0.0,-4,8,7,16,17,-4,-7,0.0,30,20.0,98.33694897577686,0.0,0.0,58.3645478143574,49.85518347005018,0.0,83.79241932405886,0.33261020484462733,16.758483864811772,4.5997830614533886,84.29941548324317,27.77804637933903,100.0,100.0,41.16886289860883,15.332610204844627
0,Test,ID1,BV01,35,0,7000,0,7000,Undified,Nan,faces\-4380074172268633341.png,,,,,23,12.16552506059644,3.08113883008419,12.041594578792296,2.618033988749895,25,21,268,128,47,7,268,130,77,17,22,302,128,107,14,13,92,13,171,-6,0,246,102,87,87,1.5466303191855633,45.276925690687094,29.27456233660889,0.0,0.0,0.0,0.0,0.0,0.0,100.0,50,0.0,0,0,0,0,0,0,0,0,0,0,0,0,0,25,0,25,0,0,0,0,25,0,0,25,Neutral,Neutral,80.0,0.0,0.0,-2,6,-1,15,19,-7,-7,0.0,30,0.0,98.33587956325762,0.0,0.0,54.04329964865341,46.83030975405738,0.0,82.88420862049755,0.33282408734847596,16.57684172409951,4.599847226204543,83.90854308108611,26.311906463232997,100.0,100.0,39.98263129307463,15.332824087348476
0,Test,ID1,BV01,36,0,7200,0,7200,Undified,Nan,faces\-7771392235112425809.png,,,,,16,13.152946437965904,2.23606797749979,13.0,2.118033988749895,17,16,267,129,48,7,267,132,75,15,20,301,129,85,12,14,80,12,169,-6,-3,246,102,87,87,1.4959917333914468,45.276925690687094,30.265491900843116,0.0,0.0,0.0,0.0,0.0,0.0,100.0,50,0.0,0,0,0,0,0,0,0,0,0,0,0,0,0,25,0,25,0,0,0,0,25,0,0,25,Neutral,Neutral,60.0,0.0,0.0,-3,5,4,21,11,-7,-7,0.0,30,20.0,97.81548750430306,0.0,0.0,58.3645478143574,49.85518347005018,0.0,83.42739629402719,0.43690249913938717,16.68547925880544,4.631070749741816,83.93788302960927,26.450637376467725,100.0,100.0,40.064109444104076,15.436902499139388
0,Test,ID1,BV01,37,0,7400,0,7400,Undified,Nan,faces\-1049122998172442788.png,,,,,26,13.038404810405297,3.5615528128088303,12.0,3.08113883008419,27,25,267,127,48,7,267,129,57,15,26,302,127,92,13,14,74,12,171,-5,-3,246,102,87,87,1.61454878979622,47.2652091923859,29.27456233660889,0.0,0.0,0.0,0.0,28.0,0.0,72.0,50,0.0,0,0,0,14,14,0,0,0,0,0,14,0,14,25,0,25,0,0,0,0,39,0,0,25,Neutral,Neutral,60.0,0.0,0.0,-4,12,7,19,13,-6,-9,0.0,30,20.0,97.81548750430306,0.0,0.0,58.3645478143574,49.85518347005018,16.342073388020072,83.42739629402719,0.43690249913938717,16.68547925880544,13.619211113152858,76.84737073888044,26.14158614739484,100.0,100.0,40.41410944410408,15.436902499139388
0,Test,ID1,BV01,38,0,7600,0,7600,Undified,Nan,faces\-2746645664816889119.png,,,,,21,12.16552506059644,3.08113883008419,12.041594578792296,2.118033988749895,25,17,267,128,48,7,267,130,86,20,23,302,128,112,9,8,99,11,171,-6,0,246,102,87,87,1.5386476996617409,46.38965401897282,30.14962686336267,0.0,0.0,0.0,0.0,38.0,0.0,62.0,50,0.0,0,0,0,19,19,0,0,0,0,0,19,0,19,25,0,25,0,0,0,0,44,0,0,25,Neutral,Neutral,80.0,0.0,0.0,-5,12,8,23,12,-5,-9,0.0,30,40.0,98.33587956325762,0.0,0.0,63.031318659671975,53.12192306177038,23.95190109067535,84.77169261281145,0.33282408734847596,16.954338522562292,17.773392826075987,73.75845500042035,26.5687686532449,100.0,100.0,40.965753891921715,15.332824087348476
0,Test,ID1,BV01,39,0,7800,0,7800,Undified,Nan,faces\8783360142825932772.png,,,,,21,13.152946437965904,3.08113883008419,13.038404810405297,2.5,23,19,267,127,49,8,267,130,61,16,26,302,127,66,12,18,63,11,171,-5,1,246,102,87,87,1.5837409176117307,46.17358552246078,29.154759474226502,0.0,0.0,0.0,0.0,26.0,0.0,74.0,50,0.0,0,0,0,13,13,0,0,0,0,0,13,0,13,25,0,25,0,0,0,0,38,0,0,25,Neutral,Neutral,60.0,0.0,0.0,-2,10,9,23,11,-5,-9,0.0,30,40.0,98.33694897577686,0.0,0.0,63.031318659671975,53.12192306177038,16.38814285151471,84.77244120157492,0.33261020484462733,16.954488240314983,13.61326162978648,77.08663481632831,26.901773782026563,100.0,100.0,40.96586618023624,15.332610204844627
0,Test,ID1,BV01,40,0,8000,0,8000,Undified,Nan,faces\-3387228803356354350.png,,,,,26,12.041594578792296,3.5,13.0,3.08113883008419,29,23,268,127,48,7,268,129,86,20,23,302,127,82,14,17,84,12,171,-5,2,246,102,87,87,1.5495729962116132,45.17742799230607,29.154759474226502,0.0,0.0,0.0,0.0,41.0,0.0,59.0,50,0.0,0,0,0,20,20,0,0,0,0,0,20,0,20,25,0,25,0,0,0,0,46,0,0,25,Neutral,Neutral,80.0,0.0,0.0,-8,2,4,15,10,-6,-10,0.0,30,20.0,98.2404278726887,0.0,0.0,58.3645478143574,49.85518347005018,23.929464603886537,83.72485455189714,0.3519144254622603,16.74497091037943,17.766779859776275,73.5590615673687,25.887119794711154,100.0,100.0,40.45872818278457,15.35191442546226
0,Test,ID1,BV01,41,0,8200,0,8200,Undified,Nan,faces\-7619600663244208525.png,,,,,16,12.16552506059644,2.118033988749895,13.0,2.0,17,15,268,130,48,6,268,132,94,16,17,302,130,85,12,14,89,12,168,-5,-1,246,102,87,87,1.552985739111069,45.276925690687094,29.154759474226502,0.0,0.0,0.0,0.0,0.0,0.0,100.0,50,0.0,0,0,0,0,0,0,0,0,0,0,0,0,0,25,0,25,0,0,0,0,25,0,0,25,Neutral,Neutral,60.0,0.0,0.0,0,12,5,14,14,-7,-7,0.0,30,20.0,98.34398171348894,0.0,0.0,58.3645478143574,49.85518347005018,0.0,83.79734224045731,0.33120365730221124,16.759468448091464,4.5993610971906635,84.0002453462932,26.549360094743648,100.0,100.0,40.1196013360686,15.331203657302211
0,Test,ID1,BV01,42,0,8400,0,8400,Undified,Nan,faces\-2241514068601727542.png,,,,,21,13.152946437965904,3.5615528128088303,13.0,2.0,27,15,267,127,49,7,267,129,80,20,25,302,127,75,9,12,77,12,171,-5,0,246,102,87,87,1.5495729962116132,45.17742799230607,29.154759474226502,0.0,0.0,0.0,0.0,50.0,0.0,50.0,50,0.0,0,0,0,25,25,0,0,0,0,0,25,0,25,25,0,25,0,0,0,0,50,0,0,25,Neutral,Neutral,80.0,0.0,0.0,-8,7,7,16,15,-4,-8,0.0,30,20.0,98.33587956325762,0.0,0.0,58.3645478143574,49.85518347005018,29.1822739071787,83.79167073529538,0.33282408734847596,16.758334147059077,20.650097875152827,71.45908877340727,26.49382656116457,100.0,100.0,41.16875061029431,15.332824087348476
0,Test,ID1,BV01,43,0,8600,0,8600,Undified,Nan,faces\6780438902579663487.png,,,,,21,13.038404810405297,3.0,13.038404810405297,2.5,23,19,267,126,49,7,267,129,70,14,20,302,126,60,9,15,65,12,173,-6,1,246,102,87,87,1.5805852423342166,46.2709412050371,29.27456233660889,0.0,0.0,0.0,0.0,49.0,0.0,51.0,50,0.0,0,0,0,24,24,0,0,0,0,0,24,0,24,25,0,25,0,0,0,0,50,0,0,25,Neutral,Neutral,80.0,0.0,0.0,-2,7,2,17,11,-4,-7,0.0,30,20.0,98.33694897577686,0.0,0.0,58.3645478143574,49.85518347005018,28.598628429035124,83.79241932405886,0.33261020484462733,16.758483864811772,20.329028697422707,71.71601897446773,26.519706728461486,100.0,100.0,41.16886289860883,15.332610204844627
0,Test,ID1,BV01,44,0,8800,0,8800,Undified,Nan,faces\459142018142454039.png,,,,,16,13.038404810405297,2.118033988749895,12.041594578792296,2.118033988749895,16,17,268,129,47,6,268,131,71,15,21,302,129,100,12,12,85,12,171,-6,-3,246,102,87,87,1.5386476996617409,46.38965401897282,30.14962686336267,0.0,0.0,0.0,0.0,42.0,0.0,58.0,50,0.0,0,0,0,21,21,0,0,0,0,0,21,0,21,25,0,25,0,0,0,0,46,0,0,25,Neutral,Neutral,80.0,0.0,0.0,-1,5,5,12,9,-7,-8,0.0,30,20.0,97.81548750430306,0.0,0.0,58.3645478143574,49.85518347005018,24.513110082030106,83.42739629402719,0.43690249913938717,16.68547925880544,18.113281294858375,73.152114593516,25.3720605328584,100.0,100.0,40.064109444104076,15.436902499139388
0,Test,ID1,BV01,45,0,9000,0,9000,Undified,Nan,faces\8714169537972859056.png,,,,,24,13.038404810405297,3.08113883008419,12.041594578792296,3.08113883008419,23,25,267,127,48,7,267,129,60,15,25,302,127,100,15,15,80,11,172,-5,-8,246,102,87,87,1.591152005900867,46.38965401897282,29.154759474226502,0.0,0.0,0.0,0.0,49.0,0.0,51.0,50,0.0,0,0,0,24,24,0,0,0,0,0,24,0,24,25,0,25,0,0,0,0,50,0,0,25,Neutral,Neutral,80.0,0.0,0.0,-3,3,4,14,13,-4,-9,0.0,30,40.0,94.5886552942058,0.0,0.0,63.031318659671975,53.12192306177038,30.885346143239268,82.14863562447516,1.0822689411588413,16.429727124895035,21.811621061129248,70.36556671354411,25.9737155774732,100.0,100.0,40.92229534367127,16.08226894115884
0,Test,ID1,BV01,46,0,9200,0,9200,Undified,Nan,faces\2677614470305665465.png,,,,,22,13.038404810405297,3.5615528128088303,12.0,2.118033988749895,27,17,267,127,48,7,267,129,84,22,26,302,127,88,8,9,86,12,172,-6,0,246,102,87,87,1.6121386952621863,45.39823785126467,28.16025568065745,0.0,0.0,0.0,0.0,0.0,0.0,100.0,50,0.0,0,0,0,0,0,0,0,0,0,0,0,0,0,25,0,25,0,0,0,0,25,0,0,25,Neutral,Neutral,80.0,0.0,0.0,0,13,3,18,16,-7,-8,0.0,30,20.0,98.33587956325762,0.0,0.0,58.3645478143574,49.85518347005018,0.0,83.79167073529538,0.33282408734847596,16.758334147059077,4.599847226204543,83.9992892925659,26.547846613080438,100.0,100.0,40.11875061029431,15.332824087348476
0,Test,ID1,BV01,47,0,9400,0,9400,Undified,Nan,faces\-974907320290191184.png,,,,,11,13.152946437965904,2.118033988749895,13.0,1.0,16,7,268,130,48,6,268,132,75,15,20,302,130,120,6,5,97,11,169,-6,-1,246,102,87,87,1.5327573122206717,46.38965401897282,30.265491900843116,0.0,0.0,0.0,0.0,48.0,0.0,52.0,50,0.0,0,0,0,24,24,0,0,0,0,0,24,0,24,25,0,25,0,0,0,0,49,0,0,25,Neutral,Neutral,80.0,0.0,0.0,1,12,5,15,20,-4,-6,0.0,30,40.0,98.34398171348894,0.0,0.0,63.031318659671975,53.12192306177038,30.255032956642548,84.77736411797338,0.33120365730221124,16.955472823594675,21.239629223344064,71.08603303312208,26.70294433280555,100.0,100.0,41.31660461769601,15.331203657302211
0,Test,ID1,BV01,48,0,9600,0,9600,Undified,Nan,faces\-3250588275186302362.png,,,,,17,13.152946437965904,2.58113883008419,12.041594578792296,2.0,19,16,267,128,48,6,267,130,52,11,21,302,128,54,6,11,53,11,171,-6,-2,246,102,87,87,1.552985739111069,45.276925690687094,29.154759474226502,0.0,0.0,0.0,0.0,0.0,0.0,100.0,50,0.0,0,0,0,0,0,0,0,0,0,0,0,0,0,25,0,25,0,0,0,0,25,0,0,25,Neutral,Neutral,60.0,0.0,0.0,-2,3,6,18,14,-5,-9,0.0,30,40.0,98.12826950307297,0.0,0.0,63.031318659671975,53.12192306177038,0.0,84.6263655706822,0.37434609938540575,16.92527311413644,4.612303829815621,84.27279349321573,27.583870741992122,100.0,100.0,40.94395483560233,15.374346099385406
0,Test,ID1,BV01,49,0,9800,0,9800,Undified,Nan,faces\-5796794993015849922.png,,,,,20,12.16552506059644,3.1622776601683795,13.0,2.0,25,15,267,128,48,7,267,130,87,21,24,301,128,109,12,11,98,11,171,-6,2,246,102,87,87,1.591152005900867,46.38965401897282,29.154759474226502,27.0,0.0,0.0,0.0,0.0,0.0,73.0,50,0.0,0,0,0,0,0,14,0,0,0,0,0,0,14,25,14,25,0,0,0,14,25,0,0,25,Neutral,Neutral,80.0,0.0,0.0,-1,5,0,17,13,-5,-7,0.0,30,40.0,98.2404278726887,0.0,0.0,63.031318659671975,53.12192306177038,17.018456038111434,84.7048764294132,21.951914425462263,16.94097528588264,20.44572514859997,71.61390752406135,26.337609859759436,97.3,73.0,35.555731464411984,15.35191442546226
0,Test,ID1,BV01,50,0,10000,0,10000,Undified,Nan,faces\-5179278907040881751.png,,,,,22,13.152946437965904,3.5615528128088303,12.041594578792296,2.118033988749895,27,17,267,127,48,7,267,129,84,22,26,302,127,80,8,10,82,11,173,-6,2,246,102,87,87,1.5386476996617409,46.38965401897282,30.14962686336267,0.0,0.0,0.0,0.0,49.0,0.0,51.0,50,0.0,0,0,0,24,24,0,0,0,0,0,24,0,24,25,0,25,0,0,0,0,50,0,0,25,Neutral,Neutral,60.0,0.0,0.0,-1,9,7,22,17,-6,-6,0.0,30,40.0,98.2404278726887,0.0,0.0,63.031318659671975,53.12192306177038,30.885346143239268,84.7048764294132,0.3519144254622603,16.94097528588264,21.592514706420275,70.5964758778051,25.83586669513381,100.0,100.0,40.60573146441198,15.35191442546226
0,Test,ID1,BV01,51,0,10200,0,10200,Undified,Nan,faces\5570858059326899459.png,,,,,21,13.152946437965904,3.08113883008419,13.038404810405297,2.5,23,19,267,128,48,7,267,130,66,18,27,301,128,80,16,20,73,12,171,-6,-2,246,102,87,87,1.552985739111069,45.276925690687094,29.154759474226502,0.0,0.0,0.0,0.0,37.0,0.0,63.0,50,0.0,0,0,0,18,18,0,0,0,0,0,18,0,18,25,0,25,0,0,0,0,44,0,0,25,Neutral,Neutral,60.0,0.0,0.0,-8,10,-1,11,14,-5,-8,0.0,30,20.0,98.12826950307297,0.0,0.0,58.3645478143574,49.85518347005018,21.594882691312236,83.64634369316613,0.37434609938540575,16.729268738633227,16.489489310037357,74.67304292128674,26.378890215420206,100.0,100.0,40.79695155397492,15.374346099385406
0,Test,ID1,BV01,52,0,10400,0,10400,Undified,Nan,faces\-7796832106568003295.png,,,,,24,13.152946437965904,3.1622776601683795,12.041594578792296,3.08113883008419,24,25,266,127,48,7,266,129,80,21,26,301,127,107,14,13,93,13,172,-7,3,246,102,87,87,1.5571467118909963,45.39823785126467,29.154759474226502,0.0,0.0,0.0,0.0,37.0,0.0,63.0,50,0.0,0,0,0,18,18,0,0,0,0,0,18,0,18,25,0,25,0,0,0,0,44,0,0,25,Neutral,Neutral,60.0,0.0,0.0,0,6,8,14,12,-4,-8,0.0,30,0.0,97.86759515267833,0.0,0.0,54.04329964865341,46.83030975405738,19.99602087000176,82.55640953309204,0.4264809694643333,16.511281906618407,15.62575576934027,75.35503633783699,26.57460601705671,100.0,100.0,40.9834614299638,15.426480969464333
0,Test,ID1,BV01,53,0,10600,0,10600,Undified,Nan,faces\8050984727287870157.png,,,,,23,12.041594578792296,3.08113883008419,12.041594578792296,2.58113883008419,25,21,267,126,47,8,267,129,77,17,22,301,126,69,9,13,73,13,174,-6,7,246,102,87,87,1.591152005900867,46.38965401897282,29.154759474226502,0.0,0.0,0.0,0.0,43.0,0.0,57.0,50,0.0,0,0,0,22,22,0,0,0,0,0,22,0,22,25,0,25,0,0,0,0,46,0,0,25,Neutral,Neutral,60.0,0.0,0.0,0,6,4,18,21,-6,-8,0.0,30,0.0,95.40106416225649,0.0,0.0,54.04329964865341,46.83030975405738,23.238618848920964,80.82983783979675,0.9197871675487023,16.165967567959353,17.55717651717114,73.43724257024276,25.151183716973463,100.0,100.0,40.02447567596951,15.919787167548701
0,Test,ID1,BV01,54,0,10800,0,10800,Undified,Nan,faces\-3025830890101149826.png,,,,,20,12.16552506059644,2.618033988749895,13.038404810405297,2.5,21,19,267,128,48,7,267,131,83,15,18,301,128,84,16,19,83,13,170,-7,1,246,102,87,87,1.5386476996617409,46.38965401897282,30.14962686336267,0.0,0.0,0.0,0.0,0.0,0.0,100.0,50,0.0,0,0,0,0,0,0,0,0,0,0,0,0,0,25,0,25,0,0,0,0,25,0,0,25,Neutral,Neutral,60.0,0.0,0.0,-2,13,8,22,11,-6,-9,0.0,30,0.0,98.33694897577686,0.0,0.0,54.04329964865341,46.83030975405738,0.0,82.88495720926102,0.33261020484462733,16.576991441852204,4.5997830614533886,84.0086692717634,26.722106229491594,100.0,100.0,40.33274358138915,15.332610204844627
0,Test,ID1,BV01,55,0,11000,0,11000,Undified,Nan,faces\-3591704526470039731.png,,,,,25,13.152946437965904,3.5615528128088303,13.038404810405297,3.08113883008419,27,23,266,126,49,8,266,129,64,16,25,301,126,77,17,22,70,13,172,-7,5,246,102,87,87,1.591152005900867,46.38965401897282,29.154759474226502,0.0,0.0,0.0,0.0,0.0,0.0,100.0,50,0.0,0,0,0,0,0,0,0,0,0,0,0,0,0,25,0,25,0,0,0,0,25,0,0,25,Neutral,Neutral,60.0,0.0,0.0,-3,2,-1,16,21,-4,-6,0.0,30,0.0,96.83621206325527,0.0,0.0,54.04329964865341,46.83030975405738,0.0,81.8344413704959,0.6327575873489452,16.36688827409918,4.689827276204683,84.03158231608585,27.261768574232555,100.0,100.0,40.87516620557439,15.632757587348944
0,Test,ID1,BV01,56,0,11200,0,11200,Undified,Nan,faces\-4210678304118711856.png,,,,,16,13.038404810405297,2.118033988749895,13.0,2.118033988749895,16,16,267,129,48,7,267,132,71,15,21,301,129,85,12,14,78,14,170,-6,2,246,102,87,87,1.6431293000233451,46.2709412050371,28.16025568065745,0.0,0.0,0.0,0.0,0.0,0.0,100.0,50,0.0,0,0,0,0,0,0,0,0,0,0,0,0,0,25,0,25,0,0,0,0,25,0,0,25,Neutral,Neutral,60.0,0.0,0.0,-3,7,1,22,11,-5,-9,0.0,30,0.0,98.2404278726887,0.0,0.0,50.041992036057,44.0293944252399,0.0,81.97711783845406,0.3519144254622603,16.395423567690813,4.605574327638678,84.01325232173447,26.895604691786964,100.0,100.0,40.54656767576811,15.35191442546226
0,Test,ID1,BV01,57,0,11400,0,11400,Undified,Nan,faces\-8805639158391766859.png,,,,,26,12.16552506059644,3.58113883008419,13.038404810405297,3.08113883008419,29,23,267,126,48,8,267,129,81,18,22,301,126,73,17,23,77,13,173,-7,9,246,102,87,87,1.58941950904388,46.52956049652737,29.27456233660889,0.0,0.0,0.0,0.0,44.0,0.0,56.0,50,0.0,0,0,0,22,22,0,0,0,0,0,22,0,22,25,0,25,0,0,0,0,47,0,0,25,Neutral,Neutral,80.0,0.0,0.0,-2,2,4,21,18,-7,-6,0.0,30,13.333333333333334,92.87098580467497,0.0,0.0,54.04329964865341,46.83030975405738,23.779051845407498,79.05878298948969,1.4258028390650055,15.811756597897938,18.006219366693625,72.80090280559406,24.244786027931827,100.0,100.0,39.40881744842345,16.425802839065007
0,Test,ID1,BV01,58,0,11600,0,11600,Undified,Nan,faces\2038484810083859868.png,,,,,23,12.041594578792296,3.1622776601683795,12.041594578792296,2.5,26,20,266,126,48,8,266,129,90,19,21,301,126,43,7,16,66,12,175,-7,6,246,102,87,87,1.6473449156513398,46.38965401897282,28.16025568065745,0.0,0.0,0.0,0.0,0.0,0.0,100.0,50,0.0,0,0,0,0,0,0,0,0,0,0,0,0,0,25,0,25,0,0,0,0,25,0,0,25,Neutral,Neutral,80.0,0.0,0.0,-2,10,6,15,11,-6,-7,0.0,30,26.666666666666668,96.18104012833426,0.0,0.0,58.3645478143574,49.85518347005018,0.0,82.28328313084903,0.763791974333148,16.456656626169806,4.729137592299945,83.84501823924495,26.55532260663675,100.0,100.0,40.24249246962735,15.763791974333149
0,Test,ID1,BV01,59,0,11800,0,11800,Undified,Nan,faces\-599668077203922294.png,,,,,14,14.142135623730953,2.118033988749895,14.035668847618199,2.118033988749895,14,15,265,129,50,7,265,132,71,15,21,300,129,100,12,12,85,12,167,-7,3,246,102,87,87,1.550774263651161,45.39823785126467,29.27456233660889,0.0,0.0,0.0,0.0,0.0,0.0,100.0,50,0.0,0,0,0,0,0,0,0,0,0,0,0,0,0,25,0,25,0,0,0,0,25,0,0,25,Neutral,Neutral,80.0,0.0,0.0,-7,11,5,21,9,-4,-8,0.0,30,26.666666666666668,97.86759515267833,0.0,0.0,58.3645478143574,49.85518347005018,0.0,83.46387164788987,0.4264809694643333,16.692774329577976,4.6279442908393,84.24403173211755,27.690371085184225,100.0,100.0,41.119580747183484,15.426480969464333
0,Test,ID1,BV01,60,0,12000,0,12000,Undified,Nan,faces\-165963931202810042.png,,,,,20,12.16552506059644,3.1622776601683795,13.038404810405297,2.118033988749895,25,16,265,127,49,8,265,130,91,21,23,300,127,90,10,11,90,13,171,-7,3,246,102,87,87,1.5556574210502168,45.541190146942796,29.27456233660889,0.0,0.0,0.0,0.0,0.0,0.0,100.0,50,0.0,0,0,0,0,0,0,0,0,0,0,0,0,0,25,0,25,0,0,0,0,25,0,0,25,Neutral,Neutral,80.0,0.0,0.0,0,6,0,22,9,-6,-7,0.0,30,13.333333333333334,97.86759515267833,0.0,0.0,54.04329964865341,46.83030975405738,0.0,82.55640953309204,0.4264809694643333,16.511281906618407,4.6279442908393,83.95328552063776,26.634430935336784,100.0,100.0,40.2834614299638,15.426480969464333
0,Test,ID1,BV01,61,0,12200,0,12200,Undified,Nan,faces\2353939584756315278.png,,,,,20,14.142135623730953,3.08113883008419,13.038404810405297,2.618033988749895,21,20,265,126,49,8,265,129,88,22,25,300,126,50,9,18,69,13,172,-7,3,246,102,87,87,1.6473449156513398,46.38965401897282,28.16025568065745,0.0,0.0,0.0,0.0,0.0,0.0,100.0,50,0.0,0,0,0,0,0,0,0,0,0,0,0,0,0,25,0,25,0,0,0,0,25,0,0,25,Neutral,Neutral,80.0,0.0,0.0,0,3,1,23,12,-6,-8,0.0,30,13.333333333333334,97.86759515267833,0.0,0.0,54.04329964865341,46.83030975405738,0.0,82.55640953309204,0.4264809694643333,16.511281906618407,4.6279442908393,83.95328552063776,26.634430935336784,100.0,100.0,40.2834614299638,15.426480969464333
0,Test,ID1,BV01,62,0,12400,0,12400,Undified,Nan,faces\3783682181707968056.png,,,,,25,13.038404810405297,3.58113883008419,13.038404810405297,3.08113883008419,27,23,266,126,49,8,266,129,84,21,25,301,126,81,13,16,82,13,173,-6,0,246,102,87,87,1.6473449156513398,46.38965401897282,28.16025568065745,0.0,0.0,0.0,0.0,46.0,0.0,54.0,50,0.0,0,0,0,23,23,0,0,0,0,0,23,0,23,25,0,25,0,0,0,0,48,0,0,25,Neutral,Neutral,80.0,0.0,0.0,-9,6,3,12,17,-4,-10,0.0,30,13.333333333333334,98.33587956325762,0.0,0.0,54.04329964865341,46.83030975405738,24.85991783838057,82.88420862049755,0.33282408734847596,16.57684172409951,18.272802037313856,73.27017923219867,26.44807007834425,100.0,100.0,41.03263129307464,15.332824087348476
0,Test,ID1,BV01,63,0,12600,0,12600,Undified,Nan,faces\1288051716502023892.png,,,,,24,13.152946437965904,3.08113883008419,12.041594578792296,3.08113883008419,23,25,267,126,48,7,267,129,75,15,20,302,126,107,14,13,91,11,173,-6,0,246,102,87,87,1.7032568833972486,46.2709412050371,27.166155414412252,0.0,0.0,0.0,0.0,50.0,0.0,50.0,50,0.0,0,0,0,25,25,0,0,0,0,0,25,0,25,25,0,25,0,0,0,0,50,0,0,25,Neutral,Neutral,80.0,0.0,0.0,0,8,0,14,16,-6,-6,0.0,30,40.0,98.33587956325762,0.0,0.0,63.031318659671975,53.12192306177038,31.51565932983599,84.77169261281145,0.33282408734847596,16.954338522562292,21.933459857614338,70.33040137518968,25.82596329072183,100.0,100.0,40.61575389192171,15.332824087348476
0,Test,ID1,BV01,64,0,12800,0,12800,Undified,Nan,faces\7007711949886694922.png,,,,,25,13.038404810405297,3.5615528128088303,13.038404810405297,3.08113883008419,27,23,267,126,49,8,267,129,84,22,26,302,126,87,14,16,85,11,173,-5,0,246,102,87,87,1.6431293000233451,46.2709412050371,28.16025568065745,0.0,0.0,0.0,0.0,50.0,0.0,50.0,50,0.0,0,0,0,25,25,0,0,0,0,0,25,0,25,25,0,25,0,0,0,0,50,0,0,25,Neutral,Neutral,80.0,0.0,0.0,-5,12,7,19,9,-4,-8,0.0,30,40.0,98.33587956325762,0.0,0.0,63.031318659671975,53.12192306177038,31.51565932983599,84.77169261281145,0.33282408734847596,16.954338522562292,21.933459857614338,70.53040137518967,26.645963290721827,100.0,100.0,41.315753891921716,15.332824087348476
0,Test,ID1,BV01,65,0,13000,0,13000,Undified,Nan,faces\7777278602245483904.png,,,,,15,13.152946437965904,2.23606797749979,14.0,2.0,17,14,267,129,49,7,267,132,75,15,20,301,129,100,14,14,87,12,169,-6,-1,246,102,87,87,1.552985739111069,45.276925690687094,29.154759474226502,0.0,0.0,0.0,0.0,34.0,0.0,66.0,50,0.0,0,0,0,17,17,0,0,0,0,0,17,0,17,25,0,25,0,0,0,0,42,0,0,25,Neutral,Neutral,80.0,0.0,0.0,-6,12,0,22,18,-5,-7,0.0,30,26.666666666666668,98.34398171348894,0.0,0.0,58.3645478143574,49.85518347005018,19.843946256881516,83.79734224045731,0.33120365730221124,16.759468448091464,15.513531538475497,75.46890899326534,26.496226459440862,100.0,100.0,40.819601336068594,15.331203657302211
0,Test,ID1,BV01,66,0,13200,0,13200,Undified,Nan,faces\3839514103330302306.png,,,,,22,12.16552506059644,3.1622776601683795,12.0,2.5,25,20,269,127,47,7,269,130,94,17,18,303,127,93,14,15,93,11,172,-6,1,246,102,87,87,1.6078307741284692,45.276925690687094,28.16025568065745,0.0,0.0,0.0,0.0,49.0,0.0,51.0,50,0.0,0,0,0,24,24,0,0,0,0,0,24,0,24,25,0,25,0,0,0,0,50,0,0,25,Neutral,Neutral,80.0,0.0,0.0,-7,9,0,18,10,-6,-8,0.0,30,40.0,98.33694897577686,0.0,0.0,63.031318659671975,53.12192306177038,30.885346143239268,84.77244120157492,0.33261020484462733,16.954488240314983,21.586723440234984,70.60786536796952,25.853896837190682,100.0,100.0,40.61586618023624,15.332610204844627
0,Test,ID1,BV01,67,0,13400,0,13400,Undified,Nan,faces\-7396050546507315400.png,,,,,25,13.038404810405297,3.5615528128088303,13.038404810405297,3.08113883008419,27,23,269,127,47,8,269,130,88,22,25,302,127,72,16,22,80,11,173,-6,7,253,109,72,72,1.5725418175583552,44.28317965096907,28.16025568065745,0.0,0.0,0.0,0.0,50.0,0.0,50.0,50,0.0,0,0,0,25,25,0,0,0,0,0,25,0,25,25,0,25,0,0,0,0,50,0,0,25,Neutral,Neutral,80.0,0.0,0.0,-2,4,3,22,13,-7,-9,0.0,30,40.0,95.40106416225649,0.0,0.0,63.031318659671975,53.12192306177038,31.51565932983599,82.71732183211066,0.9197871675487023,16.543464366422132,22.109548781674405,69.88409315787155,24.86773977381482,100.0,100.0,39.957598274816604,15.919787167548701
0,Test,ID1,BV01,68,0,13600,0,13600,Undified,Nan,faces\7330345754965791731.png,,,,,25,12.041594578792296,3.08113883008419,12.041594578792296,3.08113883008419,25,25,269,131,45,7,269,133,91,21,23,301,131,107,15,14,99,12,174,-6,6,253,109,72,72,1.6160689441099934,42.2965719651132,26.1725046566048,0.0,0.0,0.0,9.0,0.0,0.0,91.0,50,0.0,4,0,0,0,0,0,0,0,4,0,0,0,0,25,4,25,4,0,0,0,25,4,0,25,Neutral,Neutral,80.0,0.0,0.0,-1,11,0,14,15,-5,-9,0.0,30,26.666666666666668,96.18104012833426,0.0,0.0,58.3645478143574,49.85518347005018,0.0,82.28328313084903,0.763791974333148,16.456656626169806,4.729137592299945,83.94501823924494,26.965322606636754,100.0,100.0,40.59249246962735,15.763791974333149
0,Test,ID1,BV01,69,0,13800,0,13800,Undified,Nan,faces\1724433401426219949.png,,,,,27,12.16552506059644,3.5,11.180339887498945,3.08113883008419,28,27,268,134,45,7,268,136,75,15,20,301,134,55,10,18,65,11,174,-7,6,253,117,72,72,1.6540152427827457,43.289721643826724,26.1725046566048,0.0,0.0,0.0,49.0,0.0,0.0,51.0,50,0.0,24,0,0,0,0,0,0,0,24,0,0,0,0,25,24,25,24,0,0,0,25,24,0,25,Neutral,Neutral,100.0,0.0,0.0,-1,3,7,16,20,-7,-9,0.0,30,40.0,96.18104012833426,0.0,0.0,63.031318659671975,53.12192306177038,0.0,83.2633050083651,0.763791974333148,16.65266100167302,4.729137592299945,83.84302042699655,26.400128294790928,100.0,100.0,40.03949575125476,15.763791974333149
0,Test,ID1,BV01,70,0,14000,0,14000,Undified,Nan,faces\4953822144499898369.png,,,,,17,12.041594578792296,2.23606797749979,12.0,2.0,18,16,269,136,45,6,269,138,88,16,18,301,136,100,12,12,94,11,172,-6,1,253,117,72,72,1.6346518653423454,44.407206622349044,27.166155414412252,0.0,0.0,0.0,0.0,42.0,0.0,58.0,50,0.0,0,0,0,21,21,0,0,0,0,0,21,0,21,25,0,25,0,0,0,0,46,0,0,25,Neutral,Neutral,100.0,0.0,0.0,-7,2,5,16,17,-7,-9,0.0,30,40.0,98.33694897577686,0.0,0.0,63.031318659671975,53.12192306177038,26.473153837062227,84.77244120157492,0.33261020484462733,16.954488240314983,19.160017671837615,72.44922998268741,25.63803329866247,100.0,100.0,40.265866180236245,15.332610204844627
0,Test,ID1,BV01,71,0,14200,0,14200,Undified,Nan,faces\-3682156115285790616.png,,,,,23,12.041594578792296,3.0,13.038404810405297,3.08113883008419,24,23,267,134,46,7,267,136,71,15,21,299,134,78,15,19,74,11,170,-6,-2,253,117,72,72,1.5981866417929482,43.41658669218482,27.166155414412252,0.0,0.0,0.0,0.0,0.0,0.0,100.0,50,0.0,0,0,0,0,0,0,0,0,0,0,0,0,0,25,0,25,0,0,0,0,25,0,0,25,Neutral,Neutral,100.0,0.0,0.0,-1,7,-1,17,16,-6,-9,0.0,30,40.0,98.12826950307297,0.0,0.0,63.031318659671975,53.12192306177038,0.0,84.6263655706822,0.37434609938540575,16.92527311413644,4.612303829815621,84.17279349321574,27.173870741992125,100.0,100.0,40.593954835602325,15.374346099385406
0,Test,ID1,BV01,72,0,14400,0,14400,Undified,Nan,faces\-8726495436437159206.png,,,,,25,12.041594578792296,3.08113883008419,12.0,3.08113883008419,25,25,267,133,45,7,267,135,81,18,22,299,133,93,15,16,87,13,171,-6,4,246,112,87,86,1.6300863694343684,44.28317965096907,27.166155414412252,0.0,0.0,0.0,98.0,0.0,0.0,2.0,50,0.0,49,0,0,0,0,0,0,0,49,0,0,0,0,25,49,25,49,0,0,0,25,49,0,25,Joy,Neutral,100.0,100.0,0.0,96,16,81,96,26,78,6,98.0,30,13.333333333333334,97.36189547074287,0.0,0.0,54.04329964865341,46.83030975405738,0.0,82.20241975573721,0.5276209058514268,86.21648395114744,4.658286271755428,92.29361295816939,85.47996623475125,100.0,100.0,89.23036296336059,40.02762090585143
0,Test,ID1,BV01,73,0,14600,0,14600,Undified,Nan,faces\48358142445457342.png,,,,,18,11.180339887498945,2.23606797749979,12.0,2.118033988749895,20,17,268,129,45,6,268,131,61,11,18,300,129,90,10,11,75,12,166,-5,0,253,109,72,72,1.7032568833972486,46.2709412050371,27.166155414412252,0.0,0.0,0.0,0.0,0.0,0.0,100.0,50,0.0,0,0,0,0,0,0,0,0,0,0,0,0,0,25,0,25,0,0,0,0,25,0,0,25,Neutral,Neutral,100.0,0.0,0.0,1,5,0,12,9,-6,-7,0.0,30,26.666666666666668,98.33587956325762,0.0,0.0,58.3645478143574,49.85518347005018,0.0,83.79167073529538,0.33282408734847596,16.758334147059077,4.599847226204543,84.09928929256591,26.95784661308044,100.0,100.0,40.46875061029431,15.332824087348476
0,Test,ID1,BV01,74,0,14800,0,14800,Undified,Nan,faces\-5575043616874699690.png,,,,,27,12.0,3.5,12.041594578792296,3.1622776601683795,29,26,268,138,46,7,268,140,90,18,20,301,138,123,16,13,106,11,176,-5,4,246,112,87,86,1.4797641356037017,40.19950248448356,27.166155414412252,0.0,0.0,0.0,0.0,50.0,0.0,50.0,50,0.0,0,0,0,25,25,0,0,0,0,0,25,0,25,25,0,25,0,0,0,0,50,0,0,25,Neutral,Neutral,100.0,0.0,0.0,-1,8,7,22,10,-6,-7,0.0,30,40.0,97.36189547074287,0.0,0.0,63.031318659671975,53.12192306177038,31.51565932983599,84.08990374805111,0.5276209058514268,16.817980749610225,21.991898903165225,70.21547125227295,25.644023062240073,100.0,100.0,40.51348556220766,15.527620905851427
0,Test,ID1,BV01,75,0,15000,0,15000,Undified,Nan,faces\-5177366213205829871.png,,,,,25,12.0,3.08113883008419,12.041594578792296,3.1622776601683795,25,26,268,134,46,6,268,136,82,14,17,301,134,107,14,13,94,11,176,-4,5,246,112,87,86,1.5950982213039715,43.18564576337836,27.07397274136177,0.0,0.0,0.0,90.0,0.0,0.0,10.0,50,0.0,45,0,0,0,0,0,0,0,45,0,0,0,0,25,45,25,45,0,0,0,25,45,0,25,Joy,Neutral,100.0,100.0,0.0,92,22,85,87,22,77,6,90.0,30,40.0,96.83621206325527,0.0,0.0,63.031318659671975,53.12192306177038,0.0,83.7219253628098,0.6327575873489452,80.46438507256197,4.689827276204683,92.32033071531724,83.46251441223419,100.0,100.0,87.50828880442147,38.13275758734895
0,Test,ID1,BV01,76,0,15200,0,15200,Undified,Nan,faces\-6260806603574332625.png,,,,,29,12.041594578792296,3.5,12.041594578792296,3.58113883008419,29,29,268,132,46,7,268,134,95,22,23,301,132,100,22,22,97,12,173,-5,1,246,112,87,86,1.5935166748277,43.289721643826724,27.166155414412252,0.0,0.0,0.0,98.0,0.0,0.0,2.0,50,0.0,49,0,0,0,0,0,0,0,49,0,0,0,0,25,49,25,49,0,0,0,25,49,0,25,Joy,Neutral,100.0,100.0,0.0,97,19,76,90,22,78,6,98.0,30,26.666666666666668,98.33694897577686,0.0,0.0,58.3645478143574,49.85518347005018,0.0,83.79241932405886,0.33261020484462733,86.53448386481176,4.5997830614533886,92.49941548324317,85.89804637933904,100.0,100.0,89.46886289860882,39.83261020484463
0,Test,ID1,BV01,77,0,15400,0,15400,Undified,Nan,faces\5110319554334504314.png,,,,,19,12.041594578792296,2.58113883008419,12.0,2.118033988749895,21,17,268,134,46,6,268,136,94,17,18,301,134,100,12,12,97,13,173,-5,0,253,109,72,72,1.6300863694343684,44.28317965096907,27.166155414412252,0.0,0.0,0.0,0.0,0.0,0.0,100.0,50,0.0,0,0,0,0,0,0,0,0,0,0,0,0,0,25,0,25,0,0,0,0,25,0,0,25,Neutral,Neutral,80.0,0.0,0.0,0,9,2,18,21,-6,-7,0.0,30,13.333333333333334,98.33587956325762,0.0,0.0,54.04329964865341,46.83030975405738,0.0,82.88420862049755,0.33282408734847596,16.57684172409951,4.599847226204543,84.00854308108612,26.721906463232997,100.0,100.0,40.332631293074634,15.332824087348476
0,Test,ID1,BV01,78,0,15600,0,15600,Undified,Nan,faces\-1963581403737836790.png,,,,,21,12.041594578792296,3.1622776601683795,12.041594578792296,2.118033988749895,26,17,267,132,46,6,267,133,86,20,23,300,132,72,8,11,79,12,173,-5,4,253,109,72,72,1.6263414309008115,44.181444068749045,27.166155414412252,0.0,0.0,0.0,0.0,0.0,0.0,100.0,50,0.0,0,0,0,0,0,0,0,0,0,0,0,0,0,25,0,25,0,0,0,0,25,0,0,25,Neutral,Neutral,80.0,0.0,0.0,0,5,7,19,10,-5,-7,0.0,30,26.666666666666668,97.36189547074287,0.0,0.0,58.3645478143574,49.85518347005018,0.0,83.10988187053505,0.5276209058514268,16.62197637410701,4.658286271755428,84.08435916964918,27.18590638459868,100.0,100.0,40.71648228058026,15.527620905851427
0,Test,ID1,BV01,79,0,15800,0,15800,Undified,Nan,faces\8722752985356526318.png,,,,,26,12.041594578792296,3.1622776601683795,11.04536101718726,3.08113883008419,26,27,267,131,45,7,267,133,78,18,23,300,131,72,13,18,75,12,174,-6,5,246,112,87,86,1.6588625071169243,43.41658669218482,26.1725046566048,0.0,0.0,0.0,21.0,0.0,0.0,79.0,50,0.0,10,0,0,0,0,0,0,0,10,0,0,0,0,25,10,25,10,0,0,0,25,10,0,25,Neutral,Neutral,80.0,0.0,0.0,-4,4,6,12,14,-6,-6,0.0,30,26.666666666666668,96.83621206325527,0.0,0.0,58.3645478143574,49.85518347005018,0.0,82.74190348529373,0.6327575873489452,16.548380697058747,4.689827276204683,83.92232852756564,26.67770872408,100.0,100.0,40.31128552279406,15.632757587348944
0,Test,ID1,BV01,80,0,16000,0,16000,Undified,Nan,faces\-4217050380638552697.png,,,,,24,13.038404810405297,3.0,12.0,3.08113883008419,23,25,266,131,46,7,266,133,65,17,26,299,131,94,16,17,79,13,171,-6,-1,253,109,72,72,1.6346518653423454,44.407206622349044,27.166155414412252,0.0,0.0,0.0,0.0,0.0,0.0,100.0,50,0.0,0,0,0,0,0,0,0,0,0,0,0,0,0,25,0,25,0,0,0,0,25,0,0,25,Neutral,Neutral,100.0,0.0,0.0,-3,5,1,23,13,-5,-6,0.0,30,13.333333333333334,98.34398171348894,0.0,0.0,54.04329964865341,46.83030975405738,0.0,82.88988012565947,0.33120365730221124,16.577976025131896,4.5993610971906635,84.10949913481342,27.13341994489621,100.0,100.0,40.68348201884892,15.331203657302211
0,Test,ID1,BV01,81,0,16200,0,16200,Undified,Nan,faces\1955654072734998514.png,,,,,24,11.04536101718726,2.618033988749895,12.0,3.0,23,25,268,132,45,6,268,134,77,14,18,300,132,94,16,17,85,12,169,-5,5,253,109,72,72,1.5935166748277,43.289721643826724,27.166155414412252,0.0,0.0,0.0,0.0,0.0,0.0,100.0,50,0.0,0,0,0,0,0,0,0,0,0,0,0,0,0,25,0,25,0,0,0,0,25,0,0,25,Neutral,Neutral,100.0,0.0,0.0,-4,5,0,12,17,-5,-9,0.0,30,26.666666666666668,96.83621206325527,0.0,0.0,58.3645478143574,49.85518347005018,0.0,82.74190348529373,0.6327575873489452,16.548380697058747,4.689827276204683,84.02232852756563,27.087708724079995,100.0,100.0,40.66128552279406,15.632757587348944
0,Test,ID1,BV01,82,0,16400,0,16400,Undified,Nan,faces\-8351223113171232558.png,,,,,23,11.04536101718726,2.5,12.0,3.0,22,25,270,131,44,4,270,131,71,10,14,301,131,94,16,17,82,12,171,-3,2,253,109,72,72,1.6529830432210944,43.104524124504614,26.0768096208106,0.0,0.0,0.0,0.0,50.0,0.0,50.0,50,0.0,0,0,0,25,25,0,0,0,0,0,25,0,25,25,0,25,0,0,0,0,50,0,0,25,Neutral,Neutral,100.0,0.0,0.0,0,2,2,22,14,-7,-8,0.0,30,26.666666666666668,98.2404278726887,0.0,0.0,58.3645478143574,49.85518347005018,29.1822739071787,83.72485455189714,0.3519144254622603,16.74497091037943,20.655824976586963,71.14782547392015,25.245996185366298,100.0,100.0,40.108728182784574,15.35191442546226
0,Test,ID1,BV01,83,0,16600,0,16600,Undified,Nan,faces\3682972891262947180.png,,,,,22,11.04536101718726,2.618033988749895,12.0,2.58113883008419,23,21,271,132,45,4,271,132,82,14,17,303,132,88,16,18,85,12,170,-2,1,253,109,72,72,1.694983475080992,44.10215414239989,26.019223662515373,0.0,0.0,0.0,92.0,0.0,0.0,8.0,50,0.0,46,0,0,0,0,0,0,0,46,0,0,0,0,25,46,25,46,0,0,0,25,46,0,25,Joy,Neutral,100.0,100.0,0.0,96,19,80,89,27,76,6,92.0,30,26.666666666666668,98.33694897577686,0.0,0.0,58.3645478143574,49.85518347005018,0.0,83.79241932405886,0.33261020484462733,81.52648386481178,4.5997830614533886,92.29941548324317,83.57804637933904,100.0,100.0,87.56886289860883,38.33261020484463
0,Test,ID1,BV01,84,0,16800,0,16800,Undified,Nan,faces\4115229970084962870.png,,,,,16,12.041594578792296,2.118033988749895,12.0,2.0,17,16,272,134,44,3,272,134,100,12,12,303,134,100,12,12,100,11,168,-1,0,261,109,72,72,1.6301945425547657,44.04543109109048,27.018512172212592,0.0,0.0,10.0,0.0,36.0,0.0,54.0,50,0.0,0,5,10,18,18,0,0,0,5,0,23,0,18,25,0,25,0,0,5,0,43,0,0,30,Neutral,Neutral,100.0,0.0,0.0,-3,8,8,19,13,-6,-6,0.0,30,40.0,98.33587956325762,0.0,0.0,63.031318659671975,53.12192306177038,22.69127471748191,84.77169261281145,0.33282408734847596,16.954338522562292,17.080048320819593,74.21313060462548,26.214236213665412,96.0,100.0,39.61575389192171,15.332824087348476
0,Test,ID1,BV01,85,0,17000,0,17000,Undified,Nan,faces\6303782968591484153.png,,,,,22,12.0,3.08113883008419,12.041594578792296,2.5,25,20,271,131,46,5,271,131,88,15,17,304,132,105,18,17,96,11,168,-1,-4,261,109,72,72,1.7061532475453631,46.09772228646443,27.018512172212592,0.0,0.0,0.0,0.0,50.0,0.0,50.0,50,0.0,0,0,0,25,25,0,0,0,0,0,25,0,25,25,0,25,0,0,0,0,50,0,0,25,Neutral,Neutral,100.0,0.0,0.0,-2,8,0,11,15,-6,-7,0.0,30,40.0,97.31410088943862,0.0,0.0,63.031318659671975,53.12192306177038,31.51565932983599,84.05644754113814,0.537179822112276,16.811289508227627,21.99476657804348,70.20983149167904,25.63509503445244,100.0,100.0,40.50846713117072,15.537179822112275
0,Test,ID1,BV01,86,0,17200,0,17200,Undified,Nan,faces\4283677797583328814.png,,,,,25,12.0,3.08113883008419,12.041594578792296,3.08113883008419,25,25,271,131,45,4,271,131,76,13,17,303,131,100,15,15,88,10,170,0,0,253,109,72,72,1.6296296296296295,44.0,27.0,1.0,0.0,0.0,65.0,0.0,0.0,35.0,50,0.0,32,0,0,0,0,0,0,0,32,0,0,0,0,25,33,25,32,0,0,0,25,32,0,25,Joy,Neutral,100.0,98.48484848484848,1.5151515151515151,99,18,80,94,18,79,5,66.0,30,40.0,98.33587956325762,0.0,0.0,68.07123983233853,56.64986788263697,0.6807123983233854,85.83007605907142,1.132824087348476,64.42201521181428,5.214239045282405,92.31161636968123,78.78868065173597,99.9,99.0,83.52451140886072,32.21161196613635
0,Test,ID1,BV01,87,0,17400,0,17400,Undified,Nan,faces\685655165141978155.png,,,,,27,12.0,3.5,12.0,3.0,29,25,271,130,45,5,271,130,81,18,22,303,131,93,14,15,87,12,171,-1,0,261,109,72,72,1.6300504507159546,44.01136216933078,27.0,0.0,0.0,0.0,0.0,50.0,0.0,50.0,50,0.0,0,0,0,25,25,0,0,0,0,0,25,0,25,25,0,25,0,0,0,0,50,0,0,25,Neutral,Neutral,80.0,0.0,0.0,-4,4,3,14,10,-5,-9,0.0,30,20.0,98.33587956325762,0.0,0.0,58.3645478143574,49.85518347005018,29.1822739071787,83.79167073529538,0.33282408734847596,16.758334147059077,20.650097875152827,71.35908877340728,26.083826561164575,100.0,100.0,40.81875061029431,15.332824087348476
0,Test,ID1,BV01,88,0,17600,0,17600,Undified,Nan,faces\-1594058419909929777.png,,,,,17,12.041594578792296,2.118033988749895,12.041594578792296,2.118033988749895,17,17,273,134,45,3,273,134,100,12,12,305,134,100,12,12,100,12,166,0,-2,261,109,72,72,1.6075396335609855,45.01110973970761,28.0,0.0,0.0,1.0,0.0,0.0,0.0,99.0,50,0.0,0,0,1,0,0,0,0,0,0,0,0,0,0,25,0,25,0,0,0,0,25,0,0,26,Neutral,Neutral,80.0,0.0,0.0,-4,3,8,15,16,-5,-7,0.0,30,20.0,98.12826950307297,0.0,0.0,58.3645478143574,49.85518347005018,0.583645478143574,83.64634369316613,0.37434609938540575,16.729268738633227,4.933308842794587,83.91798729508095,27.30338465279963,99.6,100.0,40.69695155397492,15.374346099385406
0,Test,ID1,BV01,89,0,17800,0,17800,Undified,Nan,faces\6820358853395847638.png,,,,,24,13.038404810405297,3.0,12.0,3.0,23,25,273,130,46,5,273,130,69,18,26,306,131,94,16,17,81,11,170,-1,0,261,109,72,72,1.7041448263105738,46.04345773288535,27.018512172212592,0.0,0.0,0.0,0.0,0.0,0.0,100.0,50,0.0,0,0,0,0,0,0,0,0,0,0,0,0,0,25,0,25,0,0,0,0,25,0,0,25,Neutral,Neutral,80.0,0.0,0.0,-4,3,2,22,15,-5,-8,0.0,30,30.0,98.33587956325762,0.0,0.0,63.031318659671975,53.12192306177038,0.0,84.77169261281145,0.33282408734847596,16.954338522562292,4.599847226204543,84.29729148031751,27.622652301234616,100.0,100.0,40.965753891921715,15.332824087348476
0,Test,ID1,BV01,90,0,18000,0,18000,Undified,Nan,faces\-1605802439188385732.png,,,,,25,11.04536101718726,3.0,12.041594578792296,3.0,27,24,273,126,46,4,273,126,93,14,15,306,126,87,14,16,90,14,168,-1,0,256,102,86,87,1.6211927810270303,47.04253394535629,29.017236257093817,0.0,2.0,0.0,0.0,48.0,0.0,50.0,50,0.0,0,0,0,24,25,1,0,0,0,0,24,1,24,26,0,25,0,0,1,0,49,1,0,25,Neutral,Neutral,100.0,0.0,0.0,-3,12,5,17,11,-4,-6,0.0,30,0.0,98.33587956325762,0.0,0.0,50.041992036057,44.0293944252399,24.020156177307364,82.04393402185231,1.932824087348476,16.40878680437046,18.290933123723594,73.17164690320635,26.22814819578371,99.0,98.0,40.50659010327785,15.332824087348476
0,Test,ID1,BV01,91,0,18200,0,18200,Undified,Nan,faces\4293641806807781628.png,,,,,26,12.041594578792296,3.5,13.038404810405297,3.0,29,23,270,123,48,5,270,123,76,16,21,304,123,82,14,17,79,14,167,-2,-2,256,102,86,87,1.691258415968949,49.16299421312742,29.068883707497267,0.0,0.0,0.0,0.0,39.0,0.0,61.0,50,0.0,0,0,0,20,20,0,0,0,0,0,20,0,20,25,0,25,0,0,0,0,44,0,0,25,Neutral,Neutral,100.0,0.0,0.0,-3,13,0,15,14,-7,-8,0.0,30,0.0,98.12826950307297,0.0,0.0,50.041992036057,44.0293944252399,19.516376894062233,81.89860697972306,0.37434609938540575,16.37972139594461,15.346311121549851,75.21281180073242,25.195932925004005,100.0,100.0,39.83479104695846,15.374346099385406
