Problem,NameTest,User,Module,Image,Timestamp,TimeBlock,TimeVideo,TimeDetection,URL_Media,Codigo_Media,URL,XEyeTracking,YEyeTracking,Distance,Velocity,Blinks,B_left_horizontal,B_left_vertical,B_right_horizontal,B_right_vertical,PLeftEAR,PRightEAR,XFrame,YFrame,WFrame,HFrame,XEyeLeft,YEyeLeft,GazeRatioLeft,LWLeft,RWLeft,XEyeRight,YEyeRight,GazeRatioRight,LWRight,RWRight,GazeRatioAvg,FrownT,Pitch,Roll,Yaw,XPose,YPose,WidthPose,HeightPose,MouthRatio,VMouth,HMouth,Anger,Disgust,Fear,Joy,Sadness,Surprise,Neutral,Anticipation,Trust,Love,Submission,Awe,Disapproval,Remorse,Contempt,Agressiveness,Optimism,Guilt,Curiosity,Despair,Unbelief,Envy,Cynicism,Pride,Hope,Delight,Sentimentality,Shame,Outrage,Pessimism,Morbidness,Dominance,Anxiety,Predominant,Trend,Veracity,Positive valence,Negative valence,Jvalence,Jarousal,Jdominance,Evalence,Earousal,Dvalence,Darousal,Intensity,eng_blinks,eng_frownt,FOCUS,Stress,Variant2,Stress_intens,Cognitive effort,Frustration,Interest,Rejection,Commitment,Confusion,Comprehension,Performance,Confidence 1,Confidence 2,PerformancePolit,Variant
0,Test,ID1,BV01,1,0,200,0,200,Undified,Nan,faces\-9190729480240501520.png,,,,,25,29.068883707497267,7.071067811865476,29.017236257093817,8.031128874149275,24,27,287,132,98,9,287,132,120,18,15,355,132,100,0,2,110,23,-177,1,-7,261,95,149,149,1.4220776465136336,84.09518416651456,59.13543776789008,100.0,0.0,0.0,0.0,0.0,0.0,0.0,50,0.0,0,0,0,0,0,50,0,0,0,0,0,0,50,25,50,25,0,0,0,50,25,0,0,25,Anger,Neutral,80.0,9.090909090909092,90.9090909090909,-42,73,29,-60,88,-45,65,100.0,30.0,20.0,95.25297182181426,0.0,0.0,47.86229725112321,42.503608075786246,47.86229725112321,79.42816269800585,80.94940563563715,37.88563253960117,55.10908517880891,39.35554812675346,30.792595487176808,90.0,0.0,26.164224404700875,63.676678362909875
0,Test,ID1,BV01,2,0,400,0,400,Undified,Nan,faces\-7990294629425983178.png,,,,,26,29.068883707497267,7.535533905932738,28.071337695236398,8.06225774829855,25,28,287,131,98,9,287,131,94,17,18,356,131,100,0,7,97,23,-177,1,-6,261,95,149,149,1.463662424299979,85.09406559801924,58.137767414994535,55.0,0.0,0.0,0.0,0.0,0.0,45.0,50,0.0,0,0,0,0,0,28,0,0,0,0,0,0,28,25,28,25,0,0,0,28,25,0,0,25,Anger,Neutral,80.0,15.384615384615385,84.61538461538461,-39,77,32,-56,98,-45,64,55.0,30.0,20.0,96.08455793760838,0.0,0.0,47.86229725112321,42.503608075786246,47.86229725112321,80.01027297906174,44.78308841247832,28.10205459581235,44.259190011861264,48.09367528841717,20.561935773607154,94.5,45.0,26.251540946859258,50.686934566324474
0,Test,ID1,BV01,3,0,600,0,600,Undified,Nan,faces\910007518318920599.png,,,,,13,26.0,3.5615528128088303,24.020824298928627,3.5,13,14,294,138,87,5,294,138,500,17,0,356,138,100,0,0,300,22,176,2,-12,261,95,149,149,1.5690445511669475,94.26027795418386,60.07495318350236,55.0,0.0,0.0,0.0,0.0,0.0,45.0,50,0.0,0,0,0,0,0,28,0,0,0,0,0,0,28,25,28,25,0,0,0,28,25,0,0,25,Anger,Neutral,80.0,15.384615384615385,84.61538461538461,-37,77,34,-53,98,-42,64,55.0,30.0,40.0,88.3563903558904,0.0,0.0,50.44883526787211,44.314184687510476,50.44883526787211,75.1437286553764,46.32872192882192,27.78874573107528,46.14547597597624,46.39799208475665,20.375731372319766,94.5,45.0,26.57155929830646,52.232568082668074
0,Test,ID1,BV01,4,0,800,0,800,Undified,Nan,faces\5549230441733735381.png,,,,,25,29.017236257093817,6.5,27.07397274136177,8.0,22,29,288,130,97,9,288,131,500,17,0,357,130,100,0,0,300,23,-179,0,-14,261,95,149,149,1.5780737089256434,90.00555538409837,57.0350769263968,55.0,0.0,0.0,0.0,0.0,0.0,45.0,50,0.0,0,0,0,0,0,28,0,0,0,0,0,0,28,25,28,25,0,0,0,28,25,0,0,25,Anger,Neutral,100.0,15.384615384615385,84.61538461538461,-39,73,27,-50,93,-43,65,55.0,30.0,0.0,83.22837744143138,0.0,0.0,47.86229725112321,42.503608075786246,47.86229725112321,71.01094663173784,47.35432451171373,26.74218932634757,45.03056084163189,46.77664598986828,18.98040125692129,94.5,45.0,25.601641994760676,53.25817066555988
0,Test,ID1,BV01,5,0,1000,0,1000,Undified,Nan,faces\1701603492331781140.png,,,,,27,29.068883707497267,7.566662780082012,27.018512172212592,8.06225774829855,26,29,288,130,97,9,288,130,500,22,0,357,130,100,0,0,300,24,-179,1,-13,261,95,149,149,1.5581378938576236,92.04890004774636,59.07622195096772,55.0,0.0,0.0,0.0,0.0,0.0,45.0,50,0.0,0,0,0,0,0,28,0,0,0,0,0,0,28,25,28,25,0,0,0,28,25,0,0,25,Anger,Neutral,100.0,15.384615384615385,84.61538461538461,-43,80,27,-58,90,-45,62,55.0,30.0,0.0,85.82235123333135,0.0,0.0,45.40837238345027,40.78586066841518,45.40837238345027,72.31140406385649,46.83552975333373,26.5622808127713,43.52526373689777,47.91092941686743,18.618943957650863,94.5,45.0,25.096710609578473,52.739375907179884
0,Test,ID1,BV01,6,0,1200,0,1200,Undified,Nan,faces\4160410482532904326.png,,,,,27,29.068883707497267,8.031128874149275,26.019223662515373,7.531128874149275,27,28,295,133,95,10,295,134,500,42,0,363,133,100,0,0,300,22,-178,0,-21,261,95,149,149,1.5484980315925991,88.27797007181351,57.00877125495689,55.0,0.0,0.0,0.0,0.0,0.0,45.0,50,0.0,0,0,0,0,0,28,0,0,0,0,0,0,28,25,28,25,0,0,0,28,25,0,0,25,Anger,Neutral,100.0,15.384615384615385,84.61538461538461,-45,78,27,-54,94,-46,64,55.0,30.0,40.0,55.01398981388843,0.0,0.0,50.44883526787211,44.314184687510476,50.44883526787211,51.80404827597504,52.997202037222316,22.240809655195008,48.14602000849636,42.06358882080042,12.507370951073803,94.5,45.0,21.670607241396258,58.90104819106847
0,Test,ID1,BV01,7,0,1400,0,1400,Undified,Nan,faces\-8652595952857323938.png,,,,,18,29.154759474226502,5.5908910219455015,27.018512172212592,5.0,19,18,302,138,94,9,302,138,500,63,0,368,141,100,0,0,300,20,-178,1,-18,277,95,150,149,1.3426281169011105,87.28115489611719,65.00769185258002,0.0,0.0,3.0,58.0,0.0,0.0,38.0,50,0.0,29,2,3,0,0,0,0,0,30,0,2,0,0,25,29,25,29,0,2,0,25,29,0,26,Joy,Neutral,100.0,95.08196721311475,4.918032786885246,92,14,85,89,25,79,4,61.0,30.0,40.0,68.88730486503205,0.0,0.0,56.0488043568919,48.234163049824325,1.6814641307067568,62.69136232046973,6.222539026993591,56.21427246409395,7.2915669799867935,88.33588264805755,71.35642884492319,98.8,100.0,78.95370434807046,37.7020472237149
0,Test,ID1,BV01,11,0,2200,0,2200,Undified,Nan,faces\5354746255896745181.png,,,,,29,30.01666203960727,8.5,30.066592756745816,9.055385138137416,28,30,283,134,103,11,283,135,325,26,8,355,134,100,0,4,212,21,-176,0,17,234,94,179,179,1.4607120645338452,95.0473566176356,65.06919393998976,0.0,0.0,3.0,68.0,0.0,0.0,29.0,50,0.0,34,2,3,0,0,0,0,0,36,0,2,0,0,25,34,25,34,0,2,0,25,34,0,26,Joy,Neutral,100.0,95.77464788732394,4.225352112676056,99,15,83,87,22,78,8,71.0,30.0,30.0,73.27327600790984,0.0,0.0,53.17515301305708,46.22260710913995,1.5952545903917124,65.15807533827888,5.345344798418032,63.58361506765578,6.980993464240852,88.7310127624352,74.11262011081324,98.8,100.0,80.97371130074184,39.15168282658705
0,Test,ID1,BV01,12,0,2400,0,2400,Undified,Nan,faces\-7413203787305415934.png,,,,,29,31.06444913401813,9.027692569068707,31.144823004794873,9.552630379629154,29,30,285,134,104,11,285,135,414,29,7,357,134,100,0,3,257,23,-176,0,10,261,95,149,149,1.3735805429304735,88.00568163476721,64.07027391856539,0.0,0.0,0.0,71.0,0.0,0.0,29.0,50,0.0,36,0,0,0,0,0,0,0,36,0,0,0,0,25,36,25,36,0,0,0,25,36,0,25,Joy,Neutral,100.0,100.0,0.0,97,14,85,94,24,78,5,71.0,30.0,10.0,91.70251523267711,0.0,0.0,47.86229725112321,42.503608075786246,0.0,76.94284308560985,1.6594969534645772,65.94056861712197,4.997849086039373,91.49600503972948,77.33531127537542,100.0,100.0,83.04142646284149,34.409496953464576
0,Test,ID1,BV01,13,0,2600,0,2600,Undified,Nan,faces\6818732134197080140.png,,,,,28,29.017236257093817,8.0,30.066592756745816,9.055385138137416,27,30,289,133,101,10,289,134,164,23,14,359,133,100,0,4,132,23,-177,0,12,261,95,149,149,1.4120762106795717,89.00561780022652,63.0317380372777,50.0,0.0,1.0,0.0,0.0,0.0,50.0,50,0.0,0,0,1,0,0,25,0,0,0,0,0,0,25,25,25,25,0,0,0,25,25,0,0,26,Neutral,Neutral,100.0,0.0,0.0,0,9,8,23,17,-6,-8,0.0,30.0,10.0,88.04403301853132,0.0,0.0,47.86229725112321,42.503608075786246,23.931148625561605,74.3819055357078,42.39119339629374,14.876381107141562,30.379489762947003,62.534598743213174,22.44893625824827,94.6,50.0,28.95728583035617,17.391193396293737
0,Test,ID1,BV01,14,0,2800,0,2800,Undified,Nan,faces\-418678053151020182.png,,,,,29,29.068883707497267,8.031128874149275,29.154759474226502,9.055385138137416,27,31,289,134,99,10,289,135,466,28,6,358,134,100,0,11,283,23,-178,0,7,261,95,149,149,1.4305995952397852,83.02409288875127,58.034472514187634,55.0,0.0,0.0,0.0,0.0,0.0,45.0,50,0.0,0,0,0,0,0,28,0,0,0,0,0,0,28,25,28,25,0,0,0,28,25,0,0,25,Anger,Neutral,100.0,15.384615384615385,84.61538461538461,-44,80,36,-58,88,-44,63,55.0,30.0,10.0,95.21913057972559,0.0,0.0,47.86229725112321,42.503608075786246,47.86229725112321,79.40447382854379,44.956173884054884,28.20089476570876,44.311115653334234,48.091554860186996,20.810273943154645,94.5,45.0,26.510671074281568,50.86002003790104
0,Test,ID1,BV01,15,0,3000,0,3000,Undified,Nan,faces\1539402798873325214.png,,,,,17,27.0,4.5,26.0,5.0,16,19,294,141,95,6,294,141,500,35,0,362,141,100,0,0,300,24,179,0,-1,261,112,149,149,1.5,87.05170877128145,58.034472514187634,0.0,0.0,0.0,0.0,33.0,0.0,67.0,50,0.0,0,0,0,16,16,0,0,0,0,0,16,0,16,25,0,25,0,0,0,0,42,0,0,25,Neutral,Neutral,100.0,0.0,0.0,-4,10,1,11,17,-7,-8,0.0,30.0,0.0,98.34398171348894,0.0,0.0,45.40837238345027,40.78586066841518,14.98476288653859,81.07654539996682,0.33120365730221124,16.215309079993364,12.840980684786889,77.13486999216718,25.182623349208423,100.0,100.0,39.71148180999502,15.331203657302211
0,Test,ID1,BV01,22,0,4400,0,4400,Undified,Nan,faces\9034425534206669490.png,,,,,14,27.166155414412252,4.061552812808832,29.154759474226502,4.123105625617661,14,14,289,140,95,14,289,140,1350,54,4,354,148,100,0,0,725,24,-178,5,17,261,112,149,149,1.4075122414329129,85.0235261559999,60.40695324215582,0.0,0.0,0.0,69.0,0.0,0.0,31.0,50,0.0,34,0,0,0,0,0,0,0,34,0,0,0,0,25,34,25,34,0,0,0,25,34,0,25,Joy,Neutral,100.0,100.0,0.0,94,21,75,93,26,79,7,69.0,30.0,0.0,73.27327600790984,0.0,0.0,45.40837238345027,40.78586066841518,0.0,63.527051406061446,5.345344798418032,62.10941028121229,6.1036034395254095,89.36982238898582,73.66874509041394,100.0,100.0,80.97905771090922,37.59534479841803
0,Test,ID1,BV01,25,0,5000,0,5000,Undified,Nan,faces\3098409501822402125.png,,,,,17,27.07397274136177,5.049509756796391,29.068883707497267,5.0990195135927845,18,17,285,149,95,13,285,149,1150,46,4,350,155,100,0,0,625,24,-176,4,22,261,112,149,149,1.3764681131238183,83.0,60.29925372672534,0.0,0.0,0.0,71.0,0.0,0.0,29.0,50,0.0,36,0,0,0,0,0,0,0,36,0,0,0,0,25,36,25,36,0,0,0,25,36,0,25,Joy,Neutral,100.0,100.0,0.0,93,21,84,99,25,78,5,71.0,30.0,0.0,50.00624703467075,0.0,0.0,45.40837238345027,40.78586066841518,0.0,47.240131124794075,9.99875059306585,60.000026224958816,7.499625177919755,86.52431297014361,69.41246407821288,100.0,100.0,78.5860196687191,42.74875059306585
0,Test,ID1,BV01,26,0,5200,0,5200,Undified,Nan,faces\7354260317050126252.png,,,,,18,27.07397274136177,5.049509756796391,29.068883707497267,5.541381265149108,18,19,286,155,95,11,286,155,500,27,0,351,159,100,0,0,300,19,-175,3,21,261,112,149,149,1.3379058318527166,82.00609733428362,61.29437168288782,0.0,0.0,0.0,71.0,0.0,0.0,29.0,50,0.0,36,0,0,0,0,0,0,0,36,0,0,0,0,25,36,25,36,0,0,0,25,36,0,25,Joy,Neutral,100.0,100.0,0.0,99,13,85,95,16,77,5,71.0,30.0,40.0,55.03961080030571,0.0,0.0,59.07775139012317,50.354425973086215,0.0,53.63405535213986,8.992077839938858,60.99481107042797,7.197623351981657,87.30530685362866,70.68904452339783,100.0,100.0,79.19510830282098,41.74207783993886
0,Test,ID1,BV01,27,0,5400,0,5400,Undified,Nan,faces\-2410402046950242888.png,,,,,12,26.019223662515373,3.0,29.068883707497267,4.061552812808832,11,13,287,160,94,9,287,160,500,3,0,351,163,100,0,0,300,17,-174,4,20,234,114,179,179,1.321740449783499,80.00624975587844,60.53098380168623,0.0,0.0,0.0,0.0,59.0,0.0,41.0,50,0.0,0,0,0,30,30,0,0,0,0,0,30,0,30,25,0,25,0,0,0,0,54,0,0,25,Sadness,Neutral,100.0,14.492753623188406,85.5072463768116,-20,52,39,-53,-50,-82,-45,59.0,30.0,40.0,60.11875347222429,65.63555554708402,65.63555554708402,65.63555554708402,54.944888882958814,65.63555554708402,58.56659409544464,7.976249305555142,15.96131881908893,42.99243034256276,43.262715135494254,0.9179200374105818,100.0,100.0,21.8849891143167,59.10306089975804
0,Test,ID1,BV01,28,0,5600,0,5600,Undified,Nan,faces\-8593215067436639990.png,,,,,12,28.16025568065745,3.5,29.068883707497267,4.0,12,13,284,156,97,11,284,156,1400,42,3,351,161,100,0,0,750,19,-172,4,20,234,114,179,179,1.3192112425185238,81.0,61.40032573203501,0.0,0.0,0.0,6.0,0.0,0.0,94.0,50,0.0,3,0,0,0,0,0,0,0,3,0,0,0,0,25,3,25,3,0,0,0,25,3,0,25,Neutral,Neutral,100.0,0.0,0.0,0,2,2,18,12,-5,-9,0.0,36.470588235294116,28.571428571428573,60.11875347222429,0.0,0.0,59.07775139012317,52.29560244367445,0.0,57.77180816365933,7.976249305555142,11.554361632731867,5.922286556372425,80.53935157126799,20.496887198041634,100.0,100.0,36.9157712245489,19.740955187908085
0,Test,ID1,BV01,29,0,5800,0,5800,Undified,Nan,faces\4527877250331564236.png,,,,,24,28.071337695236398,6.541381265149108,28.071337695236398,7.071067811865476,23,25,295,147,97,9,295,148,500,22,0,363,147,100,0,0,300,22,-176,0,13,261,112,149,149,1.3493534440542745,81.00617260431454,60.03332407921454,53.0,0.0,0.0,0.0,0.0,1.0,47.0,50,0.0,0,0,0,0,0,26,0,0,0,0,0,0,26,25,26,25,0,0,0,27,25,0,0,25,Anger,Neutral,100.0,15.873015873015872,84.12698412698413,-41,82,31,-57,93,-46,64,54.0,37.77777777777778,20.0,85.82281004165156,0.0,0.0,50.44883526787211,46.64751802084381,50.44883526787211,74.07022243540924,45.23543799166969,26.47804448708185,44.650824128163904,47.0863629410098,18.326191902953283,94.7,47.0,25.210533365311388,48.478295134526824
0,Test,ID1,BV01,37,0,7400,0,7400,Undified,Nan,faces\-7538649412023396879.png,,,,,26,27.0,7.0,27.166155414412252,7.531128874149275,25,27,292,129,92,11,292,132,500,17,0,356,129,100,0,0,300,22,-178,-2,8,261,95,149,149,1.4738750599381525,84.02380615040002,57.00877125495689,50.0,0.0,0.0,0.0,0.0,0.0,49.0,50,0.0,0,0,0,0,0,25,0,0,0,0,0,0,25,25,25,25,0,0,0,25,25,0,0,25,Anger,Neutral,100.0,16.666666666666664,83.33333333333334,-39,80,30,-53,87,-43,63,50.0,38.94736842105263,20.0,94.27924112278824,0.0,0.0,50.44883526787211,46.998395213826264,50.44883526787211,80.09498735009964,41.14415177544235,27.41899747001993,43.247999666804475,49.11109900156639,20.23485673768155,95.0,50.0,26.96424810251495,45.003800898249374
0,Test,ID1,BV01,38,0,7600,0,7600,Undified,Nan,faces\-2848895584772949074.png,,,,,28,26.0,7.5,26.0768096208106,7.566662780082012,28,29,293,130,91,12,293,133,466,14,3,357,130,100,0,0,283,21,-178,-3,14,261,95,149,149,1.511681491088554,89.20201791439474,59.00847396772772,0.0,0.0,0.0,0.0,72.0,0.0,28.0,50,0.0,0,0,0,36,36,0,0,0,0,0,36,0,36,25,0,25,0,0,0,0,61,0,0,25,Sadness,Neutral,100.0,12.195121951219512,87.8048780487805,-22,45,43,-56,-57,-83,-46,72.0,40.0,17.142857142857142,83.3108930788597,53.17515301305708,53.17515301305708,53.17515301305708,49.22260710913995,53.17515301305708,73.08440728794378,3.337821384228059,19.512881457588755,33.24768057244981,52.410296270834536,8.312131449069394,100.0,100.0,26.312661093191565,53.28904089642318
0,Test,ID1,BV01,39,0,7800,0,7800,Undified,Nan,faces\-4933878127205144393.png,,,,,28,26.019223662515373,7.531128874149275,27.29468812791236,8.154234499766936,28,29,296,126,91,12,296,129,500,13,0,359,126,100,0,0,300,20,-177,-2,13,261,95,149,149,1.4679771648091122,88.09086218218096,60.00833275470999,0.0,0.0,1.0,49.0,0.0,0.0,49.0,50,0.0,24,0,1,0,0,0,0,0,25,0,0,0,0,25,24,25,24,0,0,0,25,24,0,26,Anticipation,Joy,100.0,98.0,2.0,0,0,0,0,0,0,0,50.0,40.952380952380956,22.857142857142858,85.82281004165156,0.0,0.0,56.0488043568919,51.51987733553861,0.560488043568919,75.53193022981768,2.8354379916696875,35.10638604596353,4.016042678606668,84.34035888009645,39.817018445464065,99.6,100.0,51.22978953447265,25.35924751547921
0,Test,ID1,BV01,59,0,11800,0,11800,Undified,Nan,faces\8675228473406858925.png,,,,,16,21.095023109728988,3.64269164289302,29.27456233660889,4.549509756796391,17,15,275,160,87,12,275,160,500,6,0,332,166,100,0,0,300,18,-173,6,33,234,94,179,179,1.3509469777606204,79.51100552753688,58.855755878248644,0.0,0.0,0.0,0.0,19.0,0.0,81.0,50,0.0,0,0,0,10,10,0,0,0,0,0,10,0,10,25,0,25,0,0,0,0,34,0,0,25,Neutral,Neutral,100.0,0.0,0.0,-2,2,9,20,9,-5,-7,0.0,41.81818181818182,34.285714285714285,9.895899712868937,0.0,0.0,62.27038648477501,56.134725084797054,11.831373432107252,23.76754732444737,18.020820057426214,4.753509464889475,14.640774132159581,70.16413542671708,10.958300373783551,100.0,100.0,31.815132098667107,27.111729148335304
0,Test,ID1,BV01,61,0,12200,0,12200,Undified,Nan,faces\-6114072999280413002.png,,,,,21,21.213203435596427,5.0990195135927845,28.071337695236398,5.5,24,19,276,152,87,13,276,152,333,10,3,334,158,100,0,0,216,20,-165,9,35,234,94,179,179,1.2762442982244364,72.83543093852056,57.0701322935211,0.0,0.0,0.0,65.0,0.0,0.0,35.0,50,0.0,32,0,0,0,0,0,0,0,32,0,0,0,0,25,32,25,32,0,0,0,25,32,0,25,Joy,Neutral,100.0,100.0,0.0,96,18,80,94,26,76,4,65.0,42.608695652173914,22.857142857142858,6.694887382634437,0.0,0.0,56.0488043568919,52.0167717454765,0.0,20.291452691487052,18.661022523473115,49.81829053829742,8.207002409215846,83.06354334177603,60.029217507049374,100.0,100.0,72.64371790372306,43.606674697386154
0,Test,ID1,BV01,67,0,13400,0,13400,Undified,Nan,faces\-42771041893345246.png,,,,,25,27.018512172212592,7.0,29.154759474226502,7.5,25,25,288,146,94,12,288,149,500,43,0,352,146,100,0,4,300,23,-177,0,26,261,112,149,149,1.4836246600740013,83.2946576918352,56.142675390472796,14.0,0.0,5.0,0.0,0.0,0.0,80.0,50,0.0,0,2,5,0,0,7,0,0,2,0,2,0,7,25,7,25,0,0,2,7,25,0,0,28,Neutral,Neutral,100.0,0.0,0.0,-2,9,-1,23,21,-7,-8,0.0,43.333333333333336,5.714285714285714,31.232035321925014,0.0,0.0,47.86229725112321,46.503608075786246,6.700721615157249,35.81350714808338,24.953592935615,7.162701429616677,13.671474769020985,71.94417089959154,13.347793876979999,96.6,86.0,29.622026072212506,22.086926268948332
0,Test,ID1,BV01,68,0,13600,0,13600,Undified,Nan,faces\2981762034044971575.png,,,,,22,28.0,6.041381265149108,28.16025568065745,6.576915171081848,21,23,291,139,95,13,291,144,500,40,0,357,139,100,0,0,300,22,-178,-3,19,261,112,149,149,1.4089625802929615,87.36704184073076,62.008063991709975,13.0,0.0,3.0,0.0,11.0,0.0,72.0,50,0.0,0,2,3,6,6,6,0,0,2,0,7,0,12,25,6,25,0,0,2,6,30,0,0,26,Neutral,Neutral,100.0,0.0,0.0,-2,3,0,12,15,-6,-7,0.0,44.0,11.428571428571429,64.4969915538629,0.0,0.0,50.44883526787211,48.51418468751048,6.558348584823375,59.702149493957165,17.500601689227423,11.940429898791434,11.257272228421083,76.36439716665885,20.161977090155176,97.5,87.0,33.95532242409358,15.100601689227421
0,Test,ID1,BV01,70,0,14000,0,14000,Undified,Nan,faces\5859593675293363667.png,,,,,19,26.1725046566048,5.0,28.16025568065745,5.541381265149108,19,19,296,138,94,12,296,143,500,22,0,361,138,100,0,0,300,21,177,-4,21,254,94,179,179,1.4485291767232855,91.26883367283709,63.00793600809346,0.0,0.0,0.0,58.0,0.0,0.0,42.0,50,0.0,29,0,0,0,0,0,0,0,29,0,0,0,0,25,29,25,29,0,0,0,25,29,0,25,Joy,Neutral,100.0,100.0,0.0,89,22,85,88,26,80,6,58.0,44.61538461538461,17.142857142857142,54.69923187138037,0.0,0.0,53.17515301305708,50.60722249375533,0.0,53.47162905809285,9.060153625723926,52.454325811618574,5.025738395409485,89.3265721894817,68.80056448347138,100.0,100.0,77.62074435871392,31.25246131803162
0,Test,ID1,BV01,71,0,14200,0,14200,Undified,Nan,faces\3784353308833146179.png,,,,,22,27.018512172212592,6.0,27.166155414412252,6.0827625302982185,22,22,297,137,93,13,297,142,500,34,0,362,137,100,0,0,300,20,179,-4,17,254,94,179,179,1.423097993887947,88.27797007181351,62.03224967708329,0.0,0.0,0.0,17.0,26.0,0.0,57.0,50,0.0,8,0,0,13,13,0,0,0,8,0,13,0,13,25,8,25,8,0,0,0,38,8,0,25,Neutral,Neutral,100.0,0.0,0.0,-5,8,0,23,13,-7,-9,0.0,45.185185185185176,22.857142857142858,73.18138246970673,0.0,0.0,56.0488043568919,52.789718605379875,14.572689132791893,67.06388331040867,5.363723506058654,13.412776662081734,11.846318297075362,76.52933369338058,21.618904196940225,100.0,100.0,37.6095824965613,12.771130913466067
0,Test,ID1,BV01,72,0,14400,0,14400,Undified,Nan,faces\-29411156754927410.png,,,,,16,26.0768096208106,4.611062569605222,27.018512172212592,4.561552812808832,17,16,297,141,91,8,297,143,500,26,0,360,141,100,0,0,300,20,177,-3,19,254,94,179,179,1.4856723132044367,89.14033879226619,60.0,0.0,0.0,0.0,0.0,50.0,0.0,49.0,50,0.0,0,0,0,25,25,0,0,0,0,0,25,0,25,25,0,25,0,0,0,0,50,0,0,25,Sadness,Neutral,100.0,16.666666666666664,83.33333333333334,-28,50,43,-50,-51,-83,-44,50.0,45.71428571428571,22.857142857142858,65.0599776048236,56.0488043568919,0.0,56.0488043568919,52.94844876411004,56.0488043568919,61.42651895260953,6.98800447903528,15.685303790521907,35.06610088285827,49.78977118897433,-0.3643931429501883,100.0,100.0,20.163977842891434,47.464194955225764
0,Test,ID1,BV01,73,0,14600,0,14600,Undified,Nan,faces\9080295866787928543.png,,,,,18,27.07397274136177,5.0,27.07397274136177,5.049509756796391,18,18,296,141,93,11,296,145,500,11,0,361,141,100,0,0,300,20,178,-4,19,254,94,179,179,1.4718865224535802,91.26883367283709,62.008063991709975,0.0,0.0,0.0,71.0,0.0,0.0,29.0,50,0.0,36,0,0,0,0,0,0,0,36,0,0,0,0,25,36,25,36,0,0,0,25,36,0,25,Joy,Neutral,80.0,100.0,0.0,97,17,84,91,15,79,5,71.0,46.206896551724135,22.857142857142858,65.0599776048236,0.0,0.0,56.0488043568919,53.09623201534156,0.0,61.470853927978986,6.98800447903528,63.1301707855958,4.165366860951963,90.71479190403635,73.78919267239839,100.0,100.0,81.07062808919684,31.63455620317321
0,Test,ID1,BV01,74,0,14800,0,14800,Undified,Nan,faces\-9092623731481727875.png,,,,,17,27.166155414412252,5.0990195135927845,28.071337695236398,5.049509756796391,18,17,297,141,95,11,297,145,500,21,0,363,141,100,0,0,300,20,179,-2,15,254,94,179,179,1.4441124947898518,88.09086218218096,61.0,0.0,0.0,1.0,66.0,0.0,0.0,32.0,50,0.0,33,0,1,0,0,0,0,0,34,0,0,0,0,25,33,25,33,0,0,0,25,33,0,26,Joy,Neutral,80.0,98.50746268656717,1.4925373134328357,98,14,82,95,17,79,7,67.0,46.666666666666664,22.857142857142858,80.45760130176139,0.0,0.0,56.0488043568919,53.234163049824325,0.560488043568919,72.29056982618026,3.908479739647723,62.43011396523606,3.480812345857223,92.34440710593228,75.65708316713831,99.6,100.0,81.79358547392704,27.6982807346726
0,Test,ID1,BV01,75,0,15000,0,15000,Undified,Nan,faces\296167955225593205.png,,,,,25,28.0178514522438,7.035533905932738,28.071337695236398,7.566662780082012,25,26,295,139,97,13,295,143,500,20,0,363,139,100,0,11,300,22,-179,-2,17,254,94,179,179,1.4623281625310611,89.20201791439474,61.0,0.0,0.0,0.0,61.0,0.0,0.0,39.0,50,0.0,30,0,0,0,0,0,0,0,30,0,0,0,0,25,30,25,30,0,0,0,25,30,0,25,Joy,Neutral,75.0,100.0,0.0,97,19,80,94,22,80,6,61.0,47.09677419354838,11.428571428571429,73.27327600790984,0.0,0.0,50.44883526787211,49.44321694557499,0.0,66.12425828920938,5.345344798418032,57.144851657841876,3.539087310493153,91.7811559805264,72.95918017035498,100.0,100.0,80.11863874338141,27.046957701643844
0,Test,ID1,BV01,76,0,15200,0,15200,Undified,Nan,faces\3928038325064494969.png,,,,,25,28.0,7.0,29.154759474226502,7.566662780082012,25,25,293,137,97,12,293,141,500,27,0,360,137,100,0,2,300,21,-179,-3,21,254,94,179,179,1.473402766659262,91.35097153287424,62.0,0.0,0.0,0.0,71.0,0.0,0.0,29.0,50,0.0,36,0,0,0,0,0,0,0,36,0,0,0,0,25,36,25,36,0,0,0,25,36,0,25,Joy,Neutral,75.0,100.0,0.0,93,19,76,87,16,79,5,71.0,47.5,17.142857142857142,55.03961080030571,0.0,0.0,53.17515301305708,51.47260710913995,0.0,53.96950969295598,8.992077839938858,61.6299019385912,4.572623351981657,89.63885228771028,71.80626265201003,100.0,100.0,79.9454264539434,32.99207783993886
0,Test,ID1,BV01,77,0,15400,0,15400,Undified,Nan,faces\8030947029512251834.png,,,,,27,28.071337695236398,8.0,29.068883707497267,8.06225774829855,28,27,292,136,97,11,292,138,650,26,4,359,136,100,0,0,375,22,-177,0,18,261,95,149,149,1.4189184721674994,85.14693182963201,60.00833275470999,0.0,0.0,0.0,57.0,0.0,0.0,43.0,50,0.0,28,0,0,0,0,0,0,0,28,0,0,0,0,25,28,25,28,0,0,0,25,28,0,25,Joy,Neutral,75.0,100.0,0.0,91,20,75,89,21,76,5,57.0,47.878787878787875,11.428571428571429,69.10134178531257,0.0,0.0,50.44883526787211,49.677821051146836,0.0,63.27428556506285,6.179731642937487,52.78285711301257,3.6721013110630647,90.98974750765585,69.56754614203129,100.0,100.0,77.49114283475943,26.49033770354355
0,Test,ID1,BV01,78,0,15600,0,15600,Undified,Nan,faces\-4167316603369394025.png,,,,,29,28.16025568065745,8.558821443217981,28.071337695236398,8.06225774829855,30,28,294,135,96,10,294,135,500,38,0,361,136,100,0,0,300,22,-176,1,19,261,95,149,149,1.388450105792452,82.02438661763951,59.07622195096772,0.0,0.0,0.0,0.0,73.0,0.0,27.0,50,0.0,0,0,0,36,36,0,0,0,0,0,36,0,36,25,0,25,0,0,0,0,62,0,0,25,Sadness,Neutral,75.0,12.048192771084338,87.95180722891565,-24,47,46,-60,-59,-81,-43,73.0,48.23529411764706,11.428571428571429,64.4969915538629,50.44883526787211,50.44883526787211,50.44883526787211,49.78477292280459,50.44883526787211,60.0833259645454,7.100601689227421,17.564665192909082,31.641745786450834,52.594935967293885,6.130325087865739,100.0,100.0,25.262498894681816,53.220906437632806
0,Test,ID1,BV01,79,0,15800,0,15800,Undified,Nan,faces\818053187167599895.png,,,,,18,27.07397274136177,5.049509756796391,30.0,5.5908910219455015,18,18,297,141,96,8,297,141,500,31,0,362,142,100,0,0,300,21,-178,2,19,254,94,179,179,1.3871343130145308,85.0235261559999,61.29437168288782,0.0,0.0,0.0,0.0,0.0,0.0,100.0,50,0.0,0,0,0,0,0,0,0,0,0,0,0,0,0,25,0,25,0,0,0,0,25,0,0,25,Neutral,Neutral,75.0,0.0,0.0,-7,7,8,22,14,-5,-6,0.0,48.57142857142857,17.142857142857142,64.4969915538629,0.0,0.0,53.17515301305708,51.79403568056852,0.0,60.686104791874584,7.100601689227421,12.137220958374918,3.844466221053941,82.49303750234431,21.420829948203078,100.0,100.0,37.35291571878119,12.814887403513136
0,Test,ID1,BV01,80,0,16000,0,16000,Undified,Nan,faces\7016418962016340343.png,,,,,19,27.018512172212592,5.0,27.0,5.541381265149108,18,20,303,140,94,9,303,140,500,24,0,369,142,100,0,0,300,23,-179,1,16,254,94,179,179,1.3709114502108952,88.00568163476721,64.19501538281614,0.0,0.0,0.0,0.0,5.0,0.0,95.0,50,0.0,0,0,0,2,2,0,0,0,0,0,2,0,2,25,0,25,0,0,0,0,28,0,0,25,Neutral,Neutral,75.0,0.0,0.0,-8,9,2,15,14,-4,-9,0.0,48.888888888888886,5.714285714285714,76.86303193344635,0.0,0.0,47.86229725112321,48.17027474245291,2.3931148625561605,68.25520477614832,4.62739361331073,13.651040955229664,4.371097925065774,82.9286421375622,23.7566654077933,100.0,100.0,38.83828071642225,10.182949168866287
0,Test,ID1,BV01,87,0,17400,0,17400,Undified,Nan,faces\91199398946996532.png,,,,,27,27.166155414412252,7.531128874149275,28.0178514522438,8.031128874149275,27,28,307,124,96,14,307,124,1200,36,3,374,129,100,0,13,650,28,-178,4,10,277,95,150,149,1.4873172479207208,88.20430828479978,59.30430001273095,40.0,1.0,0.0,0.0,0.0,0.0,58.0,50,0.0,0,0,0,0,0,20,0,0,0,0,0,0,20,26,20,25,0,0,0,20,25,0,0,25,Neutral,Neutral,75.0,0.0,0.0,-5,6,9,11,16,-7,-10,0.0,49.189189189189186,0.0,91.70251523267711,0.0,0.0,36.787944117144235,40.50831763875772,14.715177646857693,76.34425595450129,34.45949695346458,15.268851190900259,20.05281841343273,70.89217086470394,23.375281075095717,95.5,59.0,30.801638393175192,7.064902358869985
0,Test,ID1,BV01,133,0,26600,0,26600,Undified,Nan,faces\8562031776552325953.png,,,,,14,29.068883707497267,4.0,27.166155414412252,4.2976207903086205,13,15,309,169,93,8,309,172,500,39,0,374,169,100,0,0,300,21,-170,-2,-11,277,128,150,149,1.2117609546688874,74.00675644831355,61.07372593840988,0.0,0.0,0.0,71.0,0.0,0.0,29.0,50,0.0,36,0,0,0,0,0,0,0,36,0,0,0,0,25,36,25,36,0,0,0,25,36,0,25,Joy,Neutral,75.0,100.0,0.0,97,16,80,90,27,80,6,71.0,49.473684210526315,25.454545454545453,90.0120600405039,0.0,0.0,53.17515301305708,52.06471237229785,0.0,78.62785574004208,1.9975879918992208,66.84557114800842,2.178223765990819,94.12020656121156,78.81898459113168,100.0,100.0,83.9941783610063,25.010745886636062
0,Test,ID1,BV01,144,0,28800,0,28800,Undified,Nan,faces\908287030416945997.png,,,,,35,26.47640458974745,9.055385138137416,29.017236257093817,10.5,34,36,303,131,95,18,303,131,500,42,0,368,137,142,57,40,321,20,-177,7,26,254,94,179,179,1.469168803539528,85.28774824088157,58.05170109479997,0.0,0.0,0.0,0.0,73.0,0.0,27.0,50,0.0,0,0,0,36,36,0,0,0,0,0,36,0,36,25,0,25,0,0,0,0,62,0,0,25,Sadness,Neutral,75.0,12.048192771084338,87.95180722891565,-22,48,40,-53,-60,-83,-45,73.0,49.743589743589745,29.09090909090909,31.232035321925014,56.0488043568919,56.0488043568919,56.0488043568919,54.15723997290125,56.0488043568919,38.10959671721788,13.753592935614998,12.585919343443578,36.49138181543658,46.31785421937252,-0.79081539875828,100.0,100.0,21.26643950758269,59.11974987104904
0,Test,ID1,BV01,150,0,30000,0,30000,Undified,Nan,faces\6384602732445841029.png,,,,,27,25.079872407968914,7.071067811865476,26.0,7.0,28,26,312,125,90,11,312,125,500,27,0,375,128,100,0,0,300,21,179,1,12,277,95,150,149,1.3612228773666797,90.00555538409837,66.12110101926616,0.0,0.0,0.0,71.0,0.0,0.0,29.0,50,0.0,36,0,0,0,0,0,0,0,36,0,0,0,0,25,36,25,36,0,0,0,25,36,0,25,Joy,Neutral,75.0,100.0,0.0,99,15,76,96,16,79,6,71.0,50.0,25.454545454545453,89.16083923072189,0.0,0.0,53.17515301305708,52.22260710913995,0.0,78.0793695942473,2.167832153855622,66.45187391884946,2.1503496461566867,93.98765724249938,78.26860812281176,100.0,100.0,83.56190543913709,24.91783215385562
0,Test,ID1,BV01,155,0,31000,0,31000,Undified,Nan,faces\7433689422626159975.png,,,,,33,27.29468812791236,9.055385138137416,28.0178514522438,9.5,33,33,308,128,93,15,308,128,500,40,0,372,132,100,0,0,300,21,-175,5,21,277,95,150,149,1.4637231162665425,81.15417426109394,55.44366510251645,0.0,0.0,0.0,71.0,0.0,0.0,29.0,50,0.0,36,0,0,0,0,0,0,0,36,0,0,0,0,25,36,25,36,0,0,0,25,36,0,25,Joy,Neutral,75.0,100.0,0.0,96,20,84,90,20,78,4,71.0,50.24390243902439,25.454545454545453,55.03961080030571,0.0,0.0,53.17515301305708,52.295777840847265,0.0,54.21646091246818,8.992077839938858,61.395292182493634,4.161037986127999,89.89281570234442,71.49339679835148,100.0,100.0,79.63246913687023,31.620126620426664
0,Test,ID1,BV01,157,0,31400,0,31400,Undified,Nan,faces\4298725509636276979.png,,,,,25,29.068883707497267,7.071067811865476,29.068883707497267,8.031128874149275,24,27,290,131,97,9,290,132,1000,30,3,357,131,100,0,0,550,23,-175,1,5,261,95,149,149,1.4535166206877788,83.05419917138447,57.14017850864661,34.0,5.0,7.0,0.0,0.0,1.0,54.0,50,0.0,0,4,8,0,2,20,0,0,4,0,4,3,17,28,17,25,0,0,6,18,25,2,0,28,Neutral,Neutral,75.0,0.0,0.0,-3,10,4,12,19,-6,-7,0.0,50.47619047619047,18.181818181818183,96.7900815021862,0.0,0.0,47.86229725112321,48.646465218643385,16.27318106538189,82.34699661712335,31.841983699562764,16.46939932342467,19.9314161244003,71.68956676219211,25.35570583050005,91.3,61.0,31.752049492568506,5.403888461467526
0,Test,ID1,BV01,158,0,31600,0,31600,Undified,Nan,faces\7516107057668914837.png,,,,,28,28.16025568065745,8.06225774829855,29.154759474226502,8.527692569068709,28,29,296,134,96,10,296,134,500,22,0,362,134,100,0,0,300,23,-175,0,16,261,95,149,149,1.3371265520342257,87.00574693662483,65.06919393998976,0.0,0.0,0.0,71.0,0.0,0.0,29.0,50,0.0,36,0,0,0,0,0,0,0,36,0,0,0,0,25,36,25,36,0,0,0,25,36,0,25,Joy,Neutral,55.0,100.0,0.0,97,13,76,94,17,78,4,71.0,50.697674418604656,18.181818181818183,76.86303193344635,0.0,0.0,47.86229725112321,48.712910401367644,0.0,68.41799547382274,4.62739361331073,64.23559909476455,2.7835669212025205,92.41494601042027,75.2959934694977,100.0,100.0,81.76269932107341,27.028556404008402
0,Test,ID1,BV01,160,0,32000,0,32000,Undified,Nan,faces\7475063373477924241.png,,,,,28,27.166155414412252,7.535533905932738,27.018512172212592,8.0,27,29,303,133,91,10,303,133,500,33,0,366,134,100,0,1,300,20,-177,1,11,277,95,150,149,1.3169091516240432,87.00574693662483,66.06814663663572,0.0,0.0,0.0,71.0,0.0,0.0,29.0,50,0.0,36,0,0,0,0,0,0,0,36,0,0,0,0,25,36,25,36,0,0,0,25,36,0,25,Joy,Neutral,55.0,100.0,0.0,97,14,76,97,24,78,8,71.0,50.909090909090914,29.09090909090909,89.89205711007143,0.0,0.0,56.0488043568919,54.5068903225516,0.0,79.27650707381548,2.0215885779857135,66.4073014147631,1.970112937032077,94.1515603577559,78.18428280422947,100.0,100.0,83.39147606107232,24.317043123440257
0,Test,ID1,BV01,162,0,32400,0,32400,Undified,Nan,faces\351738649982821128.png,,,,,18,25.079872407968914,4.061552812808832,24.0,5.0990195135927845,16,21,314,137,83,9,314,137,1019,51,5,372,140,100,0,0,559,17,-173,1,-9,277,95,150,149,1.1921125108595951,81.09870529176159,68.0294054067798,0.0,0.0,0.0,71.0,0.0,0.0,29.0,50,0.0,36,0,0,0,0,0,0,0,36,0,0,0,0,25,36,25,36,0,0,0,25,36,0,25,Joy,Neutral,55.0,100.0,0.0,89,21,84,88,22,78,5,71.0,51.111111111111114,40.0,93.12340591627493,0.0,0.0,65.63555554708402,61.27822221629215,0.0,83.5698508062801,1.3753188167450134,67.26597016125602,1.7459289783568368,94.76024189794254,79.31848689136429,100.0,100.0,84.03547762094202,23.569763261189458
0,Test,ID1,BV01,279,0,55800,0,55800,Undified,Nan,faces\-1839866478179148327.png,,,,,14,26.1725046566048,3.5,26.0768096208106,4.061552812808832,13,15,332,152,88,12,332,152,500,18,0,393,158,100,0,0,300,20,-176,7,-5,294,112,149,149,1.3143358602507489,78.08969202141856,59.413803110051795,0.0,0.0,0.0,66.0,0.0,0.0,34.0,50,0.0,33,0,0,0,0,0,0,0,33,0,0,0,0,25,33,25,33,0,0,0,25,33,0,25,Joy,Neutral,75.0,100.0,0.0,99,24,82,93,27,78,4,66.0,51.30434782608695,29.09090909090909,96.77064550110329,0.0,0.0,56.0488043568919,54.62546739765041,0.0,84.12709207006742,0.6458708997793423,63.81741841401349,1.4981090960207597,95.01422193019015,78.23319521053587,100.0,100.0,83.11906381051011,21.493696986735866
0,Test,ID1,BV01,280,0,56000,0,56000,Undified,Nan,faces\-7296125693423509726.png,,,,,15,26.1725046566048,4.0,26.0768096208106,4.061552812808832,15,15,330,155,90,11,330,155,500,19,0,393,160,100,0,0,300,20,-175,6,-6,294,112,149,149,1.3386463437511198,77.92945527847607,58.21511831131154,0.0,0.0,0.0,69.0,0.0,0.0,30.0,50,0.0,34,0,0,0,0,0,0,0,34,0,0,0,0,25,34,25,34,0,0,0,25,34,0,25,Joy,Neutral,75.0,100.0,0.0,95,13,79,96,17,79,6,69.0,51.48936170212765,29.09090909090909,96.08455793760838,0.0,0.0,56.0488043568919,54.68097156046262,0.0,83.66348202446466,0.783088412478324,66.13669640489293,1.5115222684243492,95.05713038770699,79.27158354488685,100.0,100.0,83.99952230366969,22.2884075614145
0,Test,ID1,BV01,312,0,62400,0,62400,Undified,Nan,faces\-1561737882916500266.png,,,,,25,23.0,5.549509756796391,23.021728866442675,6.0,24,26,317,122,79,8,317,122,500,11,0,372,122,100,0,0,300,19,173,2,-17,277,78,150,150,1.7413284838261165,94.04786015641186,54.00925846556311,0.0,0.0,0.0,71.0,0.0,0.0,29.0,50,0.0,36,0,0,0,0,0,0,0,36,0,0,0,0,25,36,25,36,0,0,0,25,36,0,25,Joy,Neutral,75.0,100.0,0.0,90,19,82,92,22,78,6,71.0,51.666666666666664,32.72727272727273,72.75814480059823,0.0,0.0,59.07775139012317,56.854425973086215,0.0,67.98702915234462,5.448371039880354,64.14940583046892,2.8845113119641064,92.29109386566317,75.17586667465248,100.0,100.0,81.69805437285169,27.36503770654702
0,Test,ID1,BV01,314,0,62800,0,62800,Undified,Nan,faces\5514415651660901531.png,,,,,27,26.0768096208106,6.535533905932738,24.0,7.035533905932738,25,29,328,125,89,11,328,125,500,21,0,392,128,100,0,0,300,21,174,3,-15,294,95,149,149,1.5419389078032169,94.26027795418386,61.13100686231171,54.0,0.0,0.0,0.0,0.0,0.0,46.0,50,0.0,0,0,0,0,0,27,0,0,0,0,0,0,27,25,27,25,0,0,0,27,25,0,0,25,Anger,Neutral,75.0,15.625,84.375,-40,72,31,-59,99,-44,64,54.0,51.836734693877546,25.454545454545453,80.10418313758561,0.0,0.0,53.17515301305708,52.77362751730321,53.17515301305708,71.90501645150088,47.17916337248288,26.47700329030018,44.62457296484463,47.090843273274395,18.58533844020266,94.6,46.0,25.385752467725137,42.65454602554411
0,Test,ID1,BV01,342,0,68400,0,68400,Undified,Nan,faces\-2273617165870406461.png,,,,,27,26.1725046566048,6.541381265149108,25.019992006393608,8.0,24,31,332,130,91,13,332,130,500,15,0,397,133,100,0,0,300,22,175,5,-10,294,95,149,149,1.6272040432834265,93.2630687893123,57.3149195236284,32.0,0.0,1.0,0.0,0.0,1.0,66.0,50,0.0,0,0,2,0,0,16,0,0,0,0,0,0,16,25,16,25,0,0,0,16,25,0,0,26,Neutral,Neutral,75.0,0.0,0.0,-6,3,0,18,20,-5,-7,0.0,52.0,21.818181818181817,91.90457695670509,0.0,0.0,50.44883526787211,50.91418468751048,16.143627285719077,79.60745927594671,27.219084608658985,15.921491855189343,18.244720389743186,72.86496961580013,25.18836178056669,96.4,68.0,33.69111889139201,5.619084608658983
0,Test,ID1,BV01,343,0,68600,0,68600,Undified,Nan,faces\-7147028518010508209.png,,,,,26,27.166155414412252,7.035533905932738,26.0,7.5,25,28,330,127,92,12,330,127,500,22,0,395,130,100,0,0,300,22,175,4,-2,294,95,149,149,1.6526183894001685,91.26883367283709,55.226805085936306,0.0,0.0,0.0,0.0,64.0,0.0,36.0,50,0.0,0,0,0,32,32,0,0,0,0,0,32,0,32,25,0,25,0,0,0,0,57,0,0,25,Sadness,Neutral,75.0,13.513513513513514,86.48648648648648,-28,45,46,-56,-60,-82,-46,64.0,52.15686274509804,21.818181818181817,98.12826950307297,50.44883526787211,50.44883526787211,50.44883526787211,50.96124351103989,50.44883526787211,83.97816170546305,0.37434609938540575,21.40363234109261,29.03563381538058,56.96930911824184,9.89147133818994,100.0,100.0,26.696724255819465,41.91753634845801
0,Test,ID1,BV01,344,0,68800,0,68800,Undified,Nan,faces\-1688057394478979324.png,,,,,26,27.07397274136177,7.035533905932738,27.0,7.535533905932738,25,27,327,127,93,12,327,127,500,19,0,392,130,100,0,0,300,21,176,4,5,294,95,149,149,1.6117049088085025,89.35882720806042,55.44366510251645,55.0,0.0,0.0,0.0,0.0,0.0,45.0,50,0.0,0,0,0,0,0,28,0,0,0,0,0,0,28,25,28,25,0,0,0,28,25,0,0,25,Anger,Neutral,75.0,15.384615384615385,84.61538461538461,-39,73,28,-55,95,-46,65,55.0,52.30769230769231,25.454545454545453,96.83621206325527,0.0,0.0,53.17515301305708,52.914914801447644,53.17515301305708,83.65982288471298,44.63275758734895,28.611964576942597,43.79000758723223,48.73397621868552,21.138353343046795,94.5,45.0,26.448973432706946,39.38275758734895
0,Test,ID1,BV01,345,0,69000,0,69000,Undified,Nan,faces\-8707158600204926042.png,,,,,29,26.0768096208106,8.06225774829855,27.0,8.0,30,29,324,127,93,12,324,127,500,19,0,389,130,100,0,0,300,22,176,3,9,294,95,149,149,1.6181894822623255,91.13725912051558,56.320511361314885,0.0,0.0,0.0,0.0,65.0,0.0,35.0,50,0.0,0,0,0,32,32,0,0,0,0,0,32,0,32,25,0,25,0,0,0,0,58,0,0,25,Sadness,Neutral,75.0,13.333333333333334,86.66666666666667,-30,51,41,-50,-60,-81,-43,65.0,52.45283018867925,21.818181818181817,92.87098580467497,50.44883526787211,50.44883526787211,50.44883526787211,51.05003374411425,50.44883526787211,80.32470018650675,1.4258028390650055,21.004940037301353,29.30667572074728,56.487129442052854,9.57988799083197,100.0,100.0,26.698705027976015,43.11605441139205
0,Test,ID1,BV01,346,0,69200,0,69200,Undified,Nan,faces\4884801260442285158.png,,,,,27,26.1725046566048,7.566662780082012,27.0,7.5,28,27,324,129,92,12,324,129,500,35,0,388,132,100,0,0,300,21,177,3,9,294,95,149,149,1.5199366971239774,90.13878188659972,59.30430001273095,0.0,2.0,0.0,0.0,70.0,0.0,28.0,50,0.0,0,0,0,35,36,1,0,0,0,0,35,1,35,26,0,25,0,0,1,0,60,1,0,25,Sadness,Neutral,75.0,12.5,87.5,-25,45,42,-57,-60,-81,-45,72.0,52.59259259259259,25.454545454545453,92.87098580467497,53.17515301305708,53.17515301305708,53.17515301305708,53.00038488691773,53.17515301305708,80.90980552934779,3.0258028390650056,21.65396110586956,31.265186120012007,54.97883165692518,11.32533454802947,99.0,98.0,27.786470829402173,45.004506542768716
0,Test,ID1,BV01,347,0,69400,0,69400,Undified,Nan,faces\736761666532515298.png,,,,,20,26.0768096208106,5.0,26.019223662515373,5.5,19,21,330,133,90,10,330,133,500,21,0,393,136,100,0,0,300,22,175,3,8,294,95,149,149,1.4574403616964098,89.20201791439474,61.20457499239743,0.0,0.0,6.0,24.0,0.0,0.0,69.0,50,0.0,12,3,6,0,0,0,0,0,15,0,3,0,0,25,12,25,12,0,3,0,25,12,0,28,Neutral,Neutral,75.0,0.0,0.0,1,11,0,16,12,-5,-7,0.0,52.727272727272734,21.818181818181817,94.29494830235252,0.0,0.0,50.44883526787211,51.132366505692296,3.026930116072327,81.34617376335446,1.1410103395294955,16.269234752670894,3.0980237566077187,85.15619837104927,26.85216327794354,97.6,100.0,39.85192606450317,4.777373975893128
0,Test,ID1,BV01,469,0,93800,0,93800,Undified,Nan,faces\-3425485008896687873.png,,,,,21,24.020824298928627,5.0,24.020824298928627,5.5,20,22,331,133,84,9,331,133,500,14,0,390,135,100,0,0,300,19,175,3,-17,294,95,149,149,1.611284989143546,87.14355971613737,54.083269131959845,0.0,0.0,57.0,0.0,0.0,15.0,28.0,50,0.0,0,28,64,8,0,0,0,0,28,8,28,8,0,25,0,25,8,0,28,8,25,0,0,54,Awe,Fear,75.0,14.925373134328357,85.07462686567165,0,0,0,0,0,0,0,72.0,52.85714285714286,32.72727272727273,72.75814480059823,0.0,59.07775139012317,59.07775139012317,57.21156883022907,33.67431829237021,68.09417200948748,5.448371039880354,42.4188344018975,21.226814944196295,69.82796524559171,42.006339526931036,77.2,100.0,48.91412580142312,48.288456327726834
0,Test,ID1,BV01,515,0,103000,0,103000,Undified,Nan,faces\-2206586720248434389.png,,,,,28,23.0,6.5,26.0768096208106,7.5,28,28,298,135,86,10,298,137,500,25,0,357,135,100,0,0,300,21,-178,0,26,261,95,149,149,1.4726708971151024,84.1486779456457,57.14017850864661,0.0,0.0,0.0,61.0,0.0,0.0,39.0,50,0.0,30,0,0,0,0,0,0,0,30,0,0,0,0,25,30,25,30,0,0,0,25,30,0,25,Joy,Neutral,55.0,100.0,0.0,99,22,79,89,17,77,5,61.0,52.98245614035088,25.454545454545453,31.232035321925014,0.0,0.0,53.17515301305708,53.11734395124521,0.0,37.797627910721076,13.753592935614998,50.74752558214422,5.178709459631867,87.33679522336662,64.23308650001692,100.0,100.0,74.81964418660816,32.51236486543956
0,Test,ID1,BV01,516,0,103200,0,103200,Undified,Nan,faces\8931418248431068826.png,,,,,27,26.019223662515373,6.541381265149108,27.07397274136177,8.0,25,29,306,132,90,9,306,133,500,18,0,368,132,100,0,0,300,20,-178,1,19,277,95,150,149,1.401568883273698,80.0,57.07889277132134,0.0,0.0,0.0,69.0,0.0,0.0,31.0,50,0.0,34,0,0,0,0,0,0,0,34,0,0,0,0,25,34,25,34,0,0,0,25,34,0,25,Joy,Neutral,75.0,100.0,0.0,98,23,81,90,14,78,7,69.0,53.10344827586208,29.09090909090909,64.4969915538629,0.0,0.0,56.0488043568919,55.16519753258295,0.0,61.69745334747891,7.100601689227421,61.46749066949578,3.1646632653889144,91.43801472243676,73.01816480911342,100.0,100.0,80.35461800212184,27.798877551296382
0,Test,ID1,BV01,517,0,103400,0,103400,Undified,Nan,faces\-4395270171606529229.png,,,,,24,25.019992006393608,6.0,26.0768096208106,7.035533905932738,23,26,306,132,88,9,306,134,500,13,0,367,132,100,0,0,300,19,-178,0,19,277,95,150,149,1.4305995952397852,83.02409288875127,58.034472514187634,0.0,0.0,0.0,68.0,0.0,0.0,32.0,50,0.0,34,0,0,0,0,0,0,0,34,0,0,0,0,25,34,25,34,0,0,0,25,34,0,25,Joy,Neutral,75.0,100.0,0.0,98,15,75,99,17,79,5,68.0,53.22033898305086,32.72727272727273,64.4969915538629,0.0,0.0,59.07775139012317,57.320527668001475,0.0,62.344052388104465,7.100601689227421,61.156810477620894,3.1471296593105977,91.616701511362,73.34768324816233,100.0,100.0,80.60160785821566,27.490432197701992
0,Test,ID1,BV01,518,0,103600,0,103600,Undified,Nan,faces\287049475994771112.png,,,,,29,26.0,7.531128874149275,26.0768096208106,8.031128874149275,28,30,304,134,89,11,304,136,500,14,0,366,134,100,0,0,300,21,-179,0,16,277,95,150,149,1.4287900010394985,80.02499609497022,56.00892785976178,0.0,0.0,0.0,55.0,0.0,0.0,45.0,50,0.0,28,0,0,0,0,0,0,0,28,0,0,0,0,25,28,25,28,0,0,0,25,28,0,25,Joy,Neutral,75.0,100.0,0.0,89,16,84,99,20,76,5,55.0,53.333333333333336,25.454545454545453,76.86303193344635,0.0,0.0,53.17515301305708,53.22260710913995,0.0,69.77090448615444,4.62739361331073,52.67418089723088,2.3882180839932188,92.66651598142086,70.8593777196807,100.0,100.0,78.06563567292316,21.710726946644062
0,Test,ID1,BV01,519,0,103800,0,103800,Undified,Nan,faces\-1652629872537160027.png,,,,,28,26.0,7.531128874149275,26.0768096208106,7.566662780082012,28,29,305,136,87,11,305,138,500,39,0,365,136,100,0,0,300,21,178,-2,18,277,95,150,149,1.590188347206656,89.05054744357273,56.0,0.0,0.0,0.0,35.0,0.0,0.0,65.0,50,0.0,18,0,0,0,0,0,0,0,18,0,0,0,0,25,18,25,18,0,0,0,25,18,0,25,Neutral,Neutral,75.0,0.0,0.0,-6,10,8,16,17,-7,-7,0.0,53.442622950819676,25.454545454545453,69.0246058772074,0.0,0.0,53.17515301305708,53.255393994385855,0.0,64.29384231236094,6.195078824558519,12.858768462472188,2.842130204744604,83.45568006744041,21.619028584834275,100.0,100.0,37.194076346854146,9.47376734914868
0,Test,ID1,BV01,520,0,104000,0,104000,Undified,Nan,faces\-281637785736336884.png,,,,,22,25.079872407968914,6.041381265149108,25.079872407968914,5.5,24,21,309,138,87,11,309,141,500,48,0,370,138,100,0,1,300,21,176,-4,16,277,95,150,149,1.5970500010362925,91.08786966440702,57.0350769263968,0.0,0.0,0.0,71.0,0.0,0.0,29.0,50,0.0,36,0,0,0,0,0,0,0,36,0,0,0,0,25,36,25,36,0,0,0,25,36,0,25,Joy,Neutral,75.0,100.0,0.0,97,16,76,95,25,80,5,71.0,53.5483870967742,25.454545454545453,76.82951645088069,0.0,0.0,53.17515301305708,53.287123238172214,0.0,69.76679848706814,4.634096709823862,65.07335969741364,2.3579709484310287,93.09030308996199,76.50072993076324,100.0,100.0,82.66501977306022,25.609903161436762
0,Test,ID1,BV01,533,0,106600,0,106600,Undified,Nan,faces\1853322371181108862.png,,,,,36,27.018512172212592,9.5,27.29468812791236,10.12395732415323,35,37,310,124,92,16,310,129,783,47,6,374,124,73,44,60,428,17,176,-3,-8,277,95,150,149,1.5421816617871351,91.19758768739443,59.13543776789008,7.0,0.0,0.0,19.0,0.0,0.0,74.0,50,0.0,10,0,0,0,0,4,0,0,10,0,0,0,4,25,13,25,10,0,0,4,25,10,0,25,Neutral,Neutral,75.0,0.0,0.0,0,12,4,12,13,-5,-9,0.0,53.65079365079366,40.0,94.5886552942058,0.0,0.0,65.63555554708402,62.04012697819691,4.594488888295881,84.82409679940312,6.682268941158842,16.964819359880625,5.484030523291339,83.59518526130725,27.56554272598151,99.3,93.0,39.57361451991047,4.256872115762011
0,Test,ID1,BV01,537,0,107400,0,107400,Undified,Nan,faces\-3203806307541766061.png,,,,,34,26.0,8.5,24.33105012119288,9.137464797715152,32,37,307,112,85,15,307,117,1333,40,3,367,112,49,29,59,691,16,-179,-4,-22,277,78,150,150,1.6625985250684547,85.05292469985967,51.15662224971465,55.0,0.0,0.0,0.0,0.0,0.0,45.0,50,0.0,0,0,0,0,0,28,0,0,0,0,0,0,28,25,28,25,0,0,0,28,25,0,0,25,Anger,Neutral,75.0,15.384615384615385,84.61538461538461,-46,83,28,-57,90,-45,63,55.0,53.75,40.0,50.041143876235985,0.0,0.0,69.18258252705172,64.5528077689362,69.18258252705172,54.39464304404605,53.9917712247528,22.978928608809213,55.185451757304286,36.79110289856118,13.02777105086763,94.5,45.0,22.409196456606907,48.020617378598956
0,Test,ID1,BV01,539,0,107800,0,107800,Undified,Nan,faces\-7253382339872664608.png,,,,,34,26.0,9.0,25.317977802344327,8.640901102795718,34,34,310,122,88,14,310,126,980,49,5,372,122,59,32,54,519,18,179,-2,-21,277,95,150,149,1.6588289944722303,85.00588214941364,51.24451190127583,0.0,0.0,0.0,0.0,53.0,0.0,47.0,50,0.0,0,0,0,26,26,0,0,0,0,0,26,0,26,25,0,25,0,0,0,0,52,0,0,25,Sadness,Neutral,75.0,15.873015873015872,84.12698412698413,-29,45,47,-61,-59,-83,-43,53.0,53.846153846153854,33.333333333333336,54.85622871701663,62.27038648477501,62.27038648477501,62.27038648477501,59.74311669318867,62.27038648477501,56.322295109868236,9.028754256596676,14.86845902197365,37.880415766682184,47.027896897641085,-1.1666365327688348,100.0,100.0,19.998344266480238,46.38742336526578
0,Test,ID1,BV01,540,0,108000,0,108000,Undified,Nan,faces\3021089374948274374.png,,,,,40,28.0178514522438,11.02268050859363,26.1725046566048,11.04536101718726,39,42,311,123,90,15,311,126,422,76,18,374,123,62,47,75,242,19,176,-1,-16,277,95,150,149,1.6512122901904764,86.00581375697809,52.08646657242168,0.0,0.0,0.0,37.0,0.0,2.0,60.0,50,0.0,18,0,1,1,0,0,0,0,18,1,0,1,0,25,18,25,20,0,0,1,25,18,0,25,Neutral,Neutral,75.0,0.0,0.0,0,12,0,12,9,-6,-6,0.0,53.93939393939393,30.0,76.45884557226697,0.0,0.0,59.07775139012317,57.536244154904395,0.0,70.78206514705819,4.708230885546607,14.156413029411638,2.3215601747548926,84.6209583749019,23.757612124254738,100.0,100.0,38.51730977205873,7.738533915849642
0,Test,ID1,BV01,566,0,113200,0,113200,Undified,Nan,faces\-2466295529861264751.png,,,,,26,31.40063693621516,8.154234499766936,31.0,8.5,25,27,291,132,107,15,291,132,500,90,0,366,137,100,0,0,300,26,-174,4,15,254,94,179,179,1.3974312001682714,89.14033879226619,63.78871373526825,0.0,0.0,15.0,49.0,0.0,0.0,35.0,50,0.0,24,8,15,0,0,0,0,0,32,0,8,0,0,25,24,25,24,0,8,0,25,24,0,32,Anticipation,Joy,75.0,76.5625,23.4375,0,0,0,0,0,0,0,64.0,54.02985074626866,6.666666666666667,80.2071718606894,0.0,0.0,40.8715141105984,44.81901510129947,6.13072711658976,69.59072483287243,3.95856562786212,39.51814496657449,5.454991990542705,82.59507889085307,41.65718909730341,94.0,100.0,51.73860872493087,28.803015254727793
0,Test,ID1,BV01,589,0,117800,0,117800,Undified,Nan,faces\5103276130005976407.png,,,,,22,25.079872407968914,5.5908910219455015,27.07397274136177,6.041381265149108,22,22,301,145,91,12,301,145,500,29,0,364,149,100,0,0,300,22,-175,5,26,254,94,179,179,1.406434972726884,80.00624975587844,56.88585061331157,0.0,0.0,0.0,0.0,66.0,0.0,34.0,50,0.0,0,0,0,33,33,0,0,0,0,0,33,0,33,25,0,25,0,0,0,0,58,0,0,25,Sadness,Neutral,75.0,13.157894736842104,86.8421052631579,-29,55,43,-61,-55,-83,-46,66.0,54.11764705882352,20.0,31.232035321925014,50.44883526787211,50.44883526787211,50.44883526787211,51.549478805157534,50.44883526787211,37.32726836689477,13.753592935614998,11.953453673378956,32.755290219190634,49.22849466133697,-2.445333442142613,100.0,100.0,19.74909025503422,54.90529572199271
0,Test,ID1,BV01,641,0,128200,0,128200,Undified,Nan,faces\2288757242091239777.png,,,,,20,26.0,5.5,29.068883707497267,6.041381265149108,21,20,307,136,94,9,307,138,500,17,0,371,136,100,0,0,300,24,-174,0,21,277,95,150,149,1.2348196242406873,85.21150157109074,69.00724599634447,0.0,0.0,0.0,71.0,0.0,0.0,29.0,50,0.0,36,0,0,0,0,0,0,0,36,0,0,0,0,25,36,25,36,0,0,0,25,36,0,25,Joy,Neutral,55.0,100.0,0.0,96,22,77,98,21,78,6,71.0,54.20289855072463,13.333333333333334,55.03961080030571,0.0,0.0,45.40837238345027,48.04673023363257,0.0,52.94174663030377,8.992077839938858,61.14034932606076,3.5671885693729624,90.24042380753201,71.20947903832915,100.0,100.0,79.44126199454556,29.64062856457654
0,Test,ID1,BV01,643,0,128600,0,128600,Undified,Nan,faces\-5727194626895209598.png,,,,,21,26.019223662515373,5.5,28.16025568065745,6.041381265149108,21,21,307,133,92,12,307,138,500,22,0,370,133,100,0,0,300,22,-177,-2,20,277,95,150,149,1.2536894557714569,85.28774824088157,68.0294054067798,0.0,0.0,0.0,71.0,0.0,0.0,29.0,50,0.0,36,0,0,0,0,0,0,0,36,0,0,0,0,25,36,25,36,0,0,0,25,36,0,25,Joy,Neutral,55.0,100.0,0.0,95,19,85,90,22,79,5,71.0,54.28571428571429,20.0,60.11875347222429,0.0,0.0,50.44883526787211,51.59989897322477,0.0,57.563097122524425,7.976249305555142,62.34861942450489,3.250017648809399,91.05629559320494,72.8464038399516,100.0,100.0,80.48446456837866,28.583392162697997
0,Test,ID1,BV01,644,0,128800,0,128800,Undified,Nan,faces\5890653760571625250.png,,,,,19,27.166155414412252,5.5908910219455015,27.07397274136177,5.049509756796391,20,18,309,136,91,7,309,136,1320,66,5,372,137,100,0,0,710,21,-173,0,16,277,95,150,149,1.2588908051197516,83.0963296421689,66.007575322837,0.0,0.0,0.0,71.0,0.0,0.0,29.0,50,0.0,36,0,0,0,0,0,0,0,36,0,0,0,0,25,36,25,36,0,0,0,25,36,0,25,Joy,Neutral,55.0,100.0,0.0,95,19,86,91,15,78,4,71.0,54.36619718309859,23.333333333333332,76.86303193344635,0.0,0.0,53.17515301305708,53.53246626406953,0.0,69.8638622326333,4.62739361331073,64.52477244652665,2.2332885065284303,92.99975541804059,75.71594109996238,100.0,100.0,81.97957933489499,25.194295021761434
0,Test,ID1,BV01,645,0,129000,0,129000,Undified,Nan,faces\-6463842827925479487.png,,,,,20,25.019992006393608,5.549509756796391,26.0768096208106,5.0990195135927845,22,19,313,135,90,10,313,138,500,31,0,376,135,100,0,0,300,20,-179,-2,18,277,95,150,149,1.3302584346851605,85.14693182963201,64.00781202322104,0.0,0.0,0.0,71.0,0.0,0.0,29.0,50,0.0,36,0,0,0,0,0,0,0,36,0,0,0,0,25,36,25,36,0,0,0,25,36,0,25,Joy,Neutral,55.0,100.0,0.0,95,15,77,93,22,80,7,71.0,54.44444444444444,26.666666666666668,69.10134178531257,0.0,0.0,56.0488043568919,55.56749638315766,0.0,65.0411881646661,6.179731642937487,64.12823763293322,2.6872528262145794,92.35431655549496,75.24572869671601,100.0,100.0,81.95617822469993,26.707509420715265
0,Test,ID1,BV01,646,0,129200,0,129200,Undified,Nan,faces\-3870420476653813118.png,,,,,21,26.0,5.5,26.1725046566048,5.5908910219455015,21,21,312,134,91,10,312,137,500,23,0,376,134,100,0,2,300,20,-178,-2,14,277,95,150,149,1.328789752554013,85.05292469985967,64.00781202322104,0.0,0.0,0.0,71.0,0.0,0.0,29.0,50,0.0,36,0,0,0,0,0,0,0,36,0,0,0,0,25,36,25,36,0,0,0,25,36,0,25,Joy,Neutral,75.0,100.0,0.0,97,18,76,87,16,76,6,71.0,54.520547945205486,26.666666666666668,83.3108930788597,0.0,0.0,56.0488043568919,55.590327433385966,0.0,74.99472338521758,3.337821384228059,64.98294467704352,1.8232642234875946,93.64086095973168,76.26276694227757,100.0,100.0,82.04920850778264,23.827547411625318
0,Test,ID1,BV01,647,0,129400,0,129400,Undified,Nan,faces\-5183314122451626262.png,,,,,23,26.0,6.0827625302982185,27.166155414412252,6.576915171081848,23,24,314,131,90,11,314,134,500,24,0,376,131,100,0,0,300,20,179,0,16,277,95,150,149,1.4652994663218066,85.0,58.00862004909271,0.0,0.0,0.0,71.0,0.0,0.0,29.0,50,0.0,36,0,0,0,0,0,0,0,36,0,0,0,0,25,36,25,36,0,0,0,25,36,0,25,Joy,Neutral,75.0,100.0,0.0,97,15,81,93,23,77,5,71.0,54.59459459459459,26.666666666666668,76.82951645088069,0.0,0.0,56.0488043568919,55.612541428202704,0.0,70.46442394407728,4.634096709823862,64.36088478881545,2.20103982375797,92.98561053540136,75.46466703955946,100.0,100.0,81.71966359161159,25.086799412526567
0,Test,ID1,BV01,648,0,129600,0,129600,Undified,Nan,faces\-2932591538830296910.png,,,,,22,25.019992006393608,5.541381265149108,24.08318915758459,5.549509756796391,22,23,322,133,87,9,322,135,500,27,0,384,133,100,0,0,300,22,179,0,8,294,95,149,149,1.4575163188259277,86.00581375697809,59.00847396772772,0.0,0.0,0.0,71.0,0.0,0.0,29.0,50,0.0,36,0,0,0,0,0,0,0,36,0,0,0,0,25,36,25,36,0,0,0,25,36,0,25,Joy,Neutral,75.0,100.0,0.0,97,23,83,95,24,76,7,71.0,54.666666666666664,20.0,94.29494830235252,0.0,0.0,50.44883526787211,51.714184687510475,0.0,81.52071921789991,1.1410103395294955,66.28814384357999,1.142303101858849,94.83822944030292,78.01400274850528,100.0,100.0,83.02810788268499,21.557677006196162
0,Test,ID1,BV01,649,0,129800,0,129800,Undified,Nan,faces\3825890766350020526.png,,,,,21,26.0,5.549509756796391,24.0,5.049509756796391,21,21,329,135,85,7,329,135,500,16,0,389,135,100,0,0,300,20,178,2,-16,294,95,149,149,1.5638527834584623,89.35882720806042,57.14017850864661,5.0,0.0,0.0,0.0,0.0,42.0,53.0,0,0.0,0,0,21,21,0,2,0,0,0,21,0,21,2,0,2,0,21,0,0,24,0,0,0,0,Neutral,Neutral,75.0,0.0,0.0,-6,9,7,14,20,-6,-7,0.0,54.73684210526316,26.666666666666668,76.45884557226697,0.0,0.0,56.0488043568919,55.65521568140327,2.802440217844595,70.21775660500785,8.708230885546607,14.043551321001571,4.943285069689036,82.46714760474956,23.40115391172692,99.5,95.0,37.432663490751175,7.339809832915028
0,Test,ID1,BV01,650,0,130000,0,130000,Undified,Nan,faces\6362062853955975533.png,,,,,16,25.0,3.58113883008419,23.021728866442675,4.561552812808832,14,19,331,135,83,7,331,135,500,26,0,390,136,100,0,0,300,19,177,3,-17,294,95,149,149,1.6803484532942432,89.45389874119519,53.23532661682466,0.0,0.0,0.0,0.0,0.0,0.0,100.0,50,0.0,0,0,0,0,0,0,0,0,0,0,0,0,0,25,0,25,0,0,0,0,25,0,0,25,Neutral,Neutral,75.0,0.0,0.0,0,9,1,13,9,-6,-7,0.0,54.80519480519481,30.0,72.75814480059823,0.0,0.0,59.07775139012317,57.79598441464466,0.0,68.26949668481215,5.448371039880354,13.653899336962432,2.413732091184885,84.29596399553333,23.09697057075637,100.0,100.0,38.14042450272182,8.045773637282949
0,Test,ID1,BV01,651,0,130200,0,130200,Undified,Nan,faces\4186146509160773632.png,,,,,17,25.019992006393608,4.123105625617661,23.021728866442675,4.5,16,19,330,135,84,6,330,135,500,19,0,390,135,100,0,0,300,19,176,2,-18,294,95,149,149,1.7172352951251406,89.56003573022959,52.153619241621186,0.0,0.0,0.0,0.0,0.0,0.0,100.0,50,0.0,0,0,0,0,0,0,0,0,0,0,0,0,0,25,0,25,0,0,0,0,25,0,0,25,Neutral,Neutral,75.0,0.0,0.0,-8,12,0,21,16,-6,-6,0.0,54.87179487179487,30.0,68.9677427042322,0.0,0.0,59.07775139012317,57.815964434624675,0.0,65.62220922334994,6.206451459153562,13.124441844669988,2.6311662069768382,83.85728795675354,22.39128110151284,100.0,100.0,37.74333138350249,8.770554023256128
0,Test,ID1,BV01,652,0,130400,0,130400,Undified,Nan,faces\5046800790843809953.png,,,,,20,26.0,5.049509756796391,23.0,5.0,19,21,328,133,85,7,328,133,500,41,0,389,134,100,0,0,300,19,177,3,-18,294,95,149,149,1.6803484532942432,89.45389874119519,53.23532661682466,43.0,0.0,1.0,0.0,0.0,9.0,47.0,50,0.0,0,0,6,4,0,22,0,0,0,4,0,4,22,25,22,25,4,0,0,26,25,0,0,26,Anticipation,Neutral,75.0,18.867924528301888,81.13207547169812,0,0,0,0,0,0,0,53.0,54.936708860759495,30.0,68.9677427042322,0.0,0.0,59.07775139012317,57.83543863131406,25.403433097752963,65.62805148235675,40.60645145915356,34.32561029647135,26.913317312396273,65.03215129831867,36.16022800042106,95.3,57.0,41.744207722353515,42.27111589669834
0,Test,ID1,BV01,653,0,130600,0,130600,Undified,Nan,faces\2732881988408165706.png,,,,,26,26.0768096208106,6.535533905932738,25.019992006393608,7.0,25,27,327,131,87,9,327,131,500,31,0,388,132,100,0,0,300,20,177,3,-16,294,95,149,149,1.6990387086589651,90.44888059008801,53.23532661682466,1.0,0.0,31.0,0.0,0.0,20.0,49.0,0,0.0,0,16,41,10,0,0,0,0,16,10,16,10,0,0,0,0,10,0,16,10,0,0,0,16,Neutral,Awe,75.0,0.0,0.0,-6,11,1,14,13,-5,-7,0.0,55.0,26.666666666666668,76.45884557226697,0.0,0.0,56.0488043568919,55.734163049824325,17.375129350636488,70.24144081553416,5.508230885546607,14.048288163106832,11.958790408514052,76.95711175474219,23.25607137935776,87.5,99.0,35.48621612233013,7.208230885546607
0,Test,ID1,BV01,654,0,130800,0,130800,Undified,Nan,faces\-4763593522605994857.png,,,,,25,28.071337695236398,7.035533905932738,26.019223662515373,7.0,25,26,325,127,90,9,325,127,500,32,0,388,128,100,0,0,300,19,175,2,-13,294,95,149,149,1.5268372839600637,90.19977827023745,59.07622195096772,0.0,0.0,0.0,0.0,65.0,0.0,35.0,50,0.0,0,0,0,32,32,0,0,0,0,0,32,0,32,25,0,25,0,0,0,0,58,0,0,25,Sadness,Neutral,75.0,13.333333333333334,86.66666666666667,-29,56,45,-59,-61,-84,-44,65.0,55.06172839506173,30.0,85.87997735464029,59.07775139012317,59.07775139012317,59.07775139012317,57.872944491604734,59.07775139012317,77.47786749572961,2.824004529071942,19.655573499145923,34.08070536403007,52.083222458348914,7.227789119767293,100.0,100.0,25.221680124359445,43.209806998207746
0,Test,ID1,BV01,655,0,131000,0,131000,Undified,Nan,faces\-7339977877116246663.png,,,,,19,25.019992006393608,4.5,24.020824298928627,5.5,17,22,326,128,86,9,326,128,500,18,0,387,130,100,0,0,300,21,172,4,-8,294,95,149,149,1.5503503497263291,93.34345183246651,60.207972893961475,0.0,0.0,1.0,0.0,0.0,0.0,99.0,50,0.0,0,0,1,0,0,0,0,0,0,0,0,0,0,25,0,25,0,0,0,0,25,0,0,26,Neutral,Neutral,75.0,0.0,0.0,-3,9,3,17,18,-4,-10,0.0,55.1219512195122,23.333333333333332,94.5886552942058,0.0,0.0,53.17515301305708,53.75919247499361,0.5317515301305707,82.33981644844212,1.0822689411588413,16.467963289688424,1.3488513409926366,86.75490057205009,27.66044416931554,99.6,100.0,40.85097246726632,3.5212933314027426
0,Test,ID1,BV01,657,0,131400,0,131400,Undified,Nan,faces\2893278100795008031.png,,,,,22,26.0768096208106,5.549509756796391,26.019223662515373,6.0,21,23,325,126,90,11,325,126,500,11,0,388,129,100,0,0,300,22,176,3,-1,294,95,149,149,1.5402009781362658,91.19758768739443,59.211485372349856,40.0,0.0,4.0,0.0,0.0,0.0,57.0,50,0.0,0,2,4,0,0,20,0,0,2,0,2,0,20,25,20,25,0,0,2,20,25,0,0,27,Neutral,Neutral,75.0,0.0,0.0,-4,7,-1,22,19,-7,-7,0.0,55.18072289156627,20.0,98.34398171348894,0.0,0.0,50.44883526787211,51.86840155498035,20.179534107148847,84.40130766593637,32.33120365730221,16.880261533187277,21.52099642238759,70.52333362868357,25.35266027935245,94.4,60.0,31.810196149890455,2.7408422115190767
