Problem,NameTest,User,Module,Image,Timestamp,TimeBlock,TimeVideo,TimeDetection,URL_Media,Codigo_Media,URL,XEyeTracking,YEyeTracking,Distance,Velocity,Blinks,B_left_horizontal,B_left_vertical,B_right_horizontal,B_right_vertical,PLeftEAR,PRightEAR,XFrame,YFrame,WFrame,HFrame,XEyeLeft,YEyeLeft,GazeRatioLeft,LWLeft,RWLeft,XEyeRight,YEyeRight,GazeRatioRight,LWRight,RWRight,GazeRatioAvg,FrownT,Pitch,Roll,Yaw,XPose,YPose,WidthPose,HeightPose,MouthRatio,VMouth,HMouth,Anger,Disgust,Fear,Joy,Sadness,Surprise,Neutral,Anticipation,Trust,Love,Submission,Awe,Disapproval,Remorse,Contempt,Agressiveness,Optimism,Guilt,Curiosity,Despair,Unbelief,Envy,Cynicism,Pride,Hope,Delight,Sentimentality,Shame,Outrage,Pessimism,Morbidness,Dominance,Anxiety,Predominant,Trend,Veracity,Positive valence,Negative valence,Jvalence,Jarousal,Jdominance,Evalence,Earousal,Dvalence,Darousal,Intensity,eng_blinks,eng_frownt,FOCUS,Stress,Variant2,Stress_intens,Cognitive effort,Frustration,Interest,Rejection,Commitment,Confusion,Comprehension,Performance,Confidence 1,Confidence 2,PerformancePolit,Variant
0,Test,ID1,BV01,5,0,1000,0,1000,Undified,Nan,faces\167904648960721003.png,,,,,29,17.029386365926403,5.0,18.0,5.541381265149108,29,30,298,113,61,7,298,113,300,3,1,340,113,500,2,0,400,15,174,2,10,285,93,86,86,1.5572411502397436,53.03772242470448,34.058772731852805,89.0,0.0,0.0,0.0,11.0,0.0,0.0,50,0.0,0,0,0,6,6,44,0,0,0,0,6,0,50,25,44,25,0,0,0,44,30,0,0,25,Anger,Anticipation,100.0,10.1010101010101,89.8989898989899,-44,75,32,-62,91,-43,62,100.0,30.0,20.0,91.66804048651306,0.0,0.0,71.65313105737893,59.157191740165246,71.65313105737893,81.91478586260872,72.86639190269739,39.182957172521746,65.76913965236763,31.27616686436677,31.406313152088856,91.1,11.0,29.437217879391312,64.14113937744486
0,Test,ID1,BV01,6,0,1200,0,1200,Undified,Nan,faces\1603017510083860499.png,,,,,32,17.11724276862369,5.541381265149108,17.0,5.5,32,32,302,120,60,9,302,120,500,2,0,344,122,100,0,0,300,15,176,3,5,285,93,86,86,1.5995712921230083,48.09365862564421,30.066592756745816,0.0,0.0,0.0,0.0,66.0,0.0,34.0,50,0.0,0,0,0,33,33,0,0,0,0,0,33,0,33,25,0,25,0,0,0,0,58,0,0,25,Sadness,Neutral,100.0,13.157894736842104,86.8421052631579,-22,46,46,-59,-50,-84,-45,66.0,30.0,20.0,96.83621206325527,71.65313105737893,71.65313105737893,71.65313105737893,59.157191740165246,71.65313105737893,85.53250596632826,0.6327575873489452,21.330501193265654,44.09904935776309,44.87401111042236,8.770527602624295,100.0,100.0,26.629875894949244,53.84328390313843
0,Test,ID1,BV01,7,0,1400,0,1400,Undified,Nan,faces\5595623020763624760.png,,,,,26,21.02379604162864,5.0990195135927845,21.02379604162864,6.041381265149108,24,28,298,110,73,10,298,110,100,0,1,349,112,100,0,0,100,18,172,4,3,272,79,125,124,1.6808060130219489,62.39390995922599,37.12142238654117,0.0,0.0,85.0,0.0,0.0,0.0,15.0,50,0.0,0,42,85,0,0,0,0,0,42,0,42,0,0,25,0,25,0,0,42,0,25,0,0,68,Fear,Awe,100.0,10.526315789473683,89.47368421052632,-41,95,8,-45,80,0,0,85.0,30.0,0.0,97.86759515267833,58.664621951003184,58.664621951003184,58.664621951003184,50.06523536570223,58.664621951003184,83.5268872165855,0.4264809694643333,50.705377443317104,36.89348636389106,58.83789963054571,48.01551176720095,66.0,100.0,51.02903308248782,59.04490202209591
0,Test,ID1,BV01,8,0,1600,0,1600,Undified,Nan,faces\-952726086279325509.png,,,,,24,23.021728866442675,5.5,22.09072203437452,5.541381265149108,23,25,297,102,80,10,297,102,100,1,1,354,104,100,0,0,100,18,172,4,-4,272,65,125,124,1.8014566055387915,70.34912934784622,39.05124837953327,0.0,0.0,4.0,0.0,65.0,0.0,31.0,50,0.0,0,2,4,32,32,0,0,0,2,0,34,0,32,25,0,25,0,0,2,0,58,0,0,27,Sadness,Neutral,100.0,13.333333333333334,86.66666666666667,-22,56,43,-56,-59,-81,-44,69.0,30.0,0.0,97.31410088943862,58.664621951003184,58.664621951003184,58.664621951003184,50.06523536570223,58.664621951003184,83.1394412323177,0.537179822112276,21.871888246463538,36.92669601968544,50.672587307483425,10.702119038827767,98.4,100.0,27.520916184847653,54.45384648877895
0,Test,ID1,BV01,9,0,1800,0,1800,Undified,Nan,faces\-497887972612093416.png,,,,,26,21.02379604162864,6.041381265149108,20.09975124224178,5.049509756796391,28,25,302,98,72,10,302,98,200,2,1,353,101,500,1,0,350,18,173,3,-6,272,65,125,124,1.8620006388747716,65.27633568147036,35.05709628591621,0.0,0.0,6.0,0.0,62.0,0.0,32.0,50,0.0,0,3,6,31,31,0,0,0,3,0,34,0,31,25,0,25,0,0,3,0,56,0,0,28,Sadness,Neutral,100.0,13.88888888888889,86.11111111111111,-24,48,42,-52,-56,-84,-44,68.0,30.0,0.0,96.08269550779448,58.664621951003184,58.664621951003184,58.664621951003184,50.06523536570223,58.664621951003184,82.2774574651668,0.7834608984411034,20.80749149303336,37.00058034258409,50.22728147244942,8.992092513536642,97.6,100.0,25.94161861977502,54.311238676218885
0,Test,ID1,BV01,10,0,2000,0,2000,Undified,Nan,faces\-962777482028278490.png,,,,,28,19.02629759044045,5.5908910219455015,18.110770276274835,5.0,29,27,308,101,66,10,308,101,100,2,2,355,104,100,0,0,100,16,173,5,-7,284,77,104,104,1.8529747658011455,61.40032573203501,33.13608305156178,0.0,0.0,0.0,0.0,68.0,0.0,32.0,50,0.0,0,0,0,34,34,0,0,0,0,0,34,0,34,25,0,25,0,0,0,0,59,0,0,25,Sadness,Neutral,100.0,12.82051282051282,87.17948717948718,-24,49,38,-55,-52,-82,-46,68.0,30.0,26.666666666666668,95.19608139876723,67.03200460356393,67.03200460356393,67.03200460356393,55.92240322249475,67.03200460356393,83.41397794588549,0.9607837202465532,21.5787955891771,41.65583764803413,46.81672767616125,9.735167254087497,100.0,100.0,27.412096691882827,54.75565551511835
0,Test,ID1,BV01,11,0,2200,0,2200,Undified,Nan,faces\6279778859089621366.png,,,,,28,17.029386365926403,5.0990195135927845,16.031219541881402,4.5,29,28,307,104,60,9,307,104,500,3,0,350,107,500,2,0,500,15,173,4,-6,284,77,104,104,1.906265867480747,57.3149195236284,30.066592756745816,0.0,0.0,35.0,0.0,34.0,0.0,31.0,50,0.0,0,18,35,17,17,0,0,0,18,0,34,0,17,25,0,25,0,0,18,0,42,0,0,42,Anticipation,Pessimism,100.0,22.22222222222222,77.77777777777779,0,0,0,0,0,0,0,69.0,30.0,40.0,96.08269550779448,0.0,71.65313105737893,71.65313105737893,59.157191740165246,25.078595870082626,85.00504437750571,0.7834608984411034,44.601008875501144,18.528265998077778,73.67789163928833,45.869050258305265,86.0,100.0,53.05075665662585,52.47790534288555
0,Test,ID1,BV01,12,0,2400,0,2400,Undified,Nan,faces\4124987298196576771.png,,,,,24,16.031219541881402,4.061552812808832,15.132745950421555,3.5,25,23,307,107,56,8,307,107,500,2,0,347,110,500,1,0,500,13,172,5,-3,294,83,87,87,1.766376895298549,53.460265618494645,30.265491900843116,75.0,0.0,0.0,0.0,0.0,0.0,25.0,50,0.0,0,0,0,0,0,38,0,0,0,0,0,0,38,25,38,25,0,0,0,38,25,0,0,25,Anger,Neutral,100.0,11.76470588235294,88.23529411764706,-38,74,30,-55,95,-42,65,75.0,30.0,40.0,97.81548750430306,0.0,0.0,81.87307530779819,66.31115271545872,81.87307530779819,88.36418706764975,60.436902499139386,35.07283741352995,67.66126216903083,30.50740897154031,27.091787664066473,92.5,25.0,28.55462806014746,56.245726028551154
0,Test,ID1,BV01,13,0,2600,0,2600,Undified,Nan,faces\-744440800602417301.png,,,,,25,17.0,4.061552812808832,15.033296378372908,4.061552812808832,23,27,308,102,57,8,308,102,200,2,1,349,104,500,1,0,350,13,169,4,-2,294,74,87,86,1.81561564682373,54.589376255824725,30.066592756745816,74.0,0.0,0.0,0.0,0.0,0.0,26.0,50,0.0,0,0,0,0,0,37,0,0,0,0,0,0,37,25,37,25,0,0,0,37,25,0,0,25,Anger,Neutral,100.0,11.904761904761903,88.09523809523809,-46,83,33,-61,92,-45,65,74.0,30.0,40.0,98.12826950307297,0.0,0.0,81.87307530779819,66.31115271545872,81.87307530779819,88.58313446678869,59.57434609938541,33.99662689335774,67.40249524910463,30.436317247395166,25.68941534143669,92.6,26.0,27.53747017001831,55.898155623194924
0,Test,ID1,BV01,14,0,2800,0,2800,Undified,Nan,faces\-2873118498087263343.png,,,,,26,17.029386365926403,4.611062569605222,16.1245154965971,4.061552812808832,27,25,311,97,59,9,311,97,100,1,1,353,100,500,1,0,300,15,170,4,-3,294,74,87,86,1.7876032255030176,57.3149195236284,32.062439083762804,0.0,0.0,0.0,0.0,20.0,0.0,80.0,50,0.0,0,0,0,10,10,0,0,0,0,0,10,0,10,25,0,25,0,0,0,0,35,0,0,25,Neutral,Neutral,100.0,0.0,0.0,-5,12,-1,16,13,-7,-7,0.0,30.0,24.0,97.81548750430306,0.0,0.0,71.65313105737893,59.157191740165246,14.330626211475785,86.21799877506172,0.43690249913938717,17.243599755012344,12.5129151660535,77.91146774466337,26.545646468231766,100.0,100.0,40.482699816259256,15.436902499139388
0,Test,ID1,BV01,15,0,3000,0,3000,Undified,Nan,faces\8693761845673199508.png,,,,,26,17.029386365926403,4.611062569605222,16.031219541881402,4.061552812808832,27,25,314,98,60,9,314,98,300,3,1,357,101,500,3,0,400,14,165,-172,-13,296,65,104,104,1.8798990979722028,58.54912467321779,31.144823004794873,43.0,0.0,0.0,0.0,0.0,0.0,57.0,50,0.0,0,0,0,0,0,22,0,0,0,0,0,0,22,25,22,25,0,0,0,22,25,0,0,25,Neutral,Neutral,100.0,0.0,0.0,-9,11,5,11,17,-5,-8,0.0,30.0,32.0,85.87997735464029,0.0,0.0,76.59283383646486,62.6149836855254,32.93491854967989,78.90047925390581,37.22400452907194,15.780095850781164,33.78140656104552,60.36492267655417,23.761612081131872,95.7,57.0,31.485071888085873,17.824004529071942
0,Test,ID1,BV01,16,0,3200,0,3200,Undified,Nan,faces\9098528562690389417.png,,,,,23,18.027756377319946,4.061552812808832,16.031219541881402,4.123105625617661,22,25,315,96,60,9,315,96,200,2,1,358,99,500,2,0,350,14,170,4,-7,296,65,104,104,1.822996192644704,60.40695324215582,33.13608305156178,74.0,0.0,0.0,0.0,0.0,0.0,26.0,50,0.0,0,0,0,0,0,37,0,0,0,0,0,0,37,25,37,25,0,0,0,37,25,0,0,25,Anger,Neutral,100.0,11.904761904761903,88.09523809523809,-38,72,37,-52,90,-46,62,74.0,30.0,32.0,95.19608139876723,0.0,0.0,76.59283383646486,62.6149836855254,76.59283383646486,85.42175208479469,60.160783720246556,33.068350416958936,64.67429372612965,32.20274022757575,24.675712043956246,92.6,26.0,26.713262812719204,56.48459324405607
0,Test,ID1,BV01,17,0,3400,0,3400,Undified,Nan,faces\-609788908897162236.png,,,,,18,17.029386365926403,3.0,17.464249196572982,3.64269164289302,17,20,311,93,61,10,311,93,100,0,0,354,97,100,0,0,100,15,171,7,-2,284,65,104,104,1.9831016886918096,63.95310782127793,32.2490309931942,0.0,0.0,0.0,0.0,71.0,0.0,29.0,50,0.0,0,0,0,36,36,0,0,0,0,0,36,0,36,25,0,25,0,0,0,0,60,0,0,25,Sadness,Neutral,100.0,12.345679012345679,87.65432098765432,-20,48,42,-61,-52,-82,-44,71.0,30.0,24.0,98.12826950307297,71.65313105737893,71.65313105737893,71.65313105737893,59.157191740165246,71.65313105737893,86.43694617420066,0.37434609938540575,22.39938923484013,44.021525911374034,45.22647388832084,11.081883932382247,100.0,100.0,28.465541926130104,55.03792634629899
0,Test,ID1,BV01,18,0,3600,0,3600,Undified,Nan,faces\-3463658710686375532.png,,,,,25,18.110770276274835,4.549509756796391,17.262676501632072,4.611062569605222,25,26,306,90,62,13,306,90,100,0,0,350,96,100,0,0,100,14,172,7,-6,284,65,104,104,2.008635204464809,64.77653896280658,32.2490309931942,59.0,0.0,0.0,0.0,0.0,0.0,41.0,50,0.0,0,0,0,0,0,30,0,0,0,0,0,0,30,25,30,25,0,0,0,30,25,0,0,25,Anger,Neutral,100.0,14.492753623188406,85.5072463768116,-42,72,33,-49,96,-43,63,59.0,31.42857142857143,32.0,96.08269550779448,0.0,0.0,76.59283383646486,63.04355511409683,76.59283383646486,86.17095338968518,47.98346089844111,30.686190677937038,60.80681116530229,35.67164640672669,22.65990298809396,94.1,41.0,27.875643008452784,51.19598677835829
0,Test,ID1,BV01,19,0,3800,0,3800,Undified,Nan,faces\166006550113616107.png,,,,,26,19.104973174542803,5.0990195135927845,19.235384061671343,5.0990195135927845,26,26,300,91,68,12,300,91,500,1,0,348,96,500,5,0,500,16,164,6,-1,284,65,104,104,1.9189877804538056,67.60177512462228,35.22782990761707,65.0,0.0,0.0,0.0,0.0,0.0,35.0,50,0.0,0,0,0,0,0,32,0,0,0,0,0,0,32,25,32,25,0,0,0,32,25,0,0,25,Anger,Neutral,100.0,13.333333333333334,86.66666666666667,-43,78,29,-60,95,-43,63,65.0,33.333333333333336,16.0,98.34398171348894,0.0,0.0,67.03200460356393,56.92240322249475,67.03200460356393,85.91750816619069,52.33120365730221,32.00350163323814,56.56696362915083,39.038179913298414,24.433195032877514,93.5,35.0,27.837626224928606,51.58120365730221
0,Test,ID1,BV01,20,0,4000,0,4000,Undified,Nan,faces\4024313064680530454.png,,,,,27,20.0,5.049509756796391,20.09975124224178,6.0,25,29,293,96,71,10,293,96,150,3,2,343,98,500,5,0,325,17,166,3,-2,273,65,104,104,1.9463970659815375,70.178344238091,36.05551275463989,59.0,0.0,1.0,0.0,0.0,0.0,40.0,50,0.0,0,0,1,0,0,30,0,0,0,0,0,0,30,25,30,25,0,0,0,30,25,0,0,26,Anger,Neutral,100.0,14.492753623188406,85.5072463768116,-44,79,36,-56,95,-44,65,60.0,35.0,8.0,98.12826950307297,0.0,0.0,62.70890852730561,54.396235969113924,62.70890852730561,85.00865944288526,47.57434609938541,30.441731888577053,52.512203519833704,42.091103128421565,22.86127517356347,93.7,41.0,27.45129891643279,49.251157693588304
0,Test,ID1,BV01,21,0,4200,0,4200,Undified,Nan,faces\1920424104052616611.png,,,,,38,20.0,8.031128874149275,20.0,7.535533905932738,40,37,290,95,71,10,290,95,50,1,2,340,96,500,2,0,275,18,171,1,0,273,65,104,104,1.7703203567636046,69.06518659932803,39.01281840626232,0.0,0.0,70.0,0.0,0.0,0.0,30.0,50,0.0,0,35,70,0,0,0,0,0,35,0,35,0,0,25,0,25,0,0,35,0,25,0,0,60,Fear,Neutral,100.0,12.5,87.5,-37,91,6,-37,84,0,0,70.0,36.470588235294116,0.0,98.33587956325762,58.664621951003184,58.664621951003184,58.664621951003184,52.00641183629046,58.664621951003184,84.43703924516747,0.33282408734847596,44.887407849033494,35.894801063962184,59.72786307334701,44.582046118626565,72.0,100.0,49.665555886775124,51.47252996970142
0,Test,ID1,BV01,22,0,4400,0,4400,Undified,Nan,faces\5993347858366129332.png,,,,,32,21.0,6.5,20.02498439450079,7.0,30,34,287,98,72,9,287,98,100,0,1,338,99,500,3,0,300,19,172,2,-7,259,65,124,124,1.8724001583372012,71.17583859709698,38.01315561749642,0.0,0.0,0.0,0.0,0.0,0.0,100.0,50,0.0,0,0,0,0,0,0,0,0,0,0,0,0,0,25,0,25,0,0,0,0,25,0,0,25,Neutral,Neutral,80.0,0.0,0.0,-5,2,2,22,15,-7,-6,0.0,37.77777777777778,0.0,95.19608139876723,0.0,0.0,54.88116360940265,49.75014785991519,0.0,81.56230133711162,0.9607837202465532,16.312460267422324,3.621568449407299,84.55897537418532,26.046472871696437,100.0,100.0,39.78434520056675,12.071894831357664
0,Test,ID1,BV01,23,0,4600,0,4600,Undified,Nan,faces\7480050230415508017.png,,,,,30,20.02498439450079,6.041381265149108,20.0,6.0,30,30,287,100,72,9,287,100,100,0,0,338,101,100,0,0,100,19,173,1,-5,259,65,124,124,1.7703203567636046,69.06518659932803,39.01281840626232,0.0,0.0,8.0,0.0,11.0,0.0,81.0,50,0.0,0,4,8,6,6,0,0,0,4,0,10,0,6,25,0,25,0,0,4,0,30,0,0,29,Neutral,Neutral,80.0,0.0,0.0,-8,7,0,18,10,-6,-7,0.0,38.94736842105263,0.0,96.78189149123358,0.0,0.0,54.88116360940265,50.10102505289764,6.036927997034292,82.7776315597328,0.643621701753284,16.55552631194656,6.671291645736951,82.34072983938371,26.52848087387157,96.8,100.0,39.51664473395992,11.16993749122697
0,Test,ID1,BV01,24,0,4800,0,4800,Undified,Nan,faces\-5077022691154179508.png,,,,,35,20.0,7.0,19.0,7.0,35,36,287,99,72,9,287,99,100,0,0,339,99,100,0,0,100,18,174,1,-1,259,65,124,124,1.7394267838377622,66.12110101926616,38.01315561749642,0.0,0.0,0.0,0.0,0.0,0.0,100.0,50,0.0,0,0,0,0,0,0,0,0,0,0,0,0,0,25,0,25,0,0,0,0,25,0,0,25,Neutral,Neutral,100.0,0.0,0.0,1,5,3,17,17,-5,-8,0.0,40.0,6.666666666666667,98.34398171348894,0.0,0.0,58.664621951003184,53.06523536570223,0.0,84.76035780915294,0.33120365730221124,16.95207156183059,3.0993610971906635,85.49654690316277,27.73974414260451,100.0,100.0,40.96405367137294,10.331203657302211
0,Test,ID1,BV01,25,0,5000,0,5000,Undified,Nan,faces\6556956299038654040.png,,,,,29,20.02498439450079,6.0,20.02498439450079,6.0,29,29,288,102,72,9,288,102,100,0,1,339,103,100,0,0,100,17,172,2,-3,259,65,124,124,1.6791330561073563,67.1863081289633,40.01249804748511,0.0,0.0,0.0,0.0,0.0,0.0,100.0,50,0.0,0,0,0,0,0,0,0,0,0,0,0,0,0,25,0,25,0,0,0,0,25,0,0,25,Neutral,Neutral,100.0,0.0,0.0,0,3,8,14,15,-6,-7,0.0,40.952380952380956,13.333333333333334,97.81548750430306,0.0,0.0,62.70890852730561,56.18195025482821,0.0,85.3254263294606,0.43690249913938717,17.06508526589212,2.9882136068846723,85.54197174743834,27.48555375710898,100.0,100.0,40.69881394941909,9.96071202294891
0,Test,ID1,BV01,26,0,5200,0,5200,Undified,Nan,faces\-6727890489604623819.png,,,,,26,20.0,5.5,19.104973174542803,5.049509756796391,27,26,290,100,71,9,290,100,150,3,2,341,102,100,0,0,125,17,171,2,-5,259,65,124,124,1.76744884863069,67.1863081289633,38.01315561749642,0.0,0.0,0.0,0.0,0.0,0.0,100.0,50,0.0,0,0,0,0,0,0,0,0,0,0,0,0,0,25,0,25,0,0,0,0,25,0,0,25,Neutral,Neutral,100.0,0.0,0.0,0,4,1,15,12,-6,-7,0.0,41.81818181818182,13.333333333333334,96.78189149123358,0.0,0.0,62.70890852730561,56.44169051456847,0.0,84.67983119823404,0.643621701753284,16.93596623964681,2.920359237798712,85.53169572958444,27.323127372516957,100.0,100.0,40.6019746797351,9.734530792662374
0,Test,ID1,BV01,27,0,5400,0,5400,Undified,Nan,faces\1288727987832036594.png,,,,,29,21.095023109728988,6.041381265149108,20.09975124224178,6.041381265149108,28,30,290,99,73,10,290,99,400,4,1,342,101,100,0,0,250,17,172,3,-3,273,65,104,104,1.767766952966369,67.26812023536857,38.05259518088089,64.0,0.0,0.0,0.0,0.0,0.0,36.0,50,0.0,0,0,0,0,0,32,0,0,0,0,0,0,32,25,32,25,0,0,0,32,25,0,0,25,Anger,Neutral,100.0,13.513513513513514,86.48648648648648,-37,76,35,-52,98,-45,63,64.0,42.608695652173914,13.333333333333334,97.81548750430306,0.0,0.0,62.70890852730561,56.678844664766096,62.70890852730561,85.47449465244196,51.63690249913939,31.174898930488396,52.589666091933815,41.97571659169715,23.566195322280205,93.6,36.0,27.0711741978663,46.754176294674046
0,Test,ID1,BV01,28,0,5600,0,5600,Undified,Nan,faces\-4501812107540316335.png,,,,,27,21.095023109728988,6.041381265149108,20.02498439450079,5.5,28,27,288,109,74,10,288,109,500,2,0,341,112,100,0,0,300,18,176,3,0,259,79,124,124,1.5557986023652988,59.30430001273095,38.11823710509184,0.0,0.0,0.0,0.0,71.0,0.0,29.0,50,0.0,0,0,0,36,36,0,0,0,0,0,36,0,36,25,0,25,0,0,0,0,60,0,0,25,Sadness,Neutral,100.0,12.345679012345679,87.65432098765432,-24,51,45,-53,-58,-82,-45,71.0,43.333333333333336,6.666666666666667,98.33587956325762,58.664621951003184,58.664621951003184,58.664621951003184,54.06523536570223,58.664621951003184,85.054686303991,0.33282408734847596,22.122937260798203,34.8653892992563,52.41315719099406,11.454987295097151,100.0,100.0,28.258202945598658,48.32973766759539
0,Test,ID1,BV01,29,0,5800,0,5800,Undified,Nan,faces\565673629244386075.png,,,,,33,21.095023109728988,7.0,20.02498439450079,7.0,33,34,289,99,74,11,289,99,500,3,0,342,101,100,0,0,300,16,175,2,-1,259,65,124,124,1.6043740959795176,64.19501538281614,40.01249804748511,0.0,0.0,0.0,0.0,48.0,0.0,52.0,50,0.0,0,0,0,24,24,0,0,0,0,0,24,0,24,25,0,25,0,0,0,0,49,0,0,25,Neutral,Neutral,100.0,0.0,0.0,-1,10,4,17,21,-6,-6,0.0,44.0,20.0,98.34398171348894,0.0,0.0,67.03200460356393,60.12240322249475,32.17536220971069,86.8775081661907,0.33120365730221124,17.37550163323814,20.195810312531542,71.93110256659385,26.51248729820706,100.0,100.0,40.9316262249286,8.331203657302211
0,Test,ID1,BV01,30,0,6000,0,6000,Undified,Nan,faces\7218351747074450839.png,,,,,34,21.095023109728988,7.035533905932738,21.02379604162864,7.5,33,35,290,96,74,13,290,96,100,0,0,342,100,100,0,0,100,16,173,4,-3,259,65,124,124,1.6769930769050807,67.26812023536857,40.11234224026316,0.0,0.0,1.0,0.0,54.0,0.0,45.0,50,0.0,0,0,1,27,27,0,0,0,0,0,28,0,27,25,0,25,0,0,0,0,52,0,0,26,Sadness,Neutral,100.0,15.625,84.375,-27,53,46,-59,-56,-84,-45,55.0,44.61538461538461,20.0,97.81548750430306,67.03200460356393,67.03200460356393,67.03200460356393,60.30701860711014,67.03200460356393,86.56294683514518,0.43690249913938717,20.832589367029037,39.30636558939429,48.81120221199909,6.6718569299862,99.6,100.0,24.484442025271775,42.97296019144708
0,Test,ID1,BV01,31,0,6200,0,6200,Undified,Nan,faces\-8936254036237550385.png,,,,,36,21.095023109728988,7.535533905932738,21.02379604162864,8.0,35,38,290,103,73,12,290,103,100,0,0,341,105,100,0,0,100,16,177,3,-1,273,77,104,104,1.6273338890059887,60.29925372672534,37.05401462729781,0.0,95.0,0.0,0.0,0.0,0.0,5.0,50,0.0,0,0,0,0,48,48,0,0,0,0,0,48,0,72,0,25,0,0,48,0,25,48,0,25,Disgust,Neutral,100.0,9.523809523809524,90.47619047619048,-26,65,37,4,-31,-68,35,95.0,45.185185185185176,20.0,98.34398171348894,0.0,0.0,67.03200460356393,60.4779587780503,0.0,86.98417483285735,76.33120365730221,29.556834966571472,25.12158331941289,61.80115082775542,24.476158790989878,52.5,5.0,19.247626224928602,54.10765868375724
0,Test,ID1,BV01,32,0,6400,0,6400,Undified,Nan,faces\6243942899600753977.png,,,,,35,21.02379604162864,7.566662780082012,21.0,7.531128874149275,35,35,289,99,74,11,289,99,500,2,0,341,101,100,0,0,300,16,175,3,-3,259,65,124,124,1.7441694504328429,66.37017402418047,38.05259518088089,0.0,0.0,0.0,0.0,12.0,0.0,88.0,50,0.0,0,0,0,6,6,0,0,0,0,0,6,0,6,25,0,25,0,0,0,0,31,0,0,25,Neutral,Neutral,100.0,0.0,0.0,0,8,7,18,10,-5,-9,0.0,45.71428571428571,20.0,97.81548750430306,0.0,0.0,67.03200460356393,60.63668893678046,8.043840552427673,86.66184793404628,0.43690249913938717,17.332369586809257,6.69804019643418,82.80775263625729,27.946237247137297,100.0,100.0,41.24927719010694,7.5797596419965325
0,Test,ID1,BV01,33,0,6600,0,6600,Undified,Nan,faces\-6539387312964379150.png,,,,,34,20.02498439450079,7.035533905932738,20.02498439450079,7.0,35,34,289,92,73,10,289,92,100,0,1,341,94,100,0,0,100,17,171,2,0,273,65,104,104,1.8673139301865165,69.1158447825099,37.013511046643494,0.0,0.0,0.0,0.0,67.0,0.0,33.0,50,0.0,0,0,0,34,34,0,0,0,0,0,34,0,34,25,0,25,0,0,0,0,58,0,0,25,Sadness,Neutral,100.0,12.987012987012985,87.01298701298701,-26,48,44,-60,-58,-83,-45,67.0,46.206896551724135,13.333333333333334,98.33587956325762,62.70890852730561,62.70890852730561,62.70890852730561,57.75830493463116,62.70890852730561,86.16260717466969,0.33282408734847596,21.78852143493394,36.65871243346401,50.98929077069576,10.189580870736997,100.0,100.0,27.274391076200452,45.73262256473316
0,Test,ID1,BV01,34,0,6800,0,6800,Undified,Nan,faces\4402798231511253632.png,,,,,17,21.02379604162864,3.5,21.095023109728988,4.0,16,18,288,104,74,7,288,104,100,0,1,340,105,100,0,0,100,17,168,3,-1,259,65,124,124,1.6526635344512015,66.18912297349165,40.04996878900158,0.0,0.0,1.0,0.0,69.0,0.0,31.0,50,0.0,0,0,1,34,34,0,0,0,0,0,35,0,34,25,0,25,0,0,0,0,60,0,0,26,Sadness,Neutral,100.0,12.658227848101266,87.34177215189874,-30,54,41,-54,-57,-84,-45,70.0,33.333333333333336,13.333333333333334,98.34398171348894,62.70890852730561,62.70890852730561,62.70890852730561,53.896235969113924,62.70890852730561,85.00965799017644,0.33120365730221124,21.48193159803529,38.58926078720875,49.22955716925065,10.075370214469173,99.6,100.0,27.251448698526467,52.999980028610224
0,Test,ID1,BV01,35,0,7000,0,7000,Undified,Nan,faces\2806018659320608693.png,,,,,29,20.02498439450079,6.0827625302982185,20.02498439450079,6.0,30,29,288,107,73,10,288,107,500,1,0,340,109,100,0,0,300,18,176,2,-1,273,77,104,104,1.5157950689970576,59.13543776789008,39.01281840626232,0.0,27.0,1.0,0.0,37.0,0.0,35.0,50,0.0,0,0,1,18,32,14,0,0,0,0,19,14,18,38,0,25,0,0,14,0,44,14,0,26,Anticipation,Pessimism,100.0,21.27659574468085,78.72340425531915,0,0,0,0,0,0,0,65.0,34.193548387096776,6.666666666666667,98.34398171348894,0.0,0.0,58.664621951003184,51.32329988183126,21.70591012187118,84.23777716399164,21.931203657302213,42.84755543279833,22.388579406155298,70.51291419147492,44.360735710145406,86.1,73.0,50.135666574598744,49.16528052758361
0,Test,ID1,BV01,36,0,7200,0,7200,Undified,Nan,faces\8834676147269458273.png,,,,,25,21.02379604162864,5.049509756796391,20.02498439450079,5.5,24,27,288,105,72,8,288,105,100,0,1,339,106,100,0,0,100,17,174,2,0,259,65,124,124,1.6363094604991535,62.201286160335954,38.01315561749642,0.0,0.0,4.0,0.0,65.0,0.0,31.0,50,0.0,0,2,4,32,32,0,0,0,2,0,34,0,32,25,0,25,0,0,2,0,58,0,0,27,Sadness,Neutral,100.0,13.333333333333334,86.66666666666667,-25,45,41,-52,-51,-81,-43,69.0,35.0,13.333333333333334,98.33587956325762,62.70890852730561,62.70890852730561,62.70890852730561,54.396235969113924,62.70890852730561,85.15398648501451,0.33282408734847596,22.274797297002902,38.33974691622263,49.74360111552335,11.112856732805966,98.4,100.0,27.823097972752183,51.74949075401514
0,Test,ID1,BV01,37,0,7400,0,7400,Undified,Nan,faces\6092294077240003543.png,,,,,27,20.02498439450079,5.5,20.0,5.5,27,27,287,104,72,9,287,104,500,1,0,338,106,100,0,0,300,18,176,2,-1,259,65,124,124,1.552737302087572,62.128898268036274,40.01249804748511,0.0,0.0,5.0,0.0,42.0,0.0,53.0,50,0.0,0,2,5,21,21,0,0,0,2,0,24,0,21,25,0,25,0,0,2,0,46,0,0,28,Neutral,Neutral,100.0,0.0,0.0,-1,2,8,20,11,-7,-8,0.0,35.75757575757576,6.666666666666667,98.34398171348894,0.0,0.0,58.664621951003184,51.792508092974956,24.639141219421337,84.37853962733475,0.33120365730221124,16.87570792546695,17.287252404236035,73.90805203934465,25.685440110768152,98.0,100.0,39.70678094410022,12.45241577851433
0,Test,ID1,BV01,38,0,7600,0,7600,Undified,Nan,faces\-5822258445285752596.png,,,,,22,20.0,4.5,20.02498439450079,4.549509756796391,22,22,287,106,71,7,287,106,500,1,0,337,107,100,0,0,300,18,174,1,2,259,65,124,124,1.5135142308520515,62.07253821135398,41.012193308819754,0.0,0.0,23.0,0.0,38.0,0.0,39.0,50,0.0,0,12,23,19,19,0,0,0,12,0,30,0,19,25,0,25,0,0,12,0,44,0,0,36,Anticipation,Pessimism,100.0,20.833333333333336,79.16666666666666,0,0,0,0,0,0,0,61.0,36.470588235294116,6.666666666666667,98.2404278726887,0.0,58.664621951003184,58.664621951003184,52.00641183629046,22.29255634138121,84.37022306176922,0.3519144254622603,41.27404461235385,15.895892080104227,75.72030864209354,43.91458662965166,90.8,100.0,52.55553345926539,47.15828697448187
0,Test,ID1,BV01,39,0,7800,0,7800,Undified,Nan,faces\215165865478055933.png,,,,,33,21.095023109728988,6.541381265149108,20.0,7.0,31,35,285,101,74,9,285,101,100,0,0,338,102,100,0,0,100,16,176,2,0,259,65,124,124,1.5688324374578613,61.20457499239743,39.01281840626232,0.0,0.0,17.0,1.0,25.0,0.0,56.0,50,0.0,0,8,17,12,12,0,0,0,9,0,21,0,12,25,0,25,0,0,8,0,38,0,0,34,Neutral,Neutral,80.0,0.0,0.0,0,5,0,16,13,-5,-7,0.0,37.142857142857146,20.0,98.33587956325762,0.0,0.0,67.03200460356393,58.0652603653519,16.758001150890983,86.2546938038859,0.33282408734847596,17.25093876077718,12.745319287766014,77.9292139501758,27.356594845989054,93.2,100.0,39.48820407058288,11.7613955159199
0,Test,ID1,BV01,40,0,8000,0,8000,Undified,Nan,faces\6394434973149063790.png,,,,,35,21.095023109728988,7.531128874149275,21.0,7.5,35,35,286,99,74,11,286,99,100,0,0,338,101,100,0,0,100,18,176,2,0,259,65,124,124,1.552737302087572,62.128898268036274,40.01249804748511,0.0,0.0,2.0,0.0,35.0,0.0,63.0,50,0.0,0,1,2,18,18,0,0,0,1,0,18,0,18,25,0,25,0,0,1,0,42,0,0,26,Neutral,Neutral,100.0,0.0,0.0,0,9,-1,18,19,-7,-9,0.0,37.77777777777778,6.666666666666667,98.33587956325762,0.0,0.0,58.664621951003184,52.398568699035565,20.532617682851114,84.554686303991,0.33282408734847596,16.910937260798203,14.72612028510599,75.97457240231431,25.936128816229182,99.2,100.0,40.03320294559865,11.443935198459586
0,Test,ID1,BV01,41,0,8200,0,8200,Undified,Nan,faces\-4530513621962719178.png,,,,,36,21.02379604162864,7.566662780082012,21.0,8.031128874149275,35,38,285,97,75,11,285,97,100,2,2,338,99,100,0,0,100,18,175,1,0,259,65,124,124,1.7089704826290115,65.03076195155643,38.05259518088089,0.0,0.0,0.0,0.0,16.0,0.0,84.0,50,0.0,0,0,0,8,8,0,0,0,0,0,8,0,8,25,0,25,0,0,0,0,33,0,0,25,Neutral,Neutral,100.0,0.0,0.0,-6,3,2,20,10,-4,-8,0.0,38.37837837837837,6.666666666666667,98.33587956325762,0.0,0.0,58.664621951003184,52.57874887921574,9.386339512160509,84.60874035804505,0.33282408734847596,16.921748071609013,8.505577201136068,81.25641227489565,27.67782631700083,100.0,100.0,41.29131105370676,11.143634898159291
0,Test,ID1,BV01,42,0,8400,0,8400,Undified,Nan,faces\3278080449691132728.png,,,,,36,21.095023109728988,7.5,20.0,7.531128874149275,35,37,285,95,75,11,285,95,100,1,1,339,97,100,0,0,100,19,175,1,-2,259,65,124,124,1.7392057386368038,68.0294054067798,39.11521443121589,22.0,0.0,0.0,0.0,17.0,0.0,61.0,50,0.0,0,0,0,8,8,11,0,0,0,0,8,0,20,25,11,25,0,0,0,11,34,0,0,25,Neutral,Neutral,100.0,0.0,0.0,-4,6,4,12,19,-4,-6,0.0,38.94736842105263,0.0,98.12826950307297,0.0,0.0,54.88116360940265,50.10102505289764,12.073855994068584,83.72009616802038,17.974346099385407,16.744019233604075,15.190819363395448,75.81935412608567,26.91195945461366,97.8,78.0,36.75801442520306,10.90066188885909
0,Test,ID1,BV01,43,0,8600,0,8600,Undified,Nan,faces\-8600516585883527466.png,,,,,38,21.02379604162864,8.06225774829855,21.02379604162864,8.0,38,38,282,97,75,9,282,97,50,1,2,335,97,500,1,0,275,19,174,0,0,259,65,124,124,1.789047803028888,68.00735254367721,38.01315561749642,75.0,0.0,0.0,0.0,0.0,0.0,25.0,50,0.0,0,0,0,0,0,38,0,0,0,0,0,0,38,25,38,25,0,0,0,38,25,0,0,25,Anger,Neutral,100.0,11.76470588235294,88.23529411764706,-37,72,30,-59,96,-43,63,75.0,39.48717948717948,0.0,98.33587956325762,0.0,0.0,54.88116360940265,50.2629683727357,54.88116360940265,83.91400620610105,60.33282408734848,33.88280124122021,51.36141028829908,43.00227238997085,26.828728790522348,92.5,25.0,27.53710093091516,51.3980578731705
0,Test,ID1,BV01,44,0,8800,0,8800,Undified,Nan,faces\-6008455266004859205.png,,,,,37,21.02379604162864,8.0,22.0,8.031128874149275,38,36,281,97,76,9,281,97,100,0,1,334,97,100,0,0,100,19,174,0,2,259,65,124,124,1.7625476999115992,67.0,38.01315561749642,75.0,0.0,0.0,0.0,0.0,0.0,25.0,50,0.0,0,0,0,0,0,38,0,0,0,0,0,0,38,25,38,25,0,0,0,38,25,0,0,25,Anger,Neutral,100.0,11.76470588235294,88.23529411764706,-38,82,28,-54,92,-45,62,75.0,40.0,0.0,98.2404278726887,0.0,0.0,54.88116360940265,50.41681452658185,54.88116360940265,83.89334386885665,60.35191442546226,33.27866877377133,51.290214312810136,42.85716293663756,26.00905226087792,92.5,25.0,26.834001580328497,51.16073795487403
0,Test,ID1,BV01,45,0,9000,0,9000,Undified,Nan,faces\-2290933590786131265.png,,,,,27,22.0,6.041381265149108,21.0,6.0,27,28,280,99,77,8,280,100,500,5,1,335,99,100,0,0,300,19,173,0,0,259,65,124,124,1.789047803028888,68.00735254367721,38.01315561749642,60.0,0.0,0.0,0.0,0.0,0.0,40.0,50,0.0,0,0,0,0,0,30,0,0,0,0,0,0,30,25,30,25,0,0,0,30,25,0,0,25,Anger,Neutral,100.0,14.285714285714285,85.71428571428571,-45,83,36,-55,99,-45,64,60.0,40.487804878048784,0.0,98.33587956325762,0.0,0.0,54.88116360940265,50.56315598999649,54.88116360940265,84.00406249127929,48.33282408734848,30.00081249825586,47.61131647966869,45.81135306539298,22.58215092935912,94.0,40.0,26.850609373691896,46.51749307689551
0,Test,ID1,BV01,46,0,9200,0,9200,Undified,Nan,faces\-1210320125178082496.png,,,,,25,22.0,6.041381265149108,22.02271554554524,5.5,27,24,280,101,77,9,280,102,500,3,0,334,101,100,0,0,300,18,173,0,3,259,65,124,124,1.6751865567750954,67.00746227100382,40.0,0.0,0.0,0.0,0.0,0.0,0.0,100.0,50,0.0,0,0,0,0,0,0,0,0,0,0,0,0,0,25,0,25,0,0,0,0,25,0,0,25,Neutral,Neutral,80.0,0.0,0.0,-6,12,0,21,14,-6,-8,0.0,40.952380952380956,6.666666666666667,97.86759515267833,0.0,0.0,58.664621951003184,53.350949651416514,0.0,84.51260150229977,0.4264809694643333,16.902520300459955,2.9850871479821564,85.46319043184425,27.274469418759367,100.0,100.0,40.57689022534496,9.950290493273855
0,Test,ID1,BV01,47,0,9400,0,9400,Undified,Nan,faces\8612928388407778246.png,,,,,25,21.0,5.5,21.0,5.049509756796391,26,24,281,105,76,7,281,105,500,1,0,335,105,100,0,0,300,18,170,0,0,259,65,124,124,1.783132648962387,66.0,37.013511046643494,0.0,0.0,0.0,0.0,0.0,0.0,100.0,50,0.0,0,0,0,0,0,0,0,0,0,0,0,0,0,25,0,25,0,0,0,0,25,0,0,25,Neutral,Neutral,80.0,0.0,0.0,0,4,8,11,14,-5,-9,0.0,41.395348837209305,6.666666666666667,98.33587956325762,0.0,0.0,58.664621951003184,53.48384001686502,0.0,84.88026769933984,0.33282408734847596,16.97605353986797,2.890544900623147,85.67559084943548,27.787626009778506,100.0,100.0,40.98204015490097,9.635149668743823
0,Test,ID1,BV01,48,0,9600,0,9600,Undified,Nan,faces\8770651801439601659.png,,,,,33,21.0,7.0,21.095023109728988,7.035533905932738,33,33,283,102,74,9,283,103,100,0,0,335,102,500,1,0,300,14,175,0,-1,259,65,124,124,1.8619401138743208,67.02984409947557,36.0,0.0,0.0,0.0,0.0,0.0,0.0,100.0,50,0.0,0,0,0,0,0,0,0,0,0,0,0,0,0,25,0,25,0,0,0,0,25,0,0,25,Neutral,Neutral,80.0,0.0,0.0,-2,6,2,17,11,-5,-8,0.0,41.81818181818182,33.333333333333336,98.34398171348894,0.0,0.0,76.59283383646486,66.16043823097995,0.0,88.68891866873625,0.33120365730221124,17.73778373374725,2.8266338244633906,86.10758480730293,28.782988147914356,100.0,100.0,41.55333780031044,9.422112748211301
0,Test,ID1,BV01,49,0,9800,0,9800,Undified,Nan,faces\4356301289266279678.png,,,,,19,20.02498439450079,4.0,20.0,4.0,19,20,285,108,72,6,285,108,100,0,1,336,108,100,0,0,100,17,172,0,0,259,65,124,124,1.8876613324753064,66.06814663663572,35.0,0.0,0.0,0.0,0.0,0.0,0.0,100.0,50,0.0,0,0,0,0,0,0,0,0,0,0,0,0,0,25,0,25,0,0,0,0,25,0,0,25,Neutral,Neutral,80.0,0.0,0.0,-6,7,4,15,16,-6,-9,0.0,33.333333333333336,13.333333333333334,98.33587956325762,0.0,0.0,62.70890852730561,53.896235969113924,0.0,85.00398648501451,0.33282408734847596,17.0007972970029,4.099847226204543,84.62052086753782,27.31304870800741,100.0,100.0,40.65059797275217,13.666157420681808
0,Test,ID1,BV01,50,0,10000,0,10000,Undified,Nan,faces\6796123876964455757.png,,,,,29,22.02271554554524,7.035533905932738,21.0,6.0,31,28,283,105,76,8,283,105,500,3,0,337,105,100,0,0,300,17,174,0,0,259,65,124,124,1.8328367823618992,66.007575322837,36.013886210738214,0.0,0.0,0.0,0.0,0.0,0.0,100.0,50,0.0,0,0,0,0,0,0,0,0,0,0,0,0,0,25,0,25,0,0,0,0,25,0,0,25,Neutral,Neutral,80.0,0.0,0.0,-2,3,8,17,19,-5,-7,0.0,33.913043478260875,13.333333333333334,98.33587956325762,0.0,0.0,62.70890852730561,54.07014901259218,0.0,85.05616039805798,0.33282408734847596,17.0112320796116,4.012890704465412,84.79530347623349,27.743570447137845,100.0,100.0,41.008424059708695,13.376302348218038
0,Test,ID1,BV01,51,0,10200,0,10200,Undified,Nan,faces\3763440906804006237.png,,,,,31,22.0,7.0,22.02271554554524,7.071067811865476,31,32,283,104,76,9,283,105,500,8,0,336,104,100,0,0,300,17,174,0,0,259,65,124,124,1.8326264378633168,66.0,36.013886210738214,0.0,0.0,0.0,0.0,0.0,0.0,100.0,50,0.0,0,0,0,0,0,0,0,0,0,0,0,0,0,25,0,25,0,0,0,0,25,0,0,25,Neutral,Neutral,80.0,0.0,0.0,-6,11,7,16,19,-7,-7,0.0,34.46808510638298,13.333333333333334,98.33587956325762,0.0,0.0,62.70890852730561,54.23666150102882,0.0,85.10611414458899,0.33282408734847596,17.021222828917796,3.9296344602470956,84.66690384626122,26.94321892077337,100.0,100.0,40.315917121688344,13.098781534156986
0,Test,ID1,BV01,52,0,10400,0,10400,Undified,Nan,faces\6068403338683817798.png,,,,,37,22.02271554554524,8.0,21.02379604162864,8.031128874149275,36,38,283,103,76,10,283,104,500,7,0,337,103,100,0,0,300,17,174,0,-2,259,65,124,124,1.783988522238838,66.007575322837,37.0,0.0,0.0,0.0,0.0,0.0,0.0,100.0,50,0.0,0,0,0,0,0,0,0,0,0,0,0,0,0,25,0,25,0,0,0,0,25,0,0,25,Neutral,Neutral,80.0,0.0,0.0,0,3,0,17,17,-6,-6,0.0,35.0,13.333333333333334,98.12826950307297,0.0,0.0,62.70890852730561,54.396235969113924,0.0,85.00865944288526,0.37434609938540575,17.00173188857705,3.862303829815622,84.81102288043604,27.33326714876492,100.0,100.0,40.651298916432786,12.874346099385404
0,Test,ID1,BV01,53,0,10600,0,10600,Undified,Nan,faces\-1405434893045720618.png,,,,,30,20.0,6.041381265149108,20.0,6.041381265149108,30,30,285,106,73,8,285,107,500,1,0,337,106,100,0,0,300,15,173,0,-3,259,65,124,124,1.8064100542099009,65.03076195155643,36.0,0.0,0.0,0.0,0.0,0.0,0.0,100.0,50,0.0,0,0,0,0,0,0,0,0,0,0,0,0,0,25,0,25,0,0,0,0,25,0,0,25,Neutral,Neutral,80.0,0.0,0.0,-4,13,0,20,21,-7,-6,0.0,35.51020408163265,26.666666666666668,97.81548750430306,0.0,0.0,71.65313105737893,60.81025296465504,0.0,86.71391714240865,0.43690249913938717,17.34278342848173,3.804540137496918,84.92775960424333,27.371255246026493,100.0,100.0,40.55708757136129,12.681800458323062
0,Test,ID1,BV01,54,0,10800,0,10800,Undified,Nan,faces\-3846752492002710575.png,,,,,29,21.0,6.0,20.0,6.0,28,30,284,105,74,8,284,106,500,3,0,337,105,100,0,0,300,16,174,0,-2,259,65,124,124,1.8328367823618992,66.007575322837,36.013886210738214,0.0,0.0,0.0,0.0,0.0,0.0,100.0,50,0.0,0,0,0,0,0,0,0,0,0,0,0,0,0,25,0,25,0,0,0,0,25,0,0,25,Neutral,Neutral,80.0,0.0,0.0,-8,10,6,21,17,-5,-6,0.0,36.0,20.0,98.12826950307297,0.0,0.0,67.03200460356393,57.72240322249475,0.0,86.0065096188995,0.37434609938540575,17.2013019237799,3.7123038298156215,85.13080789803746,28.014708194528623,100.0,100.0,41.150976442834924,12.374346099385406
0,Test,ID1,BV01,55,0,11000,0,11000,Undified,Nan,faces\-2500917933485776581.png,,,,,37,22.02271554554524,8.031128874149275,21.02379604162864,8.031128874149275,36,38,283,103,76,10,283,104,500,7,0,337,103,100,0,0,300,16,174,0,-3,259,65,124,124,1.8326264378633168,66.0,36.013886210738214,0.0,0.0,0.0,0.0,0.0,0.0,100.0,50,0.0,0,0,0,0,0,0,0,0,0,0,0,0,0,25,0,25,0,0,0,0,25,0,0,25,Neutral,Neutral,80.0,0.0,0.0,-3,8,6,15,13,-5,-8,0.0,36.470588235294116,20.0,97.81548750430306,0.0,0.0,67.03200460356393,57.86357969308298,0.0,85.82991516093703,0.43690249913938717,17.16598303218741,3.6604825144476987,85.15460550453555,27.972939340687816,100.0,100.0,41.124487274140556,12.20160838149233
0,Test,ID1,BV01,56,0,11200,0,11200,Undified,Nan,faces\7372293248400729044.png,,,,,32,22.02271554554524,7.035533905932738,21.02379604162864,7.0,31,33,283,104,76,9,283,105,500,6,0,337,104,100,0,0,300,17,175,0,-7,259,65,124,124,1.8326264378633168,66.0,36.013886210738214,0.0,0.0,0.0,0.0,0.0,0.0,100.0,50,0.0,0,0,0,0,0,0,0,0,0,0,0,0,0,25,0,25,0,0,0,0,25,0,0,25,Neutral,Neutral,80.0,0.0,0.0,-4,11,-1,22,18,-4,-9,0.0,36.92307692307693,13.333333333333334,95.19608139876723,0.0,0.0,62.70890852730561,54.973159046037004,0.0,83.12920469294816,0.9607837202465532,16.625840938589633,3.7497735776124266,84.91310160720488,27.673611333957528,100.0,100.0,41.06938070394222,12.499245258708088
0,Test,ID1,BV01,57,0,11400,0,11400,Undified,Nan,faces\-1719575871181428098.png,,,,,20,21.02379604162864,4.0,20.0,4.5,19,22,284,107,73,7,284,108,500,2,0,336,107,100,0,0,300,16,174,0,-4,259,65,124,124,1.8580217700444692,65.03076195155643,35.0,0.0,0.0,0.0,0.0,4.0,0.0,96.0,50,0.0,0,0,0,2,2,0,0,0,0,0,2,0,2,25,0,25,0,0,0,0,27,0,0,25,Neutral,Neutral,80.0,0.0,0.0,0,12,0,20,12,-7,-9,0.0,29.81132075471698,20.0,97.31410088943862,0.0,0.0,67.03200460356393,55.86579944890985,2.6812801841425573,84.87961045727998,0.537179822112276,16.975922091455995,6.164159934704542,82.85663309796436,26.70556592411643,100.0,100.0,40.281941568592,15.631519444753785
0,Test,ID1,BV01,58,0,11600,0,11600,Undified,Nan,faces\-1043680161503851833.png,,,,,30,21.0,6.5,21.02379604162864,6.541381265149108,30,31,283,103,75,10,283,105,500,5,0,336,103,100,0,0,300,18,175,0,0,259,65,124,124,1.805555555555556,65.0,36.0,0.0,0.0,0.0,0.0,0.0,0.0,100.0,50,0.0,0,0,0,0,0,0,0,0,0,0,0,0,0,25,0,25,0,0,0,0,25,0,0,25,Neutral,Neutral,100.0,0.0,0.0,0,8,1,23,16,-7,-9,0.0,30.370370370370374,6.666666666666667,98.33587956325762,0.0,0.0,58.664621951003184,50.17634647681334,0.0,83.88801963732433,0.33282408734847596,16.777603927464867,4.544291670648986,84.05336862721325,26.577341772052407,100.0,100.0,40.133202945598654,15.147638902163287
0,Test,ID1,BV01,59,0,11800,0,11800,Undified,Nan,faces\6308954291372236596.png,,,,,34,21.0,7.0,21.02379604162864,7.5,33,35,283,103,75,9,283,104,100,0,0,336,103,100,0,0,100,17,174,0,0,259,65,124,124,1.641025641025641,64.0,39.0,0.0,0.0,11.0,0.0,0.0,0.0,89.0,50,0.0,0,6,11,0,0,0,0,0,6,0,6,0,0,25,0,25,0,0,6,0,25,0,0,30,Neutral,Neutral,100.0,0.0,0.0,-8,10,0,22,15,-7,-9,0.0,30.90909090909091,13.333333333333334,98.33587956325762,0.0,0.0,62.70890852730561,53.1689632418412,6.897979938003617,84.78580466683269,0.33282408734847596,16.957160933366538,8.257372555742897,81.17268242208894,26.513719408917066,95.6,100.0,39.167870700024906,14.87827863280302
0,Test,ID1,BV01,60,0,12000,0,12000,Undified,Nan,faces\7201964141365357610.png,,,,,33,20.0,7.0,21.0,6.541381265149108,35,31,283,102,74,9,283,103,100,0,0,335,102,100,0,0,100,15,174,0,1,259,65,124,124,1.756323299636691,65.00769185258002,37.013511046643494,0.0,6.0,2.0,1.0,25.0,0.0,66.0,50,70.0,36,36,2,12,16,3,0,0,2,35,14,3,12,28,0,60,0,0,4,0,38,4,0,26,Neutral,Neutral,100.0,0.0,0.0,-6,12,8,19,15,-5,-8,0.0,31.42857142857143,26.666666666666668,98.33694897577686,0.0,0.0,71.65313105737893,59.585763168736676,17.913282764344732,86.71159323366481,5.132610204844628,17.342318646732963,15.677802867557276,75.62891702932066,27.24079001134827,96.2,94.0,39.856738985049724,14.61832449055891
0,Test,ID1,BV01,61,0,12200,0,12200,Undified,Nan,faces\20030272357327979.png,,,,,17,21.02379604162864,4.123105625617661,21.02379604162864,3.5,19,16,283,100,74,6,283,100,600,6,1,335,100,500,1,0,550,18,167,0,0,259,65,124,124,1.7950549357115015,70.00714249274857,39.0,0.0,0.0,0.0,0.0,65.0,0.0,35.0,50,0.0,0,0,0,32,32,0,0,0,0,0,32,0,32,25,0,25,0,0,0,0,58,0,0,25,Sadness,Neutral,100.0,13.333333333333334,86.66666666666667,-24,49,37,-52,-55,-83,-44,65.0,31.92982456140351,6.666666666666667,98.33587956325762,58.664621951003184,58.664621951003184,58.664621951003184,50.644182734123284,58.664621951003184,84.02837051451732,0.33282408734847596,21.225674102903465,36.57591561504577,50.84210455941512,9.14130308457084,100.0,100.0,26.5542555771776,52.28457847331339
0,Test,ID1,BV01,62,0,12400,0,12400,Undified,Nan,faces\1717614970023830112.png,,,,,25,21.02379604162864,5.049509756796391,20.02498439450079,5.5,24,27,283,102,74,7,283,102,100,0,0,336,102,100,0,0,100,17,170,1,0,259,65,124,124,1.6179144164088315,68.0294054067798,42.04759208325728,0.0,0.0,3.0,2.0,50.0,0.0,46.0,50,0.0,1,2,3,25,25,0,0,0,2,0,26,0,25,25,1,25,1,0,2,0,50,1,0,26,Sadness,Neutral,100.0,16.666666666666664,83.33333333333334,-26,50,46,-50,-62,-84,-44,55.0,32.41379310344827,13.333333333333334,98.33587956325762,62.70890852730561,62.70890852730561,62.70890852730561,53.62037390014841,62.70890852730561,84.92122786432486,0.33282408734847596,20.504245572864974,38.72767795070539,49.10998042586818,6.291305008668033,98.8,100.0,24.03818417964873,48.70926086895768
0,Test,ID1,BV01,63,0,12600,0,12600,Undified,Nan,faces\-1881601584617187369.png,,,,,18,22.02271554554524,4.0,21.02379604162864,4.061552812808832,18,19,281,109,75,7,281,109,100,0,0,334,110,100,0,0,100,18,172,1,0,259,65,124,124,1.5748174101500532,63.07138812488592,40.04996878900158,75.0,0.0,0.0,0.0,0.0,0.0,25.0,50,0.0,0,0,0,0,0,38,0,0,0,0,0,0,38,25,38,25,0,0,0,38,25,0,0,25,Anger,Neutral,75.0,11.76470588235294,88.23529411764706,-37,78,33,-53,92,-44,63,75.0,26.101694915254235,6.666666666666667,98.33587956325762,0.0,0.0,58.664621951003184,48.8957438402785,58.664621951003184,83.50383884636388,60.33282408734848,33.50076776927278,55.450135061968155,39.59027583506187,25.984987295097152,92.5,25.0,27.12557582695458,58.090800159133124
0,Test,ID1,BV01,64,0,12800,0,12800,Undified,Nan,faces\344883545994744441.png,,,,,23,22.02271554554524,5.0990195135927845,21.02379604162864,5.0,23,23,281,107,75,8,281,107,500,1,0,334,108,100,0,0,300,18,171,1,0,259,65,124,124,1.6262217335885514,65.06919393998976,40.01249804748511,74.0,0.0,0.0,0.0,0.0,0.0,26.0,50,0.0,0,0,0,0,0,37,0,0,0,0,0,0,37,25,37,25,0,0,0,37,25,0,0,25,Anger,Neutral,100.0,11.904761904761903,88.09523809523809,-46,72,32,-52,90,-44,64,74.0,26.666666666666668,6.666666666666667,98.33587956325762,0.0,0.0,58.664621951003184,49.06523536570223,58.664621951003184,83.554686303991,59.53282408734848,33.2869372607982,55.1253892992563,39.85515719099406,25.774187295097153,92.6,26.0,27.133202945598654,57.52330027782467
0,Test,ID1,BV01,65,0,13000,0,13000,Undified,Nan,faces\452458710316223434.png,,,,,18,20.0,3.5,21.02379604162864,4.0,17,19,284,106,73,6,284,106,100,0,0,335,106,500,1,0,300,17,171,1,2,259,65,124,124,1.7844517438754002,66.12110101926616,37.05401462729781,0.0,0.0,0.0,0.0,0.0,0.0,100.0,50,0.0,0,0,0,0,0,0,0,0,0,0,0,0,0,25,0,25,0,0,0,0,25,0,0,25,Neutral,Neutral,75.0,0.0,0.0,1,2,7,14,16,-4,-9,0.0,20.65573770491803,13.333333333333334,98.2404278726887,0.0,0.0,62.70890852730561,50.09295728058933,0.0,83.79618669505888,0.3519144254622603,16.759237339011776,6.007213671900973,83.1738477319851,27.66643144696323,100.0,100.0,41.16942800425883,20.024045573003242
0,Test,ID1,BV01,66,0,13200,0,13200,Undified,Nan,faces\6135495146424153437.png,,,,,34,21.095023109728988,7.035533905932738,21.0,7.535533905932738,33,35,283,102,74,9,283,102,100,0,0,335,102,100,0,0,100,17,173,2,0,259,65,124,124,1.6918318716607783,66.06814663663572,39.05124837953327,0.0,8.0,5.0,3.0,0.0,0.0,84.0,50,60.0,32,32,5,0,4,4,0,0,4,30,2,4,0,29,2,55,2,0,6,0,25,6,0,28,Neutral,Neutral,75.0,0.0,0.0,-7,8,1,22,20,-5,-7,0.0,21.290322580645164,13.333333333333334,98.33587956325762,0.0,0.0,62.70890852730561,50.283332743307476,3.1354454263652802,83.92011551727258,6.732824087348476,16.784023103454516,9.550793823608672,80.25137649284034,27.005166528602178,94.0,92.0,38.73801732759089,19.687662797025897
0,Test,ID1,BV01,67,0,13400,0,13400,Undified,Nan,faces\3637161193528372904.png,,,,,38,21.02379604162864,8.0,21.02379604162864,8.0,38,38,281,99,75,10,281,99,500,2,0,334,100,100,0,0,300,18,172,1,3,259,65,124,124,1.7633327991487124,67.02984409947557,38.01315561749642,74.0,0.0,0.0,0.0,0.0,0.0,26.0,50,0.0,0,0,0,0,0,37,0,0,0,0,0,0,37,25,37,25,0,0,0,37,25,0,0,25,Anger,Neutral,75.0,11.904761904761903,88.09523809523809,-41,76,28,-60,96,-45,63,74.0,21.904761904761905,6.666666666666667,97.86759515267833,0.0,0.0,58.664621951003184,47.6366639371308,58.664621951003184,82.79831578801407,59.62648096946434,32.839663157602814,55.86777207817677,39.085613916259994,25.108140338629518,92.6,26.0,26.66974736820211,59.997909540892906
0,Test,ID1,BV01,68,0,13600,0,13600,Undified,Nan,faces\-8386956311704550005.png,,,,,36,20.02498439450079,7.071067811865476,20.0,7.5,35,37,282,99,73,10,282,99,100,0,0,334,100,100,0,0,100,17,174,1,1,259,65,124,124,1.7420545623948338,68.0294054067798,39.05124837953327,75.0,0.0,0.0,0.0,0.0,0.0,25.0,50,0.0,0,0,0,0,0,38,0,0,0,0,0,0,38,25,38,25,0,0,0,38,25,0,0,25,Anger,Neutral,75.0,11.76470588235294,88.23529411764706,-46,83,37,-56,92,-46,65,75.0,22.5,13.333333333333334,98.33694897577686,0.0,0.0,62.70890852730561,50.646235969113924,62.70890852730561,84.02973507377799,60.33261020484463,33.0059470147556,58.21468275147147,37.23122730620062,25.08055649906456,92.5,25.0,26.5044602610667,59.891433734256395
0,Test,ID1,BV01,69,0,13800,0,13800,Undified,Nan,faces\1249120062181096689.png,,,,,35,21.02379604162864,7.071067811865476,21.0,8.06225774829855,33,38,282,100,75,10,282,100,100,0,0,335,101,100,0,0,100,18,173,2,0,259,65,124,124,1.7844517438754002,66.12110101926616,37.05401462729781,60.0,0.0,0.0,0.0,0.0,0.0,40.0,50,0.0,0,0,0,0,0,30,0,0,0,0,0,0,30,25,30,25,0,0,0,30,25,0,0,25,Anger,Neutral,75.0,14.285714285714285,85.71428571428571,-45,72,29,-59,89,-44,64,60.0,23.076923076923073,6.666666666666667,98.33587956325762,0.0,0.0,58.664621951003184,47.98831228877915,58.664621951003184,83.23160938091408,48.33282408734848,30.08632187618282,52.30385083771784,42.08008026791715,22.415910372020235,94.0,40.0,27.08474140713711,55.22293397745837
0,Test,ID1,BV01,70,0,14000,0,14000,Undified,Nan,faces\-6746448324950709294.png,,,,,37,21.095023109728988,8.06225774829855,20.02498439450079,7.566662780082012,38,37,282,99,75,9,282,99,100,0,0,336,99,100,0,0,100,17,174,1,1,259,65,124,124,1.816875907233,69.06518659932803,38.01315561749642,36.0,0.0,0.0,0.0,3.0,0.0,61.0,50,0.0,0,0,0,2,2,18,0,0,0,0,2,0,20,25,18,25,0,0,0,18,26,0,0,25,Neutral,Neutral,75.0,0.0,0.0,-8,12,5,15,19,-4,-7,0.0,23.636363636363633,13.333333333333334,98.33694897577686,0.0,0.0,62.70890852730561,50.98714506002301,22.57520706983002,84.1320078010507,29.132610204844628,16.82640156021014,26.610692404405356,66.72464685658078,26.105466635920752,96.4,64.0,34.019801170157606,18.51442838666281
0,Test,ID1,BV01,71,0,14200,0,14200,Undified,Nan,faces\-1719324487894328278.png,,,,,35,21.02379604162864,7.566662780082012,21.0,7.566662780082012,35,36,281,98,76,9,281,98,500,1,0,335,98,100,0,0,300,17,174,0,2,259,65,124,124,1.789047803028888,68.00735254367721,38.01315561749642,75.0,0.0,0.0,0.0,0.0,0.0,25.0,50,0.0,0,0,0,0,0,38,0,0,0,0,0,0,38,25,38,25,0,0,0,38,25,0,0,25,Anger,Neutral,75.0,11.76470588235294,88.23529411764706,-38,78,27,-58,87,-44,65,75.0,24.179104477611936,13.333333333333334,98.2404278726887,0.0,0.0,62.70890852730561,51.14996731239751,62.70890852730561,84.11328970460134,60.35191442546226,33.62265794092027,57.968608346014975,37.63644229364816,25.941966655515152,92.5,25.0,27.2169934556902,59.07118571606806
0,Test,ID1,BV01,72,0,14400,0,14400,Undified,Nan,faces\-6505909962540871339.png,,,,,38,21.0,8.0,21.0,8.06225774829855,38,38,281,98,76,9,281,98,100,0,0,335,98,500,1,0,300,18,172,0,-1,259,65,124,124,1.8913942642330608,70.00714249274857,37.013511046643494,74.0,0.0,0.0,0.0,0.0,0.0,26.0,50,0.0,0,0,0,0,0,37,0,0,0,0,0,0,37,25,37,25,0,0,0,37,25,0,0,25,Anger,Neutral,75.0,11.904761904761903,88.09523809523809,-47,83,30,-51,92,-45,63,74.0,24.70588235294118,6.666666666666667,98.34398171348894,0.0,0.0,58.664621951003184,48.477000071584584,58.664621951003184,83.38388722091764,59.531203657302214,32.95677744418353,55.41902081730124,39.50317206825078,25.296289012054487,92.6,26.0,26.757583083137646,58.50207200464114
0,Test,ID1,BV01,73,0,14600,0,14600,Undified,Nan,faces\5730620080867188892.png,,,,,18,20.02498439450079,3.5,21.0,4.061552812808832,17,19,283,103,74,6,283,104,100,0,0,335,103,100,0,0,100,17,171,0,1,259,65,124,124,1.7694165640088324,69.00724599634447,39.0,0.0,0.0,9.0,0.0,10.0,0.0,81.0,50,0.0,0,4,9,5,5,0,0,0,4,0,10,0,5,25,0,25,0,0,4,0,30,0,0,30,Neutral,Neutral,55.0,0.0,0.0,-7,5,0,17,15,-6,-9,0.0,19.420289855072465,13.333333333333334,98.33694897577686,0.0,0.0,62.70890852730561,49.722322925635666,6.2708908527305605,83.7525611607345,0.33261020484462733,16.7505122321469,9.635729552194327,80.06667247431798,26.544807537615426,96.4,100.0,39.562884174110174,20.62246527730839
0,Test,ID1,BV01,74,0,14800,0,14800,Undified,Nan,faces\-431128886820869596.png,,,,,33,21.0,7.0,21.02379604162864,7.0,33,33,282,97,75,9,282,98,100,0,0,335,97,100,0,0,100,18,173,-1,-3,259,65,124,124,1.7950142661009452,70.02856560004639,39.01281840626232,39.0,0.0,0.0,0.0,0.0,0.0,61.0,50,0.0,0,0,0,0,0,20,0,0,0,0,0,0,20,25,20,25,0,0,0,20,25,0,0,25,Neutral,Neutral,55.0,0.0,0.0,0,2,2,15,18,-4,-8,0.0,20.0,6.666666666666667,97.81548750430306,0.0,0.0,58.664621951003184,47.06523536570223,22.87920256089124,82.5904118627228,31.63690249913939,16.518082372544562,28.074632158232,65.39933545968668,25.58753651164937,96.1,61.0,33.188561779408424,20.436902499139386
0,Test,ID1,BV01,75,0,15000,0,15000,Undified,Nan,faces\4530419289050922529.png,,,,,19,21.02379604162864,4.0,21.02379604162864,4.0,19,19,282,103,75,7,282,104,300,3,1,335,103,100,0,0,200,20,169,0,0,259,65,124,124,1.789047803028888,68.00735254367721,38.01315561749642,0.0,0.0,0.0,0.0,29.0,0.0,71.0,50,0.0,0,0,0,14,14,0,0,0,0,0,14,0,14,25,0,25,0,0,0,0,40,0,0,25,Neutral,Neutral,75.0,0.0,0.0,-3,6,1,19,16,-6,-9,0.0,14.929577464788736,0.0,98.33587956325762,0.0,0.0,51.3417119032592,40.418071571718066,14.889096451945168,80.96053716579576,0.33282408734847596,16.19210743315915,15.049413655056076,75.45652279253473,25.385786570702415,100.0,100.0,40.04408057486936,22.868035354954106
0,Test,ID1,BV01,76,0,15200,0,15200,Undified,Nan,faces\-691743283952324400.png,,,,,29,21.02379604162864,6.041381265149108,21.0,6.541381265149108,28,31,281,99,75,10,281,101,100,0,0,334,99,100,0,0,100,20,171,-1,0,259,65,124,124,1.8378378378378382,68.0,37.0,0.0,0.0,0.0,0.0,0.0,0.0,100.0,50,0.0,0,0,0,0,0,0,0,0,0,0,0,0,0,25,0,25,0,0,0,0,25,0,0,25,Neutral,Neutral,75.0,0.0,0.0,1,5,3,22,9,-4,-9,0.0,15.555555555555554,0.0,98.33587956325762,0.0,0.0,51.3417119032592,40.60586499894811,0.0,81.01687519396476,0.33282408734847596,16.203375038792952,6.766513892871209,82.28847640509952,26.88306643900114,100.0,100.0,40.75253127909472,22.5550463095707
0,Test,ID1,BV01,77,0,15400,0,15400,Undified,Nan,faces\-4025733681218072313.png,,,,,35,21.0,7.5,21.02379604162864,7.531128874149275,35,35,281,97,76,12,281,100,100,0,0,335,97,500,1,0,300,19,173,-1,-2,259,65,124,124,1.8379614222776883,68.0294054067798,37.013511046643494,0.0,0.0,1.0,0.0,20.0,0.0,79.0,50,0.0,0,0,1,10,10,0,0,0,0,0,10,0,10,25,0,25,0,0,0,0,35,0,0,26,Neutral,Neutral,75.0,0.0,0.0,-3,7,8,23,20,-4,-8,0.0,16.16438356164383,5.714285714285714,98.12826950307297,0.0,0.0,54.88116360940265,43.266129595075,10.976232721880528,81.66962753067358,0.37434609938540575,16.333925506134715,12.724574292603338,77.58730331898468,26.576137214566863,99.6,100.0,40.750444129601036,22.292154318563494
0,Test,ID1,BV01,78,0,15600,0,15600,Undified,Nan,faces\-7572955631794399939.png,,,,,32,21.0,7.0,22.09072203437452,7.071067811865476,33,32,283,98,76,10,283,100,100,0,0,336,98,100,0,0,100,18,174,-1,2,259,65,124,124,1.737639370444124,66.03029607687671,38.0,0.0,0.0,0.0,0.0,58.0,0.0,42.0,50,0.0,0,0,0,29,29,0,0,0,0,0,29,0,29,25,0,25,0,0,0,0,54,0,0,25,Sadness,Neutral,75.0,14.705882352941178,85.29411764705883,-26,54,46,-54,-59,-84,-44,58.0,16.756756756756754,11.428571428571429,98.2404278726887,58.664621951003184,58.664621951003184,58.664621951003184,46.09226239272925,58.664621951003184,82.59597822870086,0.3519144254622603,20.231195645740172,38.85760288717692,48.77351551312856,6.426346108488069,100.0,100.0,24.589396734305133,57.797065458848586
0,Test,ID1,BV01,79,0,15800,0,15800,Undified,Nan,faces\5355000617086878448.png,,,,,37,22.0,8.0,21.095023109728988,8.06225774829855,36,38,283,97,76,11,283,99,100,0,0,337,97,100,0,0,100,17,176,-2,0,259,65,124,124,1.7293093849583738,64.00781202322104,37.013511046643494,0.0,0.0,0.0,0.0,70.0,0.0,30.0,50,0.0,0,0,0,35,35,0,0,0,0,0,35,0,35,25,0,25,0,0,0,0,60,0,0,25,Sadness,Neutral,75.0,12.5,87.5,-29,55,43,-50,-60,-83,-44,70.0,17.333333333333332,17.142857142857142,98.33587956325762,62.70890852730561,62.70890852730561,62.70890852730561,49.09623596911392,62.70890852730561,83.56398648501451,0.33282408734847596,21.472797297002906,40.98974691622263,47.26460111552335,9.91745673280596,100.0,100.0,27.484597972752177,61.041157420681806
0,Test,ID1,BV01,80,0,16000,0,16000,Undified,Nan,faces\7699808328298854179.png,,,,,33,22.0,7.035533905932738,21.02379604162864,7.5,31,35,283,96,76,10,283,98,100,0,1,337,96,100,0,0,100,16,174,-1,-1,259,65,124,124,1.640686693195858,64.00781202322104,39.01281840626232,11.0,0.0,0.0,0.0,0.0,0.0,89.0,50,0.0,0,0,0,0,0,6,0,0,0,0,0,0,6,25,6,25,0,0,0,6,25,0,0,25,Neutral,Neutral,75.0,0.0,0.0,-7,4,6,12,11,-6,-8,0.0,17.894736842105264,22.857142857142858,98.34398171348894,0.0,0.0,67.03200460356393,52.290824275126326,7.373520506392033,84.52803448198016,9.131203657302212,16.905606896396034,13.110586849390494,77.36433396868561,26.4684420173636,98.9,89.0,38.37920517229702,21.38383523624958
0,Test,ID1,BV01,81,0,16200,0,16200,Undified,Nan,faces\-20408176156804601.png,,,,,27,21.0,6.0,22.0,6.041381265149108,28,27,281,100,76,9,281,102,100,0,0,334,100,100,0,0,100,20,171,-1,1,259,65,124,124,1.6388720631410685,64.0,39.05124837953327,0.0,0.0,0.0,1.0,0.0,0.0,99.0,50,0.0,0,0,0,0,0,0,0,0,0,0,0,0,0,25,0,25,0,0,0,0,25,0,0,25,Neutral,Neutral,75.0,0.0,0.0,-7,12,1,11,10,-4,-6,0.0,18.441558441558442,0.0,98.33694897577686,0.0,0.0,51.3417119032592,41.47166586474898,0.0,81.27736404246849,0.33261020484462733,16.2554728084937,6.333549295219622,82.66089696807114,26.985430707424236,100.0,100.0,40.79160460637028,21.111830984065406
0,Test,ID1,BV01,82,0,16400,0,16400,Undified,Nan,faces\-3831453751844802478.png,,,,,20,20.02498439450079,4.561552812808832,21.02379604162864,4.0,22,19,277,104,74,8,277,106,100,0,1,329,104,100,0,0,100,15,172,-2,1,245,65,124,124,1.6827036912977824,64.03124237432849,38.05259518088089,0.0,0.0,0.0,0.0,71.0,0.0,29.0,50,0.0,0,0,0,36,36,0,0,0,0,0,36,0,36,25,0,25,0,0,0,0,60,0,0,25,Sadness,Neutral,75.0,12.345679012345679,87.65432098765432,-23,56,45,-58,-52,-83,-46,71.0,13.846153846153848,28.571428571428573,98.33694897577686,71.65313105737893,71.65313105737893,71.65313105737893,54.3110378940114,71.65313105737893,85.12917565124722,0.33261020484462733,21.853835130249443,46.43208206608872,43.06725191225375,10.139019104037182,100.0,100.0,27.91937634768709,63.07311352868128
0,Test,ID1,BV01,83,0,16600,0,16600,Undified,Nan,faces\-6569115409203446842.png,,,,,29,21.0,6.0,20.02498439450079,6.041381265149108,28,30,275,99,74,9,275,101,100,0,0,328,99,100,0,0,100,17,172,-2,-2,245,65,124,124,1.6422877540239662,64.07027391856539,39.01281840626232,0.0,0.0,15.0,0.0,0.0,0.0,85.0,50,0.0,0,8,15,0,0,0,0,0,8,0,8,0,0,25,0,25,0,0,8,0,25,0,0,32,Neutral,Neutral,75.0,0.0,0.0,-4,3,3,20,13,-5,-6,0.0,14.430379746835445,17.142857142857142,98.12826950307297,0.0,0.0,62.70890852730561,48.225349893164555,9.406336279095841,83.15739362010045,0.37434609938540575,16.63147872402009,12.121231821293017,78.11875390497563,26.601223795522678,94.0,100.0,39.22360904301507,23.159156225967685
0,Test,ID1,BV01,84,0,16800,0,16800,Undified,Nan,faces\6027328368847307602.png,,,,,33,21.0,7.0,21.02379604162864,7.035533905932738,33,33,275,99,76,10,275,101,100,0,0,329,99,100,0,0,100,18,172,-1,-1,245,65,124,124,1.5747063813241142,63.00793600809346,40.01249804748511,0.0,0.0,32.0,0.0,14.0,0.0,54.0,50,0.0,0,16,32,7,7,0,0,0,16,0,23,0,7,25,0,25,0,0,16,0,32,0,0,41,Neutral,Neutral,75.0,0.0,0.0,-1,8,5,15,9,-4,-7,0.0,15.0,11.428571428571429,98.34398171348894,0.0,0.0,58.664621951003184,45.56523536570223,18.772679024321018,82.51035780915294,0.33120365730221124,16.502071561830586,17.17433456056722,74.11156813246151,26.438746265534384,87.2,100.0,37.77655367137294,22.83120365730221
0,Test,ID1,BV01,85,0,17000,0,17000,Undified,Nan,faces\4185411938211094104.png,,,,,29,20.0,6.0,21.0,6.041381265149108,30,28,276,100,75,9,276,101,100,0,0,329,100,100,0,0,100,17,172,-1,-1,245,65,124,124,1.6246846616632558,65.00769185258002,40.01249804748511,0.0,0.0,4.0,0.0,50.0,0.0,46.0,50,0.0,0,2,4,25,25,0,0,0,2,0,27,0,25,25,0,25,0,0,2,0,50,0,0,27,Sadness,Neutral,75.0,16.666666666666664,83.33333333333334,-21,48,39,-59,-58,-83,-44,54.0,15.555555555555554,17.142857142857142,98.34398171348894,62.70890852730561,62.70890852730561,62.70890852730561,48.56290263578059,62.70890852730561,83.40965799017644,0.33120365730221124,20.353931598035288,41.255927453875415,47.03622383591731,5.8560368811358385,98.4,100.0,23.861448698526466,56.88675921285777
0,Test,ID1,BV01,86,0,17200,0,17200,Undified,Nan,faces\-7322443113419016679.png,,,,,19,20.02498439450079,4.0,20.0,4.0,19,20,277,102,74,6,277,103,100,0,0,330,102,100,0,0,100,17,172,-1,1,259,65,124,124,1.6934984278405911,66.06814663663572,39.01281840626232,74.0,0.0,0.0,0.0,0.0,0.0,26.0,50,0.0,0,0,0,0,0,37,0,0,0,0,0,0,37,25,37,25,0,0,0,37,25,0,0,25,Anger,Neutral,75.0,11.904761904761903,88.09523809523809,-44,80,33,-52,88,-44,65,74.0,11.21951219512195,17.142857142857142,98.33694897577686,0.0,0.0,62.70890852730561,47.26208962765051,62.70890852730561,83.01449117133896,59.53261020484463,33.17889823426779,59.66675592220318,36.16804437937136,25.270427230771876,92.6,26.0,27.05217367570085,65.24666363109317
0,Test,ID1,BV01,87,0,17400,0,17400,Undified,Nan,faces\-8505711449409808630.png,,,,,29,21.02379604162864,6.0,21.02379604162864,6.535533905932738,28,31,277,96,76,10,277,99,500,3,0,331,96,100,0,0,300,22,173,-2,-1,259,65,124,124,1.6925282195525142,66.03029607687671,39.01281840626232,65.0,0.0,0.0,8.0,0.0,0.0,27.0,50,0.0,4,0,0,0,0,32,0,0,4,0,0,0,32,25,36,25,4,0,0,32,25,4,0,25,Anger,Neutral,75.0,13.333333333333334,86.66666666666667,-40,80,36,-51,99,-43,62,73.0,11.807228915662648,0.0,98.34398171348894,0.0,0.0,44.932896411722155,34.9951961629043,44.932896411722155,79.33934604831354,52.33120365730221,32.51186920966271,47.64136978628845,45.520838775800605,25.436920389658443,93.5,35.0,28.450901907247037,64.34425586613756
0,Test,ID1,BV01,88,0,17600,0,17600,Undified,Nan,faces\-8758035499087369396.png,,,,,36,21.0,8.0,21.095023109728988,7.566662780082012,38,35,278,95,76,12,278,98,50,2,4,332,95,100,0,0,75,21,173,-2,3,259,65,124,124,1.7352376562756202,66.03029607687671,38.05259518088089,54.0,0.0,0.0,0.0,0.0,0.0,46.0,50,0.0,0,0,0,0,0,27,0,0,0,0,0,0,27,25,27,25,0,0,0,27,25,0,0,25,Anger,Neutral,75.0,15.625,84.375,-44,77,35,-55,98,-44,62,54.0,12.38095238095238,4.444444444444445,97.86759515267833,0.0,0.0,48.03053010897994,37.33565679057167,48.03053010897994,79.70801364404632,43.62648096946434,28.037602728809265,46.64759299363541,46.2527269694963,20.45227610796121,94.6,46.0,26.556202046606952,58.829754778988146
