Problem,NameTest,User,Module,Image,Timestamp,TimeBlock,TimeVideo,TimeDetection,URL_Media,Codigo_Media,URL,XEyeTracking,YEyeTracking,Distance,Velocity,Blinks,B_left_horizontal,B_left_vertical,B_right_horizontal,B_right_vertical,PLeftEAR,PRightEAR,XFrame,YFrame,WFrame,HFrame,XEyeLeft,YEyeLeft,GazeRatioLeft,LWLeft,RWLeft,XEyeRight,YEyeRight,GazeRatioRight,LWRight,RWRight,GazeRatioAvg,FrownT,Pitch,Roll,Yaw,XPose,YPose,WidthPose,HeightPose,MouthRatio,VMouth,HMouth,Anger,Disgust,Fear,Joy,Sadness,Surprise,Neutral,Anticipation,Trust,Love,Submission,Awe,Disapproval,Remorse,Contempt,Agressiveness,Optimism,Guilt,Curiosity,Despair,Unbelief,Envy,Cynicism,Pride,Hope,Delight,Sentimentality,Shame,Outrage,Pessimism,Morbidness,Dominance,Anxiety,Predominant,Trend,Veracity,Positive valence,Negative valence,Jvalence,Jarousal,Jdominance,Evalence,Earousal,Dvalence,Darousal,Intensity,eng_blinks,eng_frownt,FOCUS,Stress,Variant2,Stress_intens,Cognitive effort,Frustration,Interest,Rejection,Commitment,Confusion,Comprehension,Performance,Confidence 1,Confidence 2,PerformancePolit,Variant
0,Test,ID1,BV01,5,0,1000,0,1000,Undified,Nan,faces\-659746529317503589.png,,,,,29,33.0,9.0,32.14031735997639,10.04987562112089,27,31,341,146,116,15,341,150,100,0,39,424,146,78,109,138,89,22,179,-2,24,313,114,179,179,1.6180165413523704,110.07270324653612,68.0294054067798,100.0,0.0,0.0,0.0,0.0,0.0,0.0,50,0.0,0,0,0,0,0,50,0,0,0,0,0,0,50,25,50,25,0,0,0,50,25,0,0,25,Anger,Neutral,100.0,9.090909090909092,90.9090909090909,-46,78,37,-53,88,-44,64,100.0,30,20.0,38.92456835017414,0.0,0.0,76.13003866968737,62.291027068781155,76.13003866968737,45.934505965756244,92.21508632996517,31.58690119315125,74.0360471673176,20.964612862721545,20.980087777711216,90.0,0.0,21.490175894863437,74.9423590572379
0,Test,ID1,BV01,6,0,1200,0,1200,Undified,Nan,faces\-3905116827505152601.png,,,,,27,33.0,9.027692569068707,33.13608305156178,9.552630379629154,27,28,340,147,117,14,340,151,100,0,41,423,147,83,118,142,91,23,-178,-1,22,313,114,179,179,1.4730109548844332,103.12128781197413,70.00714249274857,80.0,0.0,0.0,0.0,0.0,0.0,20.0,50,0.0,0,0,0,0,0,40,0,0,0,0,0,0,40,25,40,25,0,0,0,40,25,0,0,25,Anger,Neutral,100.0,11.11111111111111,88.88888888888889,-43,78,29,-50,89,-43,64,80.0,30,0.0,50.00624703467075,0.0,0.0,72.74705090242836,59.92293563169984,72.74705090242836,52.98125361377947,73.99875059306585,28.8362507227559,66.71050317425535,27.62972282197367,18.808285685642236,92.0,20.0,22.897188042066922,67.22097281528806
0,Test,ID1,BV01,7,0,1400,0,1400,Undified,Nan,faces\2540382353255019234.png,,,,,26,32.0,8.5,31.144823004794873,8.527692569068709,26,27,341,146,114,14,341,150,100,0,6,423,146,81,102,125,90,23,179,-2,25,313,114,179,179,1.4878718119894858,107.16809226630843,72.02777242147644,79.0,0.0,0.0,0.0,0.0,0.0,21.0,50,0.0,0,0,0,0,0,40,0,0,0,0,0,0,40,25,40,25,0,0,0,40,25,0,0,25,Anger,Neutral,100.0,11.235955056179774,88.76404494382022,-42,78,27,-60,87,-46,64,79.0,30,0.0,34.82445037097229,0.0,0.0,72.74705090242836,59.92293563169984,72.74705090242836,42.353995949190555,76.23510992580555,25.53479918983811,67.38141097407727,25.73027081565724,14.511526068863363,92.1,21.0,20.253099392378587,69.9761211617606
0,Test,ID1,BV01,8,0,1600,0,1600,Undified,Nan,faces\-2748366922851999662.png,,,,,29,33.015148038438355,9.0,31.256999216175572,10.0,27,31,341,145,116,14,341,149,25,1,4,425,145,83,116,139,54,21,-178,-1,24,313,114,179,179,1.4723874874784162,103.07764064044152,70.00714249274857,49.0,0.0,0.0,0.0,0.0,0.0,51.0,50,0.0,0,0,0,0,0,24,0,0,0,0,0,0,24,25,24,25,0,0,0,24,25,0,0,25,Neutral,Neutral,100.0,0.0,0.0,-3,5,3,13,19,-4,-9,0.0,30,40.0,40.25858975696685,0.0,0.0,79.67034698934616,64.76924289254231,39.03847002477962,47.61178569763948,51.14828204860663,9.522357139527896,41.31564312821078,51.30866406719533,15.433812831129405,95.1,51.0,25.941767854645924,26.94828204860663
0,Test,ID1,BV01,9,0,1800,0,1800,Undified,Nan,faces\6708779943835235950.png,,,,,28,33.015148038438355,9.027692569068707,33.24154027718932,10.04987562112089,27,30,341,146,117,15,341,151,100,0,49,424,146,76,111,145,88,22,-179,-1,22,313,114,179,179,1.4594228958384388,105.1189802081432,72.02777242147644,78.0,0.0,0.0,0.0,0.0,0.0,22.0,50,0.0,0,0,0,0,0,39,0,0,0,0,0,0,39,25,39,25,0,0,0,39,25,0,0,25,Anger,Neutral,100.0,11.363636363636363,88.63636363636364,-45,74,33,-60,94,-46,65,78.0,30,20.0,50.00624703467075,0.0,0.0,76.13003866968737,62.291027068781155,76.13003866968737,53.69168104490387,72.39875059306586,27.586336208980775,68.0911464462478,26.296250947492144,17.15254535597518,92.2,22.0,21.953752156735586,66.65784150215676
0,Test,ID1,BV01,10,0,2000,0,2000,Undified,Nan,faces\-5469307370046357661.png,,,,,29,33.015148038438355,9.0,32.14031735997639,10.0,27,31,340,147,117,14,340,151,100,0,37,424,147,88,119,135,94,23,-178,-1,21,313,114,179,179,1.4581140953149487,102.07840124139878,70.00714249274857,80.0,0.0,0.0,0.0,0.0,0.0,20.0,50,0.0,0,0,0,0,0,40,0,0,0,0,0,0,40,25,40,25,0,0,0,40,25,0,0,25,Anger,Neutral,100.0,11.11111111111111,88.88888888888889,-47,81,30,-59,98,-45,64,80.0,30,0.0,55.03961080030571,0.0,0.0,72.74705090242836,59.92293563169984,72.74705090242836,56.504608249723944,72.99207783993886,28.90092164994479,66.40850134831726,28.023659746318586,18.928518037062847,92.0,20.0,22.72569123745859,66.21430006216107
0,Test,ID1,BV01,11,0,2200,0,2200,Undified,Nan,faces\-3086304179593109560.png,,,,,26,33.0,8.5,33.13608305156178,9.552630379629154,25,28,339,146,117,15,339,151,100,0,28,422,146,78,114,145,89,23,-178,-1,21,313,114,179,179,1.4440348131533032,101.1236866416568,70.02856560004639,80.0,0.0,0.0,0.0,0.0,0.0,20.0,50,0.0,0,0,0,0,0,40,0,0,0,0,0,0,40,25,40,25,0,0,0,40,25,0,0,25,Anger,Neutral,100.0,11.11111111111111,88.88888888888889,-40,82,35,-57,92,-43,65,80.0,30,0.0,55.03961080030571,0.0,0.0,72.74705090242836,59.92293563169984,72.74705090242836,56.504608249723944,72.99207783993886,29.540921649944792,66.40850134831726,28.223659746318585,19.748518037062848,92.0,20.0,23.425691237458594,66.21430006216107
0,Test,ID1,BV01,12,0,2400,0,2400,Undified,Nan,faces\7893968484431855115.png,,,,,27,32.0,8.5,32.14031735997639,9.552630379629154,26,29,339,147,115,15,339,152,100,0,26,421,147,88,122,138,94,24,-178,-3,25,281,90,215,215,1.5037337977251428,105.30432089900205,70.02856560004639,0.0,0.0,0.0,0.0,35.0,0.0,65.0,50,0.0,0,0,0,18,18,0,0,0,0,0,18,0,18,25,0,25,0,0,0,0,42,0,0,25,Neutral,Neutral,80.0,0.0,0.0,-6,9,3,18,14,-5,-9,0.0,30,0.0,35.510423303684185,0.0,0.0,69.51439283988788,57.66007498792151,24.33003749396076,42.155318808955386,12.897915339263164,8.431063761791078,21.75089522345737,66.31481570212964,15.17031127245181,100.0,100.0,34.5732978213433,27.897915339263164
0,Test,ID1,BV01,13,0,2600,0,2600,Undified,Nan,faces\-9141306464401114281.png,,,,,14,33.0,4.561552812808832,33.06055050963308,5.0,13,15,337,153,117,10,337,157,37,10,27,420,153,90,72,80,63,26,-178,-1,20,313,114,179,179,1.436811790639568,99.18165152889924,69.02897942168927,7.0,0.0,0.0,0.0,4.0,0.0,89.0,50,0.0,0,0,0,2,2,4,0,0,0,0,2,0,6,25,4,25,0,0,0,4,27,0,0,25,Neutral,Neutral,80.0,0.0,0.0,-1,12,-1,21,13,-6,-9,0.0,30,0.0,60.11875347222429,0.0,0.0,63.47364189402819,53.43154932581973,4.443154932581973,58.112592228302915,13.576249305555143,11.622518445660583,11.016610004586628,76.397971219161,19.76794517899183,99.3,93.0,35.21688883424544,22.976249305555143
0,Test,ID1,BV01,14,0,2800,0,2800,Undified,Nan,faces\-8994037352032225442.png,,,,,23,32.0,7.535533905932738,32.14031735997639,7.566662780082012,23,23,337,148,115,13,337,152,100,0,9,419,148,95,108,113,97,23,-179,-2,24,281,90,215,215,1.4960398515063875,103.23759005323593,69.00724599634447,0.0,0.0,0.0,12.0,16.0,0.0,72.0,50,0.0,6,0,0,8,8,0,0,0,6,0,8,0,8,25,6,25,6,0,0,0,33,6,0,25,Neutral,Neutral,80.0,0.0,0.0,0,6,0,22,18,-4,-8,0.0,30,20.0,40.25858975696685,0.0,0.0,72.74705090242836,59.92293563169984,11.639528144388537,46.15789351938675,11.94828204860663,9.23157870387735,14.486225093995685,72.62680927674212,17.2021543075209,100.0,100.0,35.52368402790801,26.94828204860663
0,Test,ID1,BV01,15,0,3000,0,3000,Undified,Nan,faces\-3365345343967079672.png,,,,,23,31.0,7.035533905932738,31.144823004794873,8.031128874149275,22,25,338,148,114,13,338,152,100,0,10,420,148,85,98,115,92,23,-178,-2,28,281,90,215,215,1.5632567371668602,106.30145812734648,68.0,0.0,0.0,0.0,0.0,35.0,0.0,65.0,50,0.0,0,0,0,18,18,0,0,0,0,0,18,0,18,25,0,25,0,0,0,0,42,0,0,25,Neutral,Neutral,80.0,0.0,0.0,1,11,-1,20,19,-6,-10,0.0,30,20.0,23.317431025494297,0.0,0.0,72.74705090242836,59.92293563169984,25.461467815849925,34.299082407355954,15.33651379490114,6.859816481471191,23.104761437187804,64.34609909098536,12.609380510937525,100.0,100.0,33.04486236110339,30.33651379490114
0,Test,ID1,BV01,16,0,3200,0,3200,Undified,Nan,faces\-259713714385443244.png,,,,,23,31.01612483854165,7.0,32.14031735997639,8.06225774829855,22,25,338,148,114,13,338,153,100,0,8,419,148,87,101,115,93,24,-179,-2,28,281,90,215,215,1.5844455516089415,106.16967551989596,67.00746227100382,0.0,0.0,0.0,0.0,33.0,0.0,67.0,50,0.0,0,0,0,16,16,0,0,0,0,0,16,0,16,25,0,25,0,0,0,0,42,0,0,25,Neutral,Neutral,100.0,0.0,0.0,0,3,0,11,21,-5,-8,0.0,30,16.0,23.317431025494297,0.0,0.0,69.51439283988788,57.66007498792151,22.939749637163,33.62022421422246,15.33651379490114,6.724044842844492,21.717816438909992,65.48776927029425,12.953832980585041,100.0,100.0,33.29303363213337,30.33651379490114
0,Test,ID1,BV01,17,0,3400,0,3400,Undified,Nan,faces\3526005499418095811.png,,,,,27,32.0,8.5,32.14031735997639,9.055385138137416,26,28,337,147,115,14,337,151,100,0,10,419,147,88,112,126,94,22,-178,-2,27,281,90,215,215,1.5475452154207403,105.23307464861037,68.0,0.0,0.0,0.0,0.0,35.0,0.0,65.0,50,0.0,0,0,0,18,18,0,0,0,0,0,18,0,18,25,0,25,0,0,0,0,42,0,0,25,Neutral,Neutral,100.0,0.0,0.0,-2,7,8,14,16,-7,-9,0.0,30,32.0,26.99821688321372,0.0,0.0,76.13003866968737,62.291027068781155,26.64551353439058,37.58605993888395,14.600356623357257,7.51721198777679,23.535139430921998,64.2304944491508,13.019564429636066,100.0,100.0,33.1879089908326,29.600356623357257
0,Test,ID1,BV01,18,0,3600,0,3600,Undified,Nan,faces\8470334377482977110.png,,,,,27,31.0,8.5,31.144823004794873,9.027692569068707,27,28,338,147,114,15,338,152,100,0,9,420,147,78,100,128,89,26,-179,-3,28,281,90,215,215,1.5468762959101632,105.23307464861037,68.0294054067798,0.0,0.0,0.0,0.0,33.0,0.0,67.0,50,0.0,0,0,0,16,16,0,0,0,0,0,16,0,16,25,0,25,0,0,0,0,42,0,0,25,Neutral,Neutral,100.0,0.0,0.0,-3,5,8,11,15,-4,-8,0.0,30,0.0,23.317431025494297,0.0,0.0,63.47364189402819,53.43154932581973,20.946301825029305,32.35166651559193,15.33651379490114,6.4703333031183865,20.62142014223646,66.33803053777002,13.121719682674986,100.0,100.0,33.45274997733879,30.33651379490114
0,Test,ID1,BV01,19,0,3800,0,3800,Undified,Nan,faces\6178593664413298180.png,,,,,25,32.0,8.0,32.14031735997639,8.035533905932738,25,25,338,147,115,14,338,152,100,0,14,420,147,93,111,119,96,22,-178,-2,26,281,90,215,215,1.4882135607566718,101.24228365658294,68.0294054067798,0.0,0.0,0.0,78.0,0.0,0.0,22.0,50,0.0,39,0,0,0,0,0,0,0,39,0,0,0,0,25,39,25,39,0,0,0,25,39,0,25,Joy,Neutral,100.0,100.0,0.0,97,24,83,98,25,79,4,78.0,30,32.0,31.232035321925014,0.0,0.0,76.13003866968737,62.291027068781155,0.0,40.54973284598185,13.753592935614998,63.95794656919638,8.626077880684498,85.0541109800506,69.74284430950053,100.0,100.0,79.33245992689729,48.253592935614996
0,Test,ID1,BV01,20,0,4000,0,4000,Undified,Nan,faces\3093915342034051071.png,,,,,27,32.0,8.031128874149275,31.144823004794873,9.055385138137416,25,29,337,147,115,14,337,152,100,0,16,420,147,78,100,127,89,24,-179,-2,25,281,90,215,215,1.494656449276593,103.17460927960909,69.02897942168927,0.0,0.0,0.0,0.0,34.0,0.0,66.0,50,0.0,0,0,0,17,17,0,0,0,0,0,17,0,17,25,0,25,0,0,0,0,42,0,0,25,Neutral,Neutral,80.0,0.0,0.0,-8,5,7,23,9,-4,-7,0.0,30,16.0,35.510423303684185,0.0,0.0,69.51439283988788,57.66007498792151,23.634893565561878,42.155318808955386,12.897915339263164,8.431063761791078,21.368566062837985,66.72067903062515,15.610897605301362,100.0,100.0,34.92329782134331,27.897915339263164
0,Test,ID1,BV01,21,0,4200,0,4200,Undified,Nan,faces\2802036924210999347.png,,,,,24,31.01612483854165,7.0,31.256999216175572,8.558821443217981,22,27,338,147,114,14,338,153,100,0,22,420,147,78,97,124,89,23,-179,-2,28,281,90,215,215,1.546469387853367,105.17128885774862,68.00735254367721,0.0,0.0,0.0,0.0,35.0,0.0,65.0,50,0.0,0,0,0,18,18,0,0,0,0,0,18,0,18,25,0,25,0,0,0,0,42,0,0,25,Neutral,Neutral,80.0,0.0,0.0,0,7,4,16,15,-4,-8,0.0,30,24.0,23.317431025494297,0.0,0.0,72.74705090242836,59.92293563169984,25.461467815849925,34.299082407355954,15.33651379490114,6.859816481471191,23.104761437187804,64.54609909098535,13.429380510937523,100.0,100.0,33.744862361103394,30.33651379490114
0,Test,ID1,BV01,22,0,4400,0,4400,Undified,Nan,faces\-7936109024778690272.png,,,,,27,32.0,8.527692569068709,32.14031735997639,9.055385138137416,26,28,337,147,115,15,337,152,100,0,23,419,147,82,106,128,91,22,179,-2,28,281,90,215,215,1.5620499351813308,106.23088063270492,68.00735254367721,0.0,0.0,0.0,0.0,35.0,0.0,65.0,50,0.0,0,0,0,18,18,0,0,0,0,0,18,0,18,25,0,25,0,0,0,0,42,0,0,25,Neutral,Neutral,80.0,0.0,0.0,-2,11,4,21,11,-7,-9,0.0,30,32.0,23.171167607341157,0.0,0.0,76.13003866968737,62.291027068781155,26.64551353439058,34.907125445773154,15.365766478531768,6.981425089154631,23.76476238747435,63.77890263459784,12.304671624903072,100.0,100.0,32.78606881686598,30.365766478531768
0,Test,ID1,BV01,23,0,4600,0,4600,Undified,Nan,faces\3723664765802299119.png,,,,,25,32.0,8.0,32.14031735997639,8.527692569068709,25,26,337,147,114,14,337,152,100,0,12,418,147,83,103,124,91,24,-179,-2,27,281,90,215,215,1.5468762959101632,105.23307464861037,68.0294054067798,0.0,0.0,0.0,0.0,35.0,0.0,65.0,50,0.0,0,0,0,18,18,0,0,0,0,0,18,0,18,25,0,25,0,0,0,0,42,0,0,25,Neutral,Neutral,80.0,0.0,0.0,-7,7,8,23,15,-5,-7,0.0,30,16.0,26.99821688321372,0.0,0.0,69.51439283988788,57.66007498792151,24.33003749396076,36.196774314626055,14.600356623357257,7.239354862925211,22.261627608685597,65.31037534451413,13.580231113107928,100.0,100.0,33.67951614719391,29.600356623357257
0,Test,ID1,BV01,24,0,4800,0,4800,Undified,Nan,faces\-2145069798706525282.png,,,,,28,32.0,9.0,32.14031735997639,9.626712082661491,28,29,336,146,115,15,336,151,100,0,15,418,146,84,116,138,92,24,179,-2,27,281,90,215,215,1.5762114464018988,107.22872749408155,68.0294054067798,0.0,0.0,0.0,0.0,35.0,0.0,65.0,50,0.0,0,0,0,18,18,0,0,0,0,0,18,0,18,25,0,25,0,0,0,0,42,0,0,25,Neutral,Neutral,80.0,0.0,0.0,-6,8,1,18,14,-5,-9,0.0,30,16.0,26.721429797598255,0.0,0.0,69.51439283988788,57.66007498792151,24.33003749396076,36.00302335469523,14.655714040480348,7.200604670939047,22.278234833822523,65.2777144684115,13.528527285514958,100.0,100.0,33.65045350320428,29.655714040480348
0,Test,ID1,BV01,25,0,5000,0,5000,Undified,Nan,faces\5096212621278340212.png,,,,,26,32.0,8.0,31.256999216175572,8.558821443217981,25,27,337,147,114,15,337,152,100,0,15,419,147,83,102,122,91,24,179,-2,28,281,90,215,215,1.5327064915335844,104.23531071570707,68.00735254367721,0.0,0.0,0.0,0.0,35.0,0.0,65.0,50,0.0,0,0,0,18,18,0,0,0,0,0,18,0,18,25,0,25,0,0,0,0,42,0,0,25,Neutral,Neutral,80.0,0.0,0.0,0,10,5,15,9,-6,-6,0.0,30,16.0,23.171167607341157,0.0,0.0,69.51439283988788,57.66007498792151,24.33003749396076,33.51783982151527,15.365766478531768,6.703567964303054,22.491250565237948,64.75878352996118,12.455338308374934,100.0,100.0,32.92767597322729,30.365766478531768
0,Test,ID1,BV01,26,0,5200,0,5200,Undified,Nan,faces\-4665532265747613956.png,,,,,25,31.0,8.0,32.14031735997639,8.558821443217981,25,26,337,147,114,15,337,152,100,0,9,418,147,87,109,125,93,24,179,-2,29,281,90,215,215,1.5622188328338955,106.23088063270492,68.0,0.0,0.0,0.0,0.0,35.0,0.0,65.0,50,0.0,0,0,0,18,18,0,0,0,0,0,18,0,18,25,0,25,0,0,0,0,42,0,0,25,Neutral,Neutral,80.0,0.0,0.0,-5,12,7,16,21,-7,-6,0.0,30,16.0,19.944019248579075,0.0,0.0,69.51439283988788,57.66007498792151,24.33003749396076,31.258835970381806,16.011196150284185,6.251767194076361,22.684879466763675,64.27798002362724,11.442506994958176,100.0,100.0,32.23882539555727,31.011196150284185
0,Test,ID1,BV01,27,0,5400,0,5400,Undified,Nan,faces\5495357746840695412.png,,,,,26,30.0,8.0,31.144823004794873,8.558821443217981,26,27,338,147,113,14,338,151,100,0,24,419,147,82,101,123,91,22,179,-2,28,281,90,215,215,1.5758309691217658,107.16809226630843,68.00735254367721,0.0,0.0,0.0,0.0,35.0,0.0,65.0,50,0.0,0,0,0,18,18,0,0,0,0,0,18,0,18,25,0,25,0,0,0,0,42,0,0,25,Neutral,Neutral,80.0,0.0,0.0,-8,7,6,15,10,-5,-8,0.0,30,32.0,23.171167607341157,0.0,0.0,76.13003866968737,62.291027068781155,26.64551353439058,34.907125445773154,15.365766478531768,6.981425089154631,23.76476238747435,63.978902634597844,13.124671624903073,100.0,100.0,33.48606881686597,30.365766478531768
0,Test,ID1,BV01,28,0,5600,0,5600,Undified,Nan,faces\-7793890294478768421.png,,,,,27,31.01612483854165,8.0,31.144823004794873,9.552630379629154,25,30,338,146,113,14,338,151,100,0,20,419,146,80,111,138,90,23,179,-2,28,281,90,215,215,1.53178927348979,104.17293314484336,68.00735254367721,0.0,0.0,0.0,0.0,35.0,0.0,65.0,50,0.0,0,0,0,18,18,0,0,0,0,0,18,0,18,25,0,25,0,0,0,0,42,0,0,25,Neutral,Neutral,80.0,0.0,0.0,-4,4,2,13,15,-7,-9,0.0,30,24.0,23.171167607341157,0.0,0.0,72.74705090242836,59.92293563169984,25.461467815849925,34.19669801464876,15.365766478531768,6.839339602929752,23.11353724227699,64.22884000764329,12.172058504426518,100.0,100.0,32.67950470219731,30.365766478531768
0,Test,ID1,BV01,29,0,5800,0,5800,Undified,Nan,faces\-2378113682499826407.png,,,,,29,32.01562118716424,9.0,31.144823004794873,9.552630379629154,28,30,336,146,114,16,336,151,100,0,20,418,146,78,109,138,89,25,179,-2,26,281,90,215,215,1.5019434255613169,102.17631819555841,68.0294054067798,0.0,0.0,0.0,0.0,34.0,0.0,66.0,50,0.0,0,0,0,17,17,0,0,0,0,0,17,0,17,25,0,25,0,0,0,0,42,0,0,25,Neutral,Neutral,80.0,0.0,0.0,-8,4,1,15,20,-7,-7,0.0,30,8.0,30.722086964166444,0.0,0.0,66.42538428642953,55.49776900050067,22.584630657386043,38.15479157506671,13.855582607166713,7.630958315013342,21.07822164371234,66.2529018425368,13.363988078020357,100.0,100.0,33.273218736260006,28.855582607166713
0,Test,ID1,BV01,30,0,6000,0,6000,Undified,Nan,faces\7766296372419156626.png,,,,,27,32.0,8.531128874149275,32.14031735997639,9.527692569068707,26,29,336,146,115,15,336,151,100,0,15,418,146,86,114,132,93,23,179,-2,27,281,90,215,215,1.5699435984430954,105.23307464861037,67.02984409947557,0.0,0.0,0.0,0.0,34.0,0.0,66.0,50,0.0,0,0,0,17,17,0,0,0,0,0,17,0,17,25,0,25,0,0,0,0,42,0,0,25,Neutral,Neutral,80.0,0.0,0.0,-1,6,0,11,13,-5,-8,0.0,30,24.0,26.721429797598255,0.0,0.0,72.74705090242836,59.92293563169984,24.73399730682564,36.68188154782872,14.655714040480348,7.336376309565745,22.500412730898205,65.1678579700643,13.687256183963612,100.0,100.0,33.75228223217431,29.655714040480348
0,Test,ID1,BV01,31,0,6200,0,6200,Undified,Nan,faces\-4170073505156897384.png,,,,,31,31.0,9.0,31.144823004794873,10.547618319154077,29,33,337,145,113,16,337,151,100,0,13,418,145,80,118,146,90,22,179,-2,29,281,90,215,215,1.5392339138741384,103.17460927960909,67.02984409947557,0.0,0.0,0.0,0.0,34.0,0.0,66.0,50,0.0,0,0,0,17,17,0,0,0,0,0,17,0,17,25,0,25,0,0,0,0,42,0,0,25,Neutral,Neutral,80.0,0.0,0.0,-8,2,0,18,21,-5,-10,0.0,30,32.0,19.944019248579075,0.0,0.0,76.13003866968737,62.291027068781155,25.884213147693703,32.6481215946397,16.011196150284185,6.52962431892794,23.539676076316795,63.93307129841054,12.555337528500978,100.0,100.0,33.14721823919595,31.011196150284185
0,Test,ID1,BV01,32,0,6400,0,6400,Undified,Nan,faces\-8956255077363726888.png,,,,,25,32.0,7.5,30.265491900843116,8.527692569068709,23,28,336,147,114,15,336,153,100,0,13,419,147,83,99,118,91,24,-179,-2,27,281,90,215,215,1.4886961463697743,101.24228365658294,68.00735254367721,0.0,0.0,0.0,0.0,29.0,0.0,71.0,50,0.0,0,0,0,14,14,0,0,0,0,0,14,0,14,25,0,25,0,0,0,0,40,0,0,25,Neutral,Neutral,80.0,0.0,0.0,-3,3,0,17,18,-7,-8,0.0,30,16.0,26.99821688321372,0.0,0.0,69.51439283988788,57.66007498792151,20.159173923567483,36.196774314626055,14.600356623357257,7.239354862925211,19.967652644969295,66.94555531548717,12.94374911020523,100.0,100.0,32.979516147193905,29.600356623357257
0,Test,ID1,BV01,33,0,6600,0,6600,Undified,Nan,faces\-4548593400372255971.png,,,,,26,32.01562118716424,8.0,32.2490309931942,9.055385138137416,24,28,336,146,115,15,336,152,100,0,16,418,146,84,116,138,92,25,-179,-2,27,281,90,215,215,1.502878252670823,102.23991392797629,68.0294054067798,0.0,0.0,0.0,0.0,35.0,0.0,65.0,50,0.0,0,0,0,18,18,0,0,0,0,0,18,0,18,25,0,25,0,0,0,0,42,0,0,25,Neutral,Neutral,80.0,0.0,0.0,-2,3,7,11,17,-6,-7,0.0,30,8.0,26.99821688321372,0.0,0.0,66.42538428642953,55.49776900050067,23.248884500250337,35.548082518399795,14.600356623357257,7.109616503679959,21.666993462144863,65.62121348212409,13.049141977812358,100.0,100.0,33.23221237775997,29.600356623357257
0,Test,ID1,BV01,34,0,6800,0,6800,Undified,Nan,faces\992267307608398423.png,,,,,25,32.0,8.0,32.2490309931942,8.558821443217981,25,26,336,147,115,14,336,152,100,0,23,418,147,86,109,126,93,25,-179,-2,25,281,90,215,215,1.4945557406082248,100.17983829094557,67.02984409947557,0.0,0.0,0.0,0.0,34.0,0.0,66.0,50,0.0,0,0,0,17,17,0,0,0,0,0,17,0,17,25,0,25,0,0,0,0,42,0,0,25,Neutral,Neutral,80.0,0.0,0.0,-3,9,3,20,16,-6,-9,0.0,30,8.0,35.510423303684185,0.0,0.0,66.42538428642953,55.49776900050067,22.584630657386043,41.506627012729126,12.897915339263164,8.301325402545826,20.790921463341277,66.9179255305999,14.668449306242271,100.0,100.0,34.125994051909366,27.897915339263164
0,Test,ID1,BV01,35,0,7000,0,7000,Undified,Nan,faces\4691043874548301190.png,,,,,28,31.01612483854165,8.5,31.256999216175572,9.552630379629154,27,30,337,146,113,16,337,152,100,0,15,418,146,76,105,137,88,23,179,-2,29,281,90,215,215,1.5312927185228855,104.17293314484336,68.0294054067798,0.0,0.0,0.0,0.0,34.0,0.0,66.0,50,0.0,0,0,0,17,17,0,0,0,0,0,17,0,17,25,0,25,0,0,0,0,42,0,0,25,Neutral,Neutral,100.0,0.0,0.0,0,12,5,11,19,-5,-8,0.0,30,24.0,19.944019248579075,0.0,0.0,72.74705090242836,59.92293563169984,24.73399730682564,31.937694163515303,16.011196150284185,6.387538832703061,22.907057363839357,64.36812352528005,12.42123589340683,100.0,100.0,33.04065412452729,31.011196150284185
0,Test,ID1,BV01,36,0,7200,0,7200,Undified,Nan,faces\-1206777494906463535.png,,,,,19,33.0,6.5,34.132096331752024,7.072510139298384,19,20,335,146,113,13,335,151,92,36,39,413,146,98,113,115,95,26,-179,-2,26,281,90,215,215,1.5701330896058283,105.30432089900205,67.06713054842886,0.0,0.0,0.0,0.0,30.0,0.0,70.0,50,0.0,0,0,0,15,15,0,0,0,0,0,15,0,15,25,0,25,0,0,0,0,40,0,0,25,Neutral,Neutral,100.0,0.0,0.0,-5,12,4,20,12,-6,-7,0.0,30,0.0,31.232035321925014,0.0,0.0,63.47364189402819,53.43154932581973,19.042092568208457,37.891889523093425,13.753592935614998,7.578377904618685,19.099228793199153,67.90980591775002,13.863952972548358,100.0,100.0,33.58378342846402,28.753592935614996
0,Test,ID1,BV01,37,0,7400,0,7400,Undified,Nan,faces\-1151190417631049061.png,,,,,28,29.154759474226502,8.031128874149275,29.27456233660889,8.640901102795718,27,29,324,106,106,19,324,115,100,0,5,400,106,91,107,117,95,29,178,-5,32,293,54,180,180,1.7789440762326962,110.65260954898443,62.201286160335954,0.0,0.0,0.0,0.0,0.0,0.0,100.0,50,0.0,0,0,0,0,0,0,0,0,0,0,0,0,0,25,0,25,0,0,0,0,25,0,0,25,Neutral,Neutral,100.0,0.0,0.0,-9,4,8,14,18,-5,-9,0.0,30,0.0,12.650594866946923,0.0,0.0,55.38235798307587,47.76765058815311,0.0,23.18571158330878,17.46988102661062,4.637142316661756,9.740964307983186,74.02579971194433,11.199007867021628,100.0,100.0,31.727856737496317,32.46988102661062
0,Test,ID1,BV01,38,0,7600,0,7600,Undified,Nan,faces\3973905537136810899.png,,,,,25,29.614185789921688,7.175588850572996,29.27456233660889,7.6586395315503975,24,26,318,95,106,23,318,108,100,0,0,394,95,84,90,106,92,24,176,-9,33,257,42,215,215,1.918930169034448,120.22063050907694,62.64982043070834,0.0,0.0,0.0,94.0,0.0,0.0,6.0,50,0.0,47,0,0,0,0,0,0,0,47,0,0,0,0,25,47,25,47,0,0,0,25,47,0,25,Joy,Neutral,100.0,100.0,0.0,97,18,83,87,20,79,7,94.0,30,25.0,10.561325333142323,0.0,0.0,69.51439283988788,57.66007498792151,0.0,24.69095022957608,17.887734933371537,72.24219004591522,9.86632048001146,82.47603863894844,69.52034142128886,100.0,100.0,80.15364253443641,56.38773493337153
0,Test,ID1,BV01,39,0,7800,0,7800,Undified,Nan,faces\6726470000955184852.png,,,,,24,31.780497164141412,7.175588850572996,31.256999216175572,8.154234499766936,22,26,314,92,113,25,314,107,100,0,0,395,92,85,105,123,92,29,170,-9,24,273,54,180,180,1.8719298798443893,127.09838708654017,67.89698078707183,0.0,0.0,26.0,0.0,3.0,4.0,67.0,50,0.0,0,13,28,4,2,0,0,0,13,2,14,2,2,25,0,25,2,0,13,2,26,0,0,38,Neutral,Neutral,100.0,0.0,0.0,-7,12,1,11,20,-5,-7,0.0,30,0.0,38.92456835017414,0.0,0.0,55.38235798307587,47.76765058815311,14.399413075599725,41.57749302156783,12.215086329965173,8.315498604313566,16.0842030905694,70.79038682970126,15.473411938362084,89.6,100.0,31.886623953235173,27.215086329965175
0,Test,ID1,BV01,40,0,8000,0,8000,Undified,Nan,faces\-4140241629046721258.png,,,,,24,31.57530680769389,8.06225774829855,31.256999216175572,7.6586395315503975,25,24,320,93,114,24,320,105,100,0,0,402,93,90,101,112,95,25,174,-9,32,281,42,215,215,1.952006718384907,134.16407864998735,68.73136110975832,0.0,0.0,0.0,0.0,0.0,0.0,100.0,50,0.0,0,0,0,0,0,0,0,0,0,0,0,0,0,25,0,25,0,0,0,0,25,0,0,25,Neutral,Neutral,100.0,0.0,0.0,-4,5,0,18,20,-6,-6,0.0,30,20.0,12.650594866946923,0.0,0.0,66.42538428642953,55.49776900050067,0.0,25.504747107013046,17.46988102661062,5.10094942140261,9.740964307983186,74.15770326431476,11.391957103184737,100.0,100.0,31.725712066051955,32.46988102661062
0,Test,ID1,BV01,41,0,8200,0,8200,Undified,Nan,faces\5962570213869964445.png,,,,,24,32.38826948140329,8.154234499766936,33.376638536557266,8.154234499766936,25,24,313,88,120,24,313,101,100,0,0,399,88,86,117,135,93,27,177,-8,33,281,42,215,215,1.8040691256131445,131.40015220691336,72.83543093852056,0.0,0.0,0.0,0.0,33.0,0.0,67.0,50,0.0,0,0,0,16,16,0,0,0,0,0,16,0,16,25,0,25,0,0,0,0,42,0,0,25,Neutral,Neutral,100.0,0.0,0.0,-1,9,7,20,12,-7,-7,0.0,30,10.0,10.561325333142323,0.0,0.0,60.653065971263345,51.45714617988434,20.015511770516905,22.830071587164927,17.887734933371537,4.566014317432986,20.87485195379576,64.88312559567989,9.39583045635922,100.0,100.0,30.974510738074738,32.88773493337153
0,Test,ID1,BV01,42,0,8400,0,8400,Undified,Nan,faces\7316742431364442454.png,,,,,22,35.510561809129406,7.6586395315503975,36.496575181789325,8.65079819468637,21,23,293,29,132,26,293,44,100,0,0,388,29,84,120,142,92,29,-177,-4,33,257,0,215,239,1.7299080974657597,144.83784035948617,83.72574275573791,78.0,0.0,0.0,0.0,0.0,0.0,22.0,50,0.0,0,0,0,0,0,39,0,0,0,0,0,0,39,25,39,25,0,0,0,39,25,0,0,25,Anger,Neutral,100.0,11.363636363636363,88.63636363636364,-43,75,27,-59,88,-44,65,78.0,30,0.0,9.895899712868937,0.0,0.0,55.38235798307587,47.76765058815311,55.38235798307587,21.25742497545419,80.42082005742623,21.72348499509084,59.08654290791959,30.456508171209748,10.26000706098452,92.2,22.0,17.78861374631813,74.67991096651713
0,Test,ID1,BV01,43,0,8600,0,8600,Undified,Nan,faces\-2225615164751802306.png,,,,,27,34.23448553724738,9.027692569068707,35.355339059327385,10.12395732415323,26,28,315,80,129,23,315,91,100,0,0,408,80,77,130,168,88,31,-176,-4,35,251,22,258,258,1.703174372789959,131.68523075880606,77.31752712031083,0.0,0.0,0.0,12.0,0.0,0.0,88.0,50,0.0,6,0,0,0,0,0,0,0,6,0,0,0,0,25,6,25,6,0,0,0,25,6,0,25,Neutral,Neutral,80.0,0.0,0.0,0,5,6,23,13,-7,-8,0.0,30,0.0,6.694887382634437,0.0,0.0,50.56967074374725,44.39876952062308,0.0,18.00605202403103,18.661022523473115,3.601210404806206,10.098306757041934,73.02195979676955,9.003708985684712,100.0,100.0,30.250907803604655,33.661022523473115
0,Test,ID1,BV01,44,0,8800,0,8800,Undified,Nan,faces\-2369749560426599738.png,,,,,27,33.06055050963308,9.524937810560443,34.132096331752024,9.527692569068707,28,27,339,97,120,19,339,104,100,0,0,424,97,84,119,141,92,25,-179,-3,29,305,42,215,215,1.569410583322872,114.7388338793802,73.10950690573695,0.0,0.0,0.0,0.0,0.0,0.0,100.0,50,0.0,0,0,0,0,0,0,0,0,0,0,0,0,0,25,0,25,0,0,0,0,25,0,0,25,Neutral,Neutral,80.0,0.0,0.0,1,2,8,18,8,-5,-8,0.0,30,24.0,19.98105445916019,0.0,0.0,66.42538428642953,55.49776900050067,0.0,30.636068821562333,16.00378910816796,6.127213764312467,9.301136732450388,75.12269749619593,13.171286955010176,100.0,100.0,32.84541032323435,31.00378910816796
0,Test,ID1,BV01,45,0,9000,0,9000,Undified,Nan,faces\-4142370855029887241.png,,,,,29,30.066592756745816,8.527692569068709,30.14962686336267,9.552630379629154,28,31,339,112,110,18,339,120,100,0,0,418,112,86,111,128,93,23,-179,-3,31,281,42,215,215,1.5729398731728723,105.57461816175324,67.11929677819934,0.0,0.0,0.0,0.0,30.0,0.0,70.0,50,0.0,0,0,0,15,15,0,0,0,0,0,15,0,15,25,0,25,0,0,0,0,40,0,0,25,Neutral,Neutral,80.0,0.0,0.0,-5,4,5,16,16,-5,-6,0.0,30,32.0,13.860229213387452,0.0,0.0,72.74705090242836,59.92293563169984,21.82411527072851,27.679041138881168,17.22795415732251,5.535808227776234,21.671649646097432,64.93058439701018,11.41281872442131,100.0,100.0,32.401856170832176,32.227954157322515
0,Test,ID1,BV01,46,0,9200,0,9200,Undified,Nan,faces\7412738052474506638.png,,,,,27,29.068883707497267,7.5,29.068883707497267,8.558821443217981,25,29,336,121,107,15,336,127,100,0,0,413,121,89,105,117,94,25,-179,-3,29,281,42,215,215,1.553702296351548,102.59142264341595,66.03029607687671,0.0,0.0,0.0,0.0,34.0,0.0,66.0,50,0.0,0,0,0,17,17,0,0,0,0,0,17,0,17,25,0,25,0,0,0,0,42,0,0,25,Neutral,Neutral,80.0,0.0,0.0,-8,8,0,19,12,-5,-6,0.0,30,24.0,19.98105445916019,0.0,0.0,66.42538428642953,55.49776900050067,22.584630657386043,30.636068821562333,16.00378910816796,6.127213764312467,21.722683594012715,65.18546000694606,12.177563206085189,100.0,100.0,32.84541032323435,31.00378910816796
0,Test,ID1,BV01,47,0,9400,0,9400,Undified,Nan,faces\-3534057506590751535.png,,,,,30,28.0178514522438,8.5,28.16025568065745,8.558821443217981,30,30,340,126,103,14,340,130,100,0,0,414,126,88,99,112,94,24,-179,-2,29,281,42,215,215,1.5260140406473022,96.18731725128842,63.0317380372777,0.0,0.0,0.0,0.0,35.0,0.0,65.0,50,0.0,0,0,0,18,18,0,0,0,0,0,18,0,18,25,0,25,0,0,0,0,42,0,0,25,Neutral,Neutral,80.0,0.0,0.0,-2,3,8,18,10,-4,-9,0.0,30,28.0,19.98105445916019,0.0,0.0,69.51439283988788,57.66007498792151,24.33003749396076,31.284760617788585,16.00378910816796,6.256952123557717,22.682657354128807,64.5823501784758,12.679425172294728,100.0,100.0,33.29271409266829,31.00378910816796
0,Test,ID1,BV01,48,0,9600,0,9600,Undified,Nan,faces\6537906330826490295.png,,,,,28,29.017236257093817,8.0,28.16025568065745,8.558821443217981,27,30,341,125,105,15,341,130,100,0,0,417,125,96,109,113,98,22,178,-2,29,281,42,215,215,1.5499803303236608,99.24716620639605,64.03124237432849,0.0,0.0,0.0,8.0,21.0,0.0,72.0,50,0.0,4,0,0,10,10,0,0,0,4,0,10,0,10,25,4,25,4,0,0,0,36,4,0,25,Neutral,Neutral,80.0,0.0,0.0,-2,3,8,23,16,-7,-7,0.0,30,36.0,19.944019248579075,0.0,0.0,76.13003866968737,62.291027068781155,15.987308120634347,32.6481215946397,16.011196150284185,6.52962431892794,18.096378311434147,68.08770951031666,12.17080134969159,100.0,100.0,32.447218239195955,31.011196150284185
0,Test,ID1,BV01,49,0,9800,0,9800,Undified,Nan,faces\-2623158703902954938.png,,,,,24,29.017236257093817,6.5,29.068883707497267,8.063226475001446,22,27,338,121,108,14,338,127,100,0,0,416,121,92,105,114,96,25,179,-2,30,281,42,215,215,1.5942575398948535,105.23307464861037,66.007575322837,0.0,0.0,0.0,0.0,33.0,0.0,67.0,50,0.0,0,0,0,16,16,0,0,0,0,0,16,0,16,25,0,25,0,0,0,0,42,0,0,25,Neutral,Neutral,100.0,0.0,0.0,-1,11,5,14,20,-4,-8,0.0,30,24.0,16.872061886259104,0.0,0.0,66.42538428642953,55.49776900050067,21.920376814521745,28.45977402053157,16.62558762274818,5.691954804106314,21.543883534811414,65.21087057420402,12.036030562553295,100.0,100.0,32.868966103079735,31.62558762274818
0,Test,ID1,BV01,50,0,10000,0,10000,Undified,Nan,faces\2100987176527322748.png,,,,,20,31.0,6.0,29.017236257093817,6.576915171081848,19,22,339,126,111,12,339,130,100,0,0,420,126,87,81,93,93,27,178,-1,27,281,42,215,215,1.5695459176232591,105.17128885774862,67.00746227100382,0.0,0.0,0.0,0.0,34.0,0.0,66.0,50,0.0,0,0,0,17,17,0,0,0,0,0,17,0,17,25,0,25,0,0,0,0,42,0,0,25,Neutral,Neutral,100.0,0.0,0.0,-7,12,1,11,13,-6,-9,0.0,30,16.0,26.721429797598255,0.0,0.0,60.653065971263345,51.45714617988434,20.62204243022954,34.14214471228408,14.655714040480348,6.828428942456816,20.238837548770356,66.62314443221213,12.797850621292232,100.0,100.0,33.02132170684261,29.655714040480348
0,Test,ID1,BV01,51,0,10200,0,10200,Undified,Nan,faces\8118274518548037453.png,,,,,27,31.01612483854165,8.031128874149275,31.06444913401813,9.027692569068707,25,29,343,125,113,14,343,129,100,0,4,424,125,85,101,118,92,25,-179,0,29,305,66,215,215,1.5300832873911816,107.1167587261676,70.00714249274857,0.0,0.0,0.0,0.0,0.0,0.0,100.0,50,0.0,0,0,0,0,0,0,0,0,0,0,0,0,0,25,0,25,0,0,0,0,25,0,0,25,Neutral,Neutral,100.0,0.0,0.0,-2,11,5,13,13,-4,-8,0.0,30,24.0,19.98105445916019,0.0,0.0,66.42538428642953,55.49776900050067,0.0,30.636068821562333,16.00378910816796,6.127213764312467,9.301136732450388,75.22269749619592,13.581286955010176,100.0,100.0,33.195410323234356,31.00378910816796
0,Test,ID1,BV01,52,0,10400,0,10400,Undified,Nan,faces\-4088551800935109871.png,,,,,27,32.0,8.531128874149275,32.062439083762804,9.0,26,28,344,128,115,14,344,132,100,0,11,426,128,97,122,125,98,25,-179,-1,29,305,66,215,215,1.516709650284228,106.16967551989596,70.0,62.0,0.0,0.0,0.0,0.0,0.0,38.0,50,0.0,0,0,0,0,0,31,0,0,0,0,0,0,31,25,31,25,0,0,0,31,25,0,0,25,Anger,Neutral,100.0,13.88888888888889,86.11111111111111,-42,78,26,-56,95,-46,65,62.0,30,24.0,19.98105445916019,0.0,0.0,66.42538428642953,55.49776900050067,66.42538428642953,30.636068821562333,65.60378910816796,19.519213764312468,60.71509808998664,29.89152841016692,7.748170046407273,93.8,38.0,18.495410323234353,68.03156688594574
0,Test,ID1,BV01,53,0,10600,0,10600,Undified,Nan,faces\8626380075399428523.png,,,,,24,33.0,8.031128874149275,32.14031735997639,8.031128874149275,24,24,342,131,116,12,342,134,100,0,0,425,131,78,89,113,89,25,-178,-1,27,313,94,179,179,1.4661947365407813,101.17806086301516,69.00724599634447,79.0,0.0,0.0,0.0,0.0,0.0,21.0,50,0.0,0,0,0,0,0,40,0,0,0,0,0,0,40,25,40,25,0,0,0,40,25,0,0,25,Anger,Neutral,100.0,11.235955056179774,88.76404494382022,-43,81,29,-50,95,-44,64,79.0,30,24.0,26.99821688321372,0.0,0.0,66.42538428642953,55.49776900050067,66.42538428642953,35.548082518399795,77.80035662335726,24.80561650367996,64.37406834454343,27.655553576205236,13.802575987220472,92.1,21.0,19.93221237775997,71.54136785931232
0,Test,ID1,BV01,54,0,10800,0,10800,Undified,Nan,faces\-6821874196866798560.png,,,,,28,32.01562118716424,8.5,32.14031735997639,10.04987562112089,26,31,341,130,114,15,341,135,100,0,0,422,130,86,113,131,93,21,-178,-1,30,281,66,215,215,1.5095941250917582,104.17293314484336,69.00724599634447,0.0,0.0,0.0,0.0,35.0,0.0,65.0,50,0.0,0,0,0,18,18,0,0,0,0,0,18,0,18,25,0,25,0,0,0,0,42,0,0,25,Neutral,Neutral,80.0,0.0,0.0,-8,9,4,12,20,-6,-8,0.0,30,40.0,16.792825013001362,0.0,0.0,79.67034698934616,64.76924289254231,27.884621446271154,31.185750376863645,16.641434997399728,6.237150075372729,24.828972294669054,62.65539720195112,11.661977314411022,100.0,100.0,32.577862556529546,31.641434997399728
0,Test,ID1,BV01,55,0,11000,0,11000,Undified,Nan,faces\6002640272288435880.png,,,,,29,31.0,9.0,30.066592756745816,9.056066684709721,29,30,339,130,114,15,339,135,100,0,0,422,130,103,126,122,101,26,-179,-1,29,281,66,215,215,1.5676309893321692,108.16653826391969,69.0,0.0,0.0,0.0,0.0,35.0,0.0,65.0,50,0.0,0,0,0,18,18,0,0,0,0,0,18,0,18,25,0,25,0,0,0,0,42,0,0,25,Neutral,Neutral,80.0,0.0,0.0,-2,11,0,14,15,-4,-9,0.0,30,20.0,19.98105445916019,0.0,0.0,63.47364189402819,53.43154932581973,22.215774662909865,30.016202919158054,16.00378910816796,6.003240583831611,21.519812797050815,65.38577005427514,12.442627735217028,100.0,100.0,33.10243043787371,31.00378910816796
0,Test,ID1,BV01,56,0,11200,0,11200,Undified,Nan,faces\-257526703863510014.png,,,,,30,31.0,9.0,31.256999216175572,10.04987562112089,29,32,340,130,113,15,340,135,100,0,0,421,130,80,115,142,90,24,-179,-1,30,281,66,215,215,1.5171096274236815,103.17460927960909,68.00735254367721,0.0,0.0,0.0,0.0,35.0,0.0,65.0,50,0.0,0,0,0,18,18,0,0,0,0,0,18,0,18,25,0,25,0,0,0,0,42,0,0,25,Neutral,Neutral,80.0,0.0,0.0,-1,3,2,13,17,-6,-9,0.0,30,28.0,16.792825013001362,0.0,0.0,69.51439283988788,57.66007498792151,24.33003749396076,29.053000005477408,16.641434997399728,5.810600001095482,22.873951120898337,64.00613910382909,11.26386391175226,100.0,100.0,32.25795000082161,31.641434997399728
0,Test,ID1,BV01,57,0,11400,0,11400,Undified,Nan,faces\8587989094206546213.png,,,,,28,31.0,8.5,31.144823004794873,9.527692569068707,27,30,340,131,113,15,340,136,100,0,7,421,131,78,109,138,89,25,-178,-1,31,281,66,215,215,1.5328722164074566,104.23531071570707,68.0,0.0,0.0,0.0,0.0,35.0,0.0,65.0,50,0.0,0,0,0,18,18,0,0,0,0,0,18,0,18,25,0,25,0,0,0,0,42,0,0,25,Neutral,Neutral,80.0,0.0,0.0,0,3,4,14,11,-5,-8,0.0,30,24.0,13.860229213387452,0.0,0.0,66.42538428642953,55.49776900050067,23.248884500250337,26.351491149521415,17.22795415732251,5.2702982299042835,22.45527272233444,64.17093093708459,11.004965881088813,100.0,100.0,32.20272367242821,32.227954157322515
0,Test,ID1,BV01,58,0,11600,0,11600,Undified,Nan,faces\-592045291330630512.png,,,,,29,30.0,8.5,31.144823004794873,9.552630379629154,28,30,339,131,113,15,339,136,100,0,8,420,131,77,103,133,88,25,179,-2,31,281,66,215,215,1.546469387853367,105.17128885774862,68.00735254367721,0.0,0.0,0.0,0.0,35.0,0.0,65.0,50,0.0,0,0,0,18,18,0,0,0,0,0,18,0,18,25,0,25,0,0,0,0,42,0,0,25,Neutral,Neutral,80.0,0.0,0.0,-6,11,3,18,14,-7,-9,0.0,30,24.0,14.361967594677045,0.0,0.0,66.42538428642953,55.49776900050067,23.248884500250337,26.70270801642413,17.127606481064593,5.3405416032848265,22.425168419457062,64.03013606607676,10.278690610713708,100.0,100.0,31.55540620246362,32.12760648106459
0,Test,ID1,BV01,59,0,11800,0,11800,Undified,Nan,faces\-4984371105623369044.png,,,,,29,30.0,9.027692569068707,30.265491900843116,9.024937810560443,30,29,338,131,112,16,338,136,100,0,1,419,131,86,105,122,93,26,-178,-1,33,281,66,215,215,1.5622188328338955,106.23088063270492,68.0,0.0,0.0,0.0,0.0,35.0,0.0,65.0,50,0.0,0,0,0,18,18,0,0,0,0,0,18,0,18,25,0,25,0,0,0,0,42,0,0,25,Neutral,Neutral,80.0,0.0,0.0,-2,2,7,14,11,-6,-8,0.0,30,20.0,9.895899712868937,0.0,0.0,63.47364189402819,53.43154932581973,22.215774662909865,22.956594596754176,18.020820057426214,4.591318919350836,22.12492208182829,63.99572179421279,9.738720828609823,100.0,100.0,31.34348918951313,33.020820057426214
0,Test,ID1,BV01,60,0,12000,0,12000,Undified,Nan,faces\-8461865011796717009.png,,,,,29,32.0,9.0,31.144823004794873,9.552630379629154,28,30,336,131,114,16,336,136,100,0,0,418,131,81,108,132,90,26,-178,-2,31,281,66,215,215,1.6173474943853765,108.3743512091307,67.00746227100382,0.0,0.0,0.0,0.0,35.0,0.0,65.0,50,0.0,0,0,0,18,18,0,0,0,0,0,18,0,18,25,0,25,0,0,0,0,42,0,0,25,Neutral,Neutral,80.0,0.0,0.0,1,8,-1,12,9,-4,-7,0.0,30,20.0,13.860229213387452,0.0,0.0,63.47364189402819,53.43154932581973,22.215774662909865,25.731625247117137,17.22795415732251,5.146325049423428,21.88706231179718,64.66351267527396,11.299257579306682,100.0,100.0,32.45974378706757,32.227954157322515
0,Test,ID1,BV01,61,0,12200,0,12200,Undified,Nan,faces\-8146765719191484881.png,,,,,28,31.0,8.527692569068709,31.144823004794873,9.527692569068707,27,30,336,132,113,15,336,137,100,0,1,417,132,84,116,138,92,24,-178,-2,31,281,66,215,215,1.5853589590226025,106.23088063270492,67.00746227100382,0.0,0.0,0.0,0.0,34.0,0.0,66.0,50,0.0,0,0,0,17,17,0,0,0,0,0,17,0,17,25,0,25,0,0,0,0,42,0,0,25,Neutral,Neutral,80.0,0.0,0.0,-8,4,-1,11,13,-4,-8,0.0,30,28.0,13.860229213387452,0.0,0.0,69.51439283988788,57.66007498792151,23.634893565561878,27.000182945747667,17.22795415732251,5.400036589149534,22.667577708255788,64.16595612797013,11.566641349233931,100.0,100.0,32.65002744186215,32.227954157322515
0,Test,ID1,BV01,62,0,12400,0,12400,Undified,Nan,faces\-1423599814089650124.png,,,,,29,32.01562118716424,9.5,32.14031735997639,9.552630379629154,29,29,335,132,114,16,335,137,100,0,6,416,132,93,126,135,96,23,-178,-2,32,281,66,215,215,1.5965593025660063,105.3850084215018,66.007575322837,0.0,0.0,0.0,0.0,34.0,0.0,66.0,50,0.0,0,0,0,17,17,0,0,0,0,0,17,0,17,25,0,25,0,0,0,0,42,0,0,25,Neutral,Neutral,80.0,0.0,0.0,-4,6,2,15,17,-7,-6,0.0,30,32.0,11.813788976993953,0.0,0.0,72.74705090242836,59.92293563169984,24.73399730682564,26.246532973405717,17.63724220460121,5.249306594681144,23.394871180134466,63.20875635323301,10.08250887867473,100.0,100.0,31.48697994601086,32.63724220460121
0,Test,ID1,BV01,63,0,12600,0,12600,Undified,Nan,faces\-1874170301053596812.png,,,,,29,31.0,9.027692569068707,31.144823004794873,9.552630379629154,29,30,336,132,113,16,336,137,100,0,8,417,132,87,118,135,93,26,-179,-2,31,281,66,215,215,1.5789151253227556,107.37783756436892,68.00735254367721,0.0,0.0,0.0,0.0,34.0,0.0,66.0,50,0.0,0,0,0,17,17,0,0,0,0,0,17,0,17,25,0,25,0,0,0,0,42,0,0,25,Neutral,Neutral,80.0,0.0,0.0,-3,5,6,17,10,-5,-10,0.0,30,20.0,13.860229213387452,0.0,0.0,63.47364189402819,53.43154932581973,21.581038243969584,25.731625247117137,17.22795415732251,5.146325049423428,21.537957281380027,64.84279669960769,10.917185981740055,100.0,100.0,32.10974378706757,32.227954157322515
0,Test,ID1,BV01,64,0,12800,0,12800,Undified,Nan,faces\-6314837457837863448.png,,,,,30,30.01666203960727,9.027692569068707,31.144823004794873,9.552630379629154,30,30,336,132,113,15,336,137,100,0,8,417,132,88,118,133,94,26,-178,-2,32,281,66,215,215,1.587781930594469,106.38138934982942,67.0,0.0,0.0,0.0,0.0,34.0,0.0,66.0,50,0.0,0,0,0,17,17,0,0,0,0,0,17,0,17,25,0,25,0,0,0,0,42,0,0,25,Neutral,Neutral,80.0,0.0,0.0,-5,5,7,11,10,-6,-7,0.0,30,20.0,11.813788976993953,0.0,0.0,63.47364189402819,53.43154932581973,21.581038243969584,24.299117081641686,17.63724220460121,4.859823416328338,21.66074369556364,64.50131675171326,10.124910945581748,100.0,100.0,31.544867562246253,32.63724220460121
0,Test,ID1,BV01,65,0,13000,0,13000,Undified,Nan,faces\-6265398796803011308.png,,,,,30,30.0,9.0,31.144823004794873,9.552630379629154,30,30,336,132,113,15,336,137,100,0,8,417,132,86,117,135,93,25,-179,-2,32,281,66,215,215,1.6173474943853765,108.3743512091307,67.00746227100382,0.0,0.0,0.0,0.0,34.0,0.0,66.0,50,0.0,0,0,0,17,17,0,0,0,0,0,17,0,17,25,0,25,0,0,0,0,42,0,0,25,Neutral,Neutral,80.0,0.0,0.0,-4,3,7,21,19,-5,-8,0.0,30,24.0,11.813788976993953,0.0,0.0,66.42538428642953,55.49776900050067,22.584630657386043,24.918982984045964,17.63724220460121,4.983796596809193,22.21271952294269,64.22172268005045,10.651918014016537,100.0,100.0,31.987847447606896,32.63724220460121
0,Test,ID1,BV01,66,0,13200,0,13200,Undified,Nan,faces\5609017525848775856.png,,,,,31,31.01612483854165,9.0,31.144823004794873,10.547618319154077,29,33,336,131,113,16,336,136,100,0,6,417,131,84,121,143,92,27,-179,-2,32,281,66,215,215,1.6316751137498622,109.37092849564732,67.02984409947557,0.0,0.0,0.0,0.0,34.0,0.0,66.0,50,0.0,0,0,0,17,17,0,0,0,0,0,17,0,17,25,0,25,0,0,0,0,42,0,0,25,Neutral,Neutral,100.0,0.0,0.0,-2,10,1,17,19,-6,-8,0.0,30,16.0,11.813788976993953,0.0,0.0,60.653065971263345,51.45714617988434,20.62204243022954,23.70679613786107,17.63724220460121,4.741359227572214,21.133295998006613,64.86404281538083,10.013103316003349,100.0,100.0,31.456019420679162,32.63724220460121
0,Test,ID1,BV01,67,0,13400,0,13400,Undified,Nan,faces\-3658788422903338831.png,,,,,28,30.0,8.527692569068709,31.144823004794873,9.056066684709721,28,29,337,131,113,16,337,137,100,0,4,418,131,83,108,129,91,24,-179,-2,32,281,66,215,215,1.5625810264211497,106.30145812734648,68.0294054067798,0.0,0.0,0.0,0.0,35.0,0.0,65.0,50,0.0,0,0,0,18,18,0,0,0,0,0,18,0,18,25,0,25,0,0,0,0,42,0,0,25,Neutral,Neutral,100.0,0.0,0.0,-6,2,0,16,11,-7,-9,0.0,30,28.0,11.813788976993953,0.0,0.0,69.51439283988788,57.66007498792151,24.33003749396076,25.56767478027222,17.63724220460121,5.113534956054444,23.172693283058784,63.3186128515802,9.923779980226074,100.0,100.0,31.385151217040832,32.63724220460121
0,Test,ID1,BV01,68,0,13600,0,13600,Undified,Nan,faces\-6657449948457364151.png,,,,,20,33.0,6.5,32.062439083762804,7.0,19,21,343,142,116,10,343,144,43,39,90,426,142,96,97,101,69,27,-176,-2,16,305,90,215,215,1.5169649659743214,106.23088063270492,70.02856560004639,48.0,2.0,0.0,0.0,0.0,0.0,50.0,50,0.0,0,0,0,0,1,25,0,0,0,0,0,1,24,26,24,25,0,0,1,24,25,1,0,25,Neutral,Neutral,100.0,0.0,0.0,1,2,-1,15,15,-4,-7,0.0,30,16.0,76.86303193344635,0.0,0.0,60.653065971263345,51.45714617988434,29.113471666206404,69.24126620737775,44.62739361331073,13.84825324147555,33.90062750040674,59.40362462041239,21.65067901388568,94.2,50.0,28.986189931106665,19.62739361331073
0,Test,ID1,BV01,69,0,13800,0,13800,Undified,Nan,faces\9113129894731105044.png,,,,,18,34.0147027033899,6.041381265149108,31.40063693621516,6.576915171081848,17,20,363,157,117,13,363,163,100,0,6,448,157,84,85,101,92,27,-169,-1,-16,333,114,179,179,1.5519384160243297,96.33275663033837,62.07253821135398,0.0,98.0,0.0,0.0,0.0,0.0,2.0,50,0.0,0,0,0,0,49,49,0,0,0,0,0,49,0,74,0,25,0,0,49,0,25,49,0,25,Disgust,Neutral,100.0,9.25925925925926,90.74074074074075,-30,63,40,8,-28,-68,37,98.0,30,16.0,76.76625403772937,0.0,0.0,60.653065971263345,51.45714617988434,0.0,69.17352168037586,83.04674919245413,26.378704336075174,29.41402475773624,56.5861323618486,20.251993656278824,51.0,2.0,16.576028252056382,66.83193437763931
0,Test,ID1,BV01,70,0,14000,0,14000,Undified,Nan,faces\4211070534511219053.png,,,,,18,33.06055050963308,6.041381265149108,32.01562118716424,6.0,18,18,355,153,116,8,355,153,100,0,26,438,153,107,97,90,103,24,-177,0,23,305,90,215,215,1.575034585319995,104.0,66.03029607687671,0.0,0.0,0.0,0.0,35.0,0.0,65.0,50,0.0,0,0,0,18,18,0,0,0,0,0,18,0,18,25,0,25,0,0,0,0,42,0,0,25,Neutral,Neutral,80.0,0.0,0.0,-8,10,-1,22,21,-6,-9,0.0,30,28.0,45.01395464879853,0.0,0.0,69.51439283988788,57.66007498792151,24.33003749396076,48.807790750535425,10.997209070240295,9.761558150107085,21.18068334275051,67.33623240085313,16.53557092771917,100.0,100.0,35.221168612580314,25.997209070240295
0,Test,ID1,BV01,71,0,14200,0,14200,Undified,Nan,faces\-6003644142174159028.png,,,,,15,31.06444913401813,4.561552812808832,31.01612483854165,5.5,14,17,363,151,111,9,363,151,25,2,8,442,153,93,81,87,59,23,-177,1,25,333,114,179,179,1.6224101716584098,99.02019995940222,61.03277807866851,33.0,12.0,0.0,0.0,0.0,0.0,56.0,50,40.0,20,20,0,0,6,22,0,0,0,20,0,6,16,31,16,45,0,0,6,16,25,6,0,25,Neutral,Neutral,80.0,0.0,0.0,0,13,0,12,18,-7,-9,0.0,30,32.0,35.510423303684185,0.0,0.0,72.74705090242836,59.92293563169984,24.006526797801357,42.83417700208888,48.897915339263164,8.566835400417776,32.372964340569695,57.68504622775313,13.677048873297533,90.7,55.0,24.97512655031333,27.897915339263164
0,Test,ID1,BV01,72,0,14400,0,14400,Undified,Nan,faces\6205727484008168557.png,,,,,25,30.01666203960727,7.035533905932738,30.01666203960727,8.527692569068709,23,28,356,139,111,10,356,140,100,0,0,436,139,93,109,117,96,24,-179,1,31,305,66,215,215,1.556133581713964,106.0,68.11754546370561,0.0,1.0,0.0,0.0,9.0,0.0,90.0,50,0.0,0,0,0,4,5,0,0,0,0,0,4,0,4,26,0,25,0,0,0,0,30,0,0,25,Neutral,Neutral,80.0,0.0,0.0,-1,11,6,11,17,-4,-7,0.0,30,28.0,13.860229213387452,0.0,0.0,69.51439283988788,57.66007498792151,6.256295355589909,27.000182945747667,18.02795415732251,5.400036589149534,13.349348692771205,71.6205393403578,12.312099670472698,99.5,99.0,32.45002744186215,32.227954157322515
0,Test,ID1,BV01,73,0,14600,0,14600,Undified,Nan,faces\710296463219549275.png,,,,,26,32.01562118716424,8.031128874149275,32.01562118716424,9.0,25,28,345,130,115,11,345,132,100,0,0,427,130,98,122,124,99,25,179,0,31,305,66,215,215,1.6313621739604502,111.04053313993047,68.06614430096654,28.0,0.0,0.0,0.0,0.0,0.0,71.0,50,0.0,0,0,0,0,0,14,0,0,0,0,0,0,14,25,14,25,0,0,0,14,25,0,0,25,Neutral,Neutral,80.0,0.0,0.0,-8,13,8,13,13,-4,-6,0.0,30,24.0,14.361967594677045,0.0,0.0,66.42538428642953,55.49776900050067,18.59910760020027,26.70270801642413,39.527606481064595,5.3405416032848265,26.58779112442953,61.00003790209879,11.17568079431591,97.2,72.0,27.00540620246362,32.12760648106459
0,Test,ID1,BV01,74,0,14800,0,14800,Undified,Nan,faces\861124634930594407.png,,,,,25,31.0,8.0,32.062439083762804,8.5,25,26,339,132,115,13,339,136,100,0,0,421,132,94,114,121,97,23,178,-1,29,281,66,215,215,1.5452362609131385,108.16653826391969,70.0,0.0,0.0,0.0,0.0,35.0,0.0,65.0,50,0.0,0,0,0,18,18,0,0,0,0,0,18,0,18,25,0,25,0,0,0,0,42,0,0,25,Neutral,Neutral,80.0,0.0,0.0,0,11,6,15,16,-7,-9,0.0,30,32.0,19.944019248579075,0.0,0.0,72.74705090242836,59.92293563169984,25.461467815849925,31.937694163515303,16.011196150284185,6.387538832703061,23.307166143802718,63.84803650130935,11.56922719100976,100.0,100.0,32.34065412452729,31.011196150284185
0,Test,ID1,BV01,75,0,15000,0,15000,Undified,Nan,faces\7562859166616297127.png,,,,,28,31.01612483854165,8.531128874149275,32.14031735997639,9.552630379629154,27,29,334,130,115,15,334,135,100,0,0,416,130,79,110,138,89,24,178,-2,30,281,66,215,215,1.5882161908385652,111.22050170719427,70.02856560004639,0.0,0.0,0.0,0.0,35.0,0.0,65.0,50,0.0,0,0,0,18,18,0,0,0,0,0,18,0,18,25,0,25,0,0,0,0,42,0,0,25,Neutral,Neutral,80.0,0.0,0.0,-3,2,1,16,16,-6,-9,0.0,30,28.0,16.872061886259104,0.0,0.0,69.51439283988788,57.66007498792151,24.33003749396076,29.10846581675783,16.62558762274818,5.821693163351566,22.86919690850287,64.0154890548735,11.278665359676808,100.0,100.0,32.266269872513675,31.62558762274818
0,Test,ID1,BV01,76,0,15200,0,15200,Undified,Nan,faces\3347299566605324697.png,,,,,25,32.0,7.5,32.062439083762804,9.0,23,28,337,130,117,13,337,134,100,0,0,421,130,98,122,124,99,23,178,-1,24,281,66,215,215,1.5008836998329689,108.07404868885037,72.00694410957877,0.0,0.0,0.0,0.0,35.0,0.0,65.0,50,0.0,0,0,0,18,18,0,0,0,0,0,18,0,18,25,0,25,0,0,0,0,42,0,0,25,Neutral,Neutral,100.0,0.0,0.0,-3,7,4,12,18,-5,-7,0.0,30,32.0,38.92456835017414,0.0,0.0,72.74705090242836,59.92293563169984,25.461467815849925,45.22407853463184,12.215086329965173,9.04481570692637,22.168333197707014,66.28774129529758,15.93479376318772,100.0,100.0,35.033611780194775,27.215086329965175
0,Test,ID1,BV01,77,0,15400,0,15400,Undified,Nan,faces\5549933417148500421.png,,,,,25,33.0,8.0,32.14031735997639,8.531128874149275,24,26,341,130,119,13,341,133,100,0,11,427,130,77,94,122,88,25,179,-1,22,313,94,179,179,1.5226830361987442,105.07616285342743,69.00724599634447,0.0,0.0,0.0,0.0,32.0,0.0,68.0,50,0.0,0,0,0,16,16,0,0,0,0,0,16,0,16,25,0,25,0,0,0,0,41,0,0,25,Neutral,Neutral,100.0,0.0,0.0,-5,6,4,13,16,-6,-6,0.0,30,24.0,49.420571417533075,0.0,0.0,66.42538428642953,55.49776900050067,21.25612297165745,51.243730692423355,10.115885716493386,10.248746138484671,19.225633349359615,69.14386638975466,17.325319312081305,100.0,100.0,35.586559603863506,25.115885716493388
0,Test,ID1,BV01,78,0,15600,0,15600,Undified,Nan,faces\-1379340248243970882.png,,,,,25,33.015148038438355,8.031128874149275,32.062439083762804,8.527692569068709,24,26,342,130,117,12,342,133,100,0,17,426,130,94,117,124,97,26,-179,-1,21,313,94,179,179,1.4937219874837762,103.07764064044152,69.00724599634447,0.0,0.0,0.0,0.0,29.0,0.0,71.0,50,0.0,0,0,0,14,14,0,0,0,0,0,14,0,14,25,0,25,0,0,0,0,40,0,0,25,Neutral,Neutral,100.0,0.0,0.0,-1,2,-1,10,10,-7,-7,0.0,30,20.0,55.03961080030571,0.0,0.0,63.47364189402819,53.43154932581973,18.407356149268175,54.55719235795992,8.992077839938858,10.911438471591985,17.321669234079152,70.89838384853267,17.929136474343245,100.0,100.0,35.733578853693984,23.992077839938858
0,Test,ID1,BV01,79,0,15800,0,15800,Undified,Nan,faces\-5580297041471657499.png,,,,,25,33.0,8.06225774829855,31.144823004794873,8.558821443217981,24,27,341,131,116,13,341,135,100,0,14,425,131,77,98,126,88,24,179,-1,24,313,94,179,179,1.5147453605609578,106.07544484940895,70.02856560004639,52.0,0.0,0.0,0.0,0.0,0.0,47.0,50,0.0,0,0,0,0,0,26,0,0,0,0,0,0,26,25,26,25,0,0,0,26,25,0,0,25,Anger,Neutral,100.0,16.129032258064516,83.87096774193549,-47,72,34,-58,97,-43,65,52.0,30,28.0,38.92456835017414,0.0,0.0,69.51439283988788,57.66007498792151,69.51439283988788,44.54522034149835,53.815086329965176,20.765044068299673,58.87744196092788,33.05256846540753,10.241561931915342,94.8,48.0,21.631783051224758,61.18282826544905
0,Test,ID1,BV01,80,0,16000,0,16000,Undified,Nan,faces\-817209537548892470.png,,,,,25,33.0,8.0,31.144823004794873,8.558821443217981,24,27,341,132,116,13,341,136,100,0,27,425,132,79,99,124,89,26,179,-1,24,313,94,179,179,1.5015465060444593,105.1189802081432,70.00714249274857,80.0,0.0,0.0,0.0,0.0,0.0,20.0,50,0.0,0,0,0,0,0,40,0,0,0,0,0,0,40,25,40,25,0,0,0,40,25,0,0,25,Anger,Neutral,100.0,11.11111111111111,88.88888888888889,-41,75,33,-53,89,-44,62,80.0,30,20.0,38.92456835017414,0.0,0.0,63.47364189402819,53.43154932581973,63.47364189402819,43.27666264286782,76.21508632996517,26.57533252857356,62.275028940705056,30.107643111722737,16.229929971889227,92.0,20.0,21.091499396430173,69.43730855218739
0,Test,ID1,BV01,81,0,16200,0,16200,Undified,Nan,faces\890411992389421546.png,,,,,26,32.0,7.535533905932738,31.144823004794873,9.099019513592783,23,29,340,131,115,15,340,137,100,0,32,423,131,86,114,132,93,25,179,-2,24,281,66,215,215,1.4947546212009468,106.16967551989596,71.02816342831905,0.0,0.0,0.0,0.0,35.0,0.0,65.0,50,0.0,0,0,0,18,18,0,0,0,0,0,18,0,18,25,0,25,0,0,0,0,42,0,0,25,Neutral,Neutral,80.0,0.0,0.0,0,9,0,11,12,-6,-7,0.0,30,24.0,38.92456835017414,0.0,0.0,66.42538428642953,55.49776900050067,23.248884500250337,43.89652854527209,12.215086329965173,8.779305709054418,20.951412374127237,67.02852295522543,15.276984431840566,100.0,100.0,34.48447928179081,27.215086329965175
0,Test,ID1,BV01,82,0,16400,0,16400,Undified,Nan,faces\3000889275890871398.png,,,,,27,33.0,8.5,31.144823004794873,9.055385138137416,25,29,337,132,116,15,337,137,100,0,16,421,132,82,108,131,91,25,-179,-2,26,281,66,215,215,1.5538763494454162,107.22872749408155,69.00724599634447,0.0,0.0,0.0,0.0,35.0,0.0,65.0,50,0.0,0,0,0,18,18,0,0,0,0,0,18,0,18,25,0,25,0,0,0,0,42,0,0,25,Neutral,Neutral,80.0,0.0,0.0,-5,3,9,20,19,-4,-9,0.0,30,24.0,31.232035321925014,0.0,0.0,66.42538428642953,55.49776900050067,23.248884500250337,38.51175542549771,13.753592935614998,7.702351085099543,21.412964355822183,66.32080405789202,14.66001926216363,100.0,100.0,34.376763313824654,28.753592935614996
0,Test,ID1,BV01,83,0,16600,0,16600,Undified,Nan,faces\-905693154075349246.png,,,,,26,32.0,8.0,31.144823004794873,8.558821443217981,25,27,337,132,115,15,337,137,100,0,8,420,132,84,105,124,92,23,-179,-2,27,281,66,215,215,1.5620499351813308,106.23088063270492,68.00735254367721,0.0,0.0,0.0,0.0,35.0,0.0,65.0,50,0.0,0,0,0,18,18,0,0,0,0,0,18,0,18,25,0,25,0,0,0,0,42,0,0,25,Neutral,Neutral,80.0,0.0,0.0,-2,2,0,22,20,-6,-9,0.0,30,32.0,26.99821688321372,0.0,0.0,72.74705090242836,59.92293563169984,25.461467815849925,36.87563250775955,14.600356623357257,7.37512650155191,22.88391428572464,64.78043182219625,13.296951309159512,100.0,100.0,33.431344876163934,29.600356623357257
0,Test,ID1,BV01,84,0,16800,0,16800,Undified,Nan,faces\-8777109100324571102.png,,,,,29,30.01666203960727,8.5,30.14962686336267,9.552630379629154,28,31,337,132,113,16,337,138,100,0,10,419,132,93,123,132,96,24,-179,-2,28,281,66,215,215,1.5468762959101632,105.23307464861037,68.0294054067798,0.0,0.0,0.0,0.0,35.0,0.0,65.0,50,0.0,0,0,0,18,18,0,0,0,0,0,18,0,18,25,0,25,0,0,0,0,42,0,0,25,Neutral,Neutral,80.0,0.0,0.0,0,9,5,18,14,-7,-7,0.0,30,28.0,23.317431025494297,0.0,0.0,69.51439283988788,57.66007498792151,24.33003749396076,33.62022421422246,15.33651379490114,6.724044842844492,22.48247476014876,64.67604261330324,12.072660314885939,100.0,100.0,32.59303363213337,30.33651379490114
0,Test,ID1,BV01,85,0,17000,0,17000,Undified,Nan,faces\8090658651763167385.png,,,,,26,31.01612483854165,8.031128874149275,31.256999216175572,8.558821443217981,25,27,337,133,114,15,337,138,100,0,5,419,133,89,113,126,94,24,-179,-2,28,281,66,215,215,1.546469387853367,105.17128885774862,68.00735254367721,0.0,0.0,0.0,0.0,35.0,0.0,65.0,50,0.0,0,0,0,18,18,0,0,0,0,0,18,0,18,25,0,25,0,0,0,0,42,0,0,25,Neutral,Neutral,80.0,0.0,0.0,-1,11,4,14,12,-5,-7,0.0,30,28.0,23.317431025494297,0.0,0.0,69.51439283988788,57.66007498792151,24.33003749396076,33.62022421422246,15.33651379490114,6.724044842844492,22.48247476014876,64.87604261330324,12.89266031488594,100.0,100.0,33.29303363213337,30.33651379490114
0,Test,ID1,BV01,86,0,17200,0,17200,Undified,Nan,faces\5462826121936389603.png,,,,,18,32.01562118716424,6.041381265149108,31.01612483854165,6.0,18,19,336,138,114,12,336,142,6,1,16,418,138,88,80,90,47,25,178,-2,24,281,66,215,215,1.5688467636741552,108.29589096544709,69.02897942168927,0.0,0.0,0.0,0.0,35.0,0.0,65.0,50,0.0,0,0,0,18,18,0,0,0,0,0,18,0,18,25,0,25,0,0,0,0,42,0,0,25,Neutral,Neutral,80.0,0.0,0.0,1,3,8,14,15,-6,-6,0.0,30,24.0,38.92456835017414,0.0,0.0,66.42538428642953,55.49776900050067,23.248884500250337,43.89652854527209,12.215086329965173,8.779305709054418,20.951412374127237,67.02852295522543,15.276984431840566,100.0,100.0,34.48447928179081,27.215086329965175
0,Test,ID1,BV01,87,0,17400,0,17400,Undified,Nan,faces\-7550494619813486010.png,,,,,27,32.0,8.5,31.144823004794873,9.055385138137416,26,29,335,133,116,16,335,139,100,0,12,419,133,87,112,128,93,25,179,-3,26,281,66,215,215,1.542405148180355,106.47065323364932,69.02897942168927,0.0,0.0,0.0,0.0,35.0,0.0,65.0,50,0.0,0,0,0,18,18,0,0,0,0,0,18,0,18,25,0,25,0,0,0,0,42,0,0,25,Neutral,Neutral,80.0,0.0,0.0,-6,5,7,11,16,-7,-8,0.0,30,24.0,30.722086964166444,0.0,0.0,66.42538428642953,55.49776900050067,23.248884500250337,38.15479157506671,13.855582607166713,7.630958315013342,21.443561257287698,65.96063015167651,13.334760908934328,100.0,100.0,33.273218736260006,28.855582607166713
0,Test,ID1,BV01,88,0,17600,0,17600,Undified,Nan,faces\-1604597781723525372.png,,,,,27,32.0,8.5,31.144823004794873,9.055385138137416,26,29,336,133,115,16,336,139,100,0,14,419,133,84,108,128,92,23,-179,-2,28,281,66,215,215,1.5186111336615764,103.31021246711285,68.0294054067798,0.0,0.0,0.0,0.0,35.0,0.0,65.0,50,0.0,0,0,0,18,18,0,0,0,0,0,18,0,18,25,0,25,0,0,0,0,42,0,0,25,Neutral,Neutral,80.0,0.0,0.0,-7,3,-1,12,9,-7,-9,0.0,30,32.0,23.317431025494297,0.0,0.0,72.74705090242836,59.92293563169984,25.461467815849925,34.299082407355954,15.33651379490114,6.859816481471191,23.104761437187804,64.24609909098535,12.199380510937523,100.0,100.0,32.69486236110339,30.33651379490114
0,Test,ID1,BV01,89,0,17800,0,17800,Undified,Nan,faces\8708864816261755164.png,,,,,28,33.0,9.552630379629154,32.2490309931942,9.552630379629154,28,29,335,133,116,16,335,138,100,0,24,418,133,93,129,138,96,25,179,-3,28,281,66,215,215,1.5637559774883387,106.38138934982942,68.0294054067798,0.0,0.0,0.0,0.0,35.0,0.0,65.0,50,0.0,0,0,0,18,18,0,0,0,0,0,18,0,18,25,0,25,0,0,0,0,42,0,0,25,Neutral,Neutral,80.0,0.0,0.0,0,6,0,18,13,-4,-8,0.0,30,24.0,23.171167607341157,0.0,0.0,66.42538428642953,55.49776900050067,23.248884500250337,32.86914802528901,15.365766478531768,6.573829605057802,21.896616418697214,65.36962166757112,13.154249173079364,100.0,100.0,33.53037220379335,30.365766478531768
0,Test,ID1,BV01,90,0,18000,0,18000,Undified,Nan,faces\4523202559715968763.png,,,,,26,32.0,8.0,31.256999216175572,8.558821443217981,25,27,336,134,115,15,336,139,100,0,22,419,134,85,107,125,92,23,-179,-3,28,281,66,215,215,1.5504341823651056,105.47511554864494,68.0294054067798,0.0,0.0,0.0,0.0,35.0,0.0,65.0,50,0.0,0,0,0,18,18,0,0,0,0,0,18,0,18,25,0,25,0,0,0,0,42,0,0,25,Neutral,Neutral,80.0,0.0,0.0,-6,3,7,13,17,-7,-7,0.0,30,32.0,23.317431025494297,0.0,0.0,72.74705090242836,59.92293563169984,25.461467815849925,34.299082407355954,15.33651379490114,6.859816481471191,23.104761437187804,64.24609909098535,12.199380510937523,100.0,100.0,32.69486236110339,30.33651379490114
