Problem,NameTest,User,Module,Image,Timestamp,TimeBlock,TimeVideo,TimeDetection,URL_Media,Codigo_Media,URL,XEyeTracking,YEyeTracking,Distance,Velocity,Blinks,B_left_horizontal,B_left_vertical,B_right_horizontal,B_right_vertical,PLeftEAR,PRightEAR,XFrame,YFrame,WFrame,HFrame,XEyeLeft,YEyeLeft,GazeRatioLeft,LWLeft,RWLeft,XEyeRight,YEyeRight,GazeRatioRight,LWRight,RWRight,GazeRatioAvg,FrownT,Pitch,Roll,Yaw,XPose,YPose,WidthPose,HeightPose,MouthRatio,VMouth,HMouth,Anger,Disgust,Fear,Joy,Sadness,Surprise,Neutral,Anticipation,Trust,Love,Submission,Awe,Disapproval,Remorse,Contempt,Agressiveness,Optimism,Guilt,Curiosity,Despair,Unbelief,Envy,Cynicism,Pride,Hope,Delight,Sentimentality,Shame,Outrage,Pessimism,Morbidness,Dominance,Anxiety,Predominant,Trend,Veracity,Positive valence,Negative valence,Jvalence,Jarousal,Jdominance,Evalence,Earousal,Dvalence,Darousal,Intensity,eng_blinks,eng_frownt,FOCUS,Stress,Variant2,Stress_intens,Cognitive effort,Frustration,Interest,Rejection,Commitment,Confusion,Comprehension,Performance,Confidence 1,Confidence 2,PerformancePolit,Variant
0,Test,ID1,BV01,3,0,600,0,600,Undified,Nan,faces\-2083989971957778834.png,,,,,28,12.041594578792296,4.0,12.041594578792296,3.0,33,24,466,150,41,5,466,150,500,5,0,494,151,100,0,3,300,9,176,-1,35,453,133,72,72,1.6671874186452131,40.01249804748511,24.0,100.0,0.0,0.0,0.0,0.0,0.0,0.0,50,0.0,0,0,0,0,0,50,0,0,0,0,0,0,50,25,50,25,0,0,0,50,25,0,0,25,Anger,Neutral,100.0,9.090909090909092,90.9090909090909,-38,82,32,-60,96,-45,65,100.0,30,20.0,7.026341732399674,0.0,0.0,95.55630362682842,75.8894125387799,95.55630362682842,27.68526297431374,98.59473165352007,27.53705259486275,86.63438649081166,8.961017104782044,14.81741745405664,90.0,0.0,18.40278944614706,81.32200438079279
0,Test,ID1,BV01,4,0,800,0,800,Undified,Nan,faces\5634397132655958057.png,,,,,28,12.041594578792296,4.0,12.041594578792296,3.0,33,24,467,152,41,5,467,152,500,5,0,495,153,100,0,3,300,9,174,-2,33,453,133,72,72,1.7103646459811497,41.04875150354759,24.0,71.0,0.0,0.0,0.0,0.0,0.0,29.0,50,0.0,0,0,0,0,0,36,0,0,0,0,0,0,36,25,36,25,0,0,0,36,25,0,0,25,Anger,Neutral,100.0,12.345679012345679,87.65432098765432,-47,75,36,-55,96,-44,64,71.0,30,20.0,10.561325333142323,0.0,0.0,95.55630362682842,75.8894125387799,95.55630362682842,30.159751494833593,74.68773493337154,21.93595029896672,79.4622874747671,15.046145169669684,9.194552390675364,92.9,29.0,19.123962724225045,72.55131518028512
0,Test,ID1,BV01,5,0,1000,0,1000,Undified,Nan,faces\37302209420852417.png,,,,,29,12.0,3.0,12.0,4.0,25,33,475,159,41,5,475,159,100,0,0,503,159,50,5,10,75,9,170,0,0,461,141,72,72,1.7831388395139025,41.012193308819754,23.0,71.0,0.0,0.0,0.0,0.0,0.0,29.0,50,0.0,0,0,0,0,0,36,0,0,0,0,0,0,36,25,36,25,0,0,0,36,25,0,0,25,Anger,Neutral,100.0,12.345679012345679,87.65432098765432,-45,78,35,-61,99,-44,64,71.0,30,20.0,98.33587956325762,0.0,0.0,95.55630362682842,75.8894125387799,95.55630362682842,91.6019394559143,57.13282408734848,34.22438789118286,74.19581422096019,25.403542568823283,25.590839120860903,92.9,29.0,28.340290918387147,54.99640433426206
0,Test,ID1,BV01,6,0,1200,0,1200,Undified,Nan,faces\6099266301762268633.png,,,,,31,12.0,4.061552812808832,13.038404810405297,4.0,33,30,140,158,47,7,140,159,113,17,15,173,158,500,3,0,306,11,-172,-3,16,121,141,87,86,1.7250323383802226,41.43669871020132,24.020824298928627,0.0,0.0,0.0,0.0,72.0,0.0,28.0,50,0.0,0,0,0,36,36,0,0,0,0,0,36,0,36,25,0,25,0,0,0,0,61,0,0,25,Sadness,Neutral,100.0,12.195121951219512,87.8048780487805,-21,51,41,-53,-55,-84,-46,72.0,30,0.0,76.86303193344635,87.25252928694238,87.25252928694238,87.25252928694238,70.07677050085965,87.25252928694238,74.82715350367035,4.62739361331073,19.573430700734068,53.87710919181153,35.98102799691782,6.704891175609363,100.0,100.0,26.224073025550553,59.57861312550585
0,Test,ID1,BV01,7,0,1400,0,1400,Undified,Nan,faces\7942652689070000223.png,,,,,31,13.0,4.5,14.035668847618199,4.0,34,28,140,158,48,7,140,159,80,16,20,173,158,500,5,0,290,12,-174,-3,14,121,141,87,86,1.6561435630999637,41.43669871020132,25.019992006393608,0.0,0.0,0.0,0.0,59.0,0.0,41.0,50,0.0,0,0,0,30,30,0,0,0,0,0,30,0,30,25,0,25,0,0,0,0,54,0,0,25,Sadness,Neutral,100.0,14.492753623188406,85.5072463768116,-29,52,47,-57,-54,-82,-45,59.0,30,0.0,83.3108930788597,83.37529180751805,83.37529180751805,83.37529180751805,67.36270426526264,83.37529180751805,78.52643643478058,3.337821384228059,19.953287286956115,51.35775690940335,38.56643811595538,5.438252920290678,100.0,100.0,24.87896546521708,54.464632978430956
0,Test,ID1,BV01,8,0,1600,0,1600,Undified,Nan,faces\9150716498327447291.png,,,,,31,13.038404810405297,4.5,14.035668847618199,4.0,34,28,138,158,49,8,138,160,82,19,23,172,158,500,2,0,291,12,-172,-3,13,121,141,87,86,1.5545235844443777,40.44749683231337,26.019223662515373,48.0,0.0,0.0,0.0,0.0,0.0,52.0,50,0.0,0,0,0,0,0,24,0,0,0,0,0,0,24,25,24,25,0,0,0,24,25,0,0,25,Neutral,Neutral,100.0,0.0,0.0,-2,9,5,20,13,-5,-6,0.0,30,0.0,85.82281004165156,0.0,0.0,83.37529180751805,67.36270426526264,40.020140067608665,80.28477830873487,41.23543799166969,16.056955661746976,38.88170843468568,56.42311108312495,23.713505685496212,95.2,52.0,30.692716746310232,17.835437991669686
0,Test,ID1,BV01,9,0,1800,0,1800,Undified,Nan,faces\-1937534877243464688.png,,,,,27,12.0,3.1622776601683795,10.04987562112089,3.0,26,29,487,160,39,7,487,160,80,4,5,515,163,171,12,7,125,9,168,6,-13,469,141,72,72,2.198108998279392,44.181444068749045,20.09975124224178,15.0,0.0,17.0,0.0,16.0,0.0,52.0,50,0.0,0,8,17,8,8,8,0,0,8,0,16,0,16,25,8,25,0,0,8,8,33,0,0,34,Neutral,Neutral,100.0,0.0,0.0,1,5,5,12,15,-7,-9,0.0,30,40.0,85.87997735464029,0.0,0.0,95.55630362682842,75.8894125387799,16.244571616560833,82.88280790988216,14.824004529071942,16.57656158197643,17.881715747830043,73.28290819272418,25.248992796742957,91.7,85.0,35.282421186482324,17.824004529071942
0,Test,ID1,BV01,10,0,2000,0,2000,Undified,Nan,faces\2994367396131593409.png,,,,,31,13.038404810405297,4.5,14.142135623730953,4.0,34,28,136,159,49,7,136,160,85,17,20,170,159,500,3,0,292,11,-173,-3,14,121,141,87,86,1.5925417009999858,41.43669871020132,26.019223662515373,71.0,0.0,0.0,0.0,0.0,0.0,29.0,50,0.0,0,0,0,0,0,36,0,0,0,0,0,0,36,25,36,25,0,0,0,36,25,0,0,25,Anger,Neutral,100.0,12.345679012345679,87.65432098765432,-46,80,30,-52,92,-45,65,71.0,30,13.333333333333334,83.3108930788597,0.0,0.0,87.25252928694238,70.07677050085965,87.25252928694238,79.34065630545969,60.13782138422806,31.488131261091937,70.53023752308673,27.00987561207659,22.28615163757258,92.9,29.0,26.151098445818953,58.00140163114164
0,Test,ID1,BV01,11,0,2200,0,2200,Undified,Nan,faces\-82958903977519000.png,,,,,25,13.038404810405297,4.0,15.033296378372908,3.1622776601683795,30,21,135,160,50,7,135,161,85,17,20,169,160,500,2,0,292,13,-172,-3,16,112,135,103,103,1.6916393929015836,45.70557952810575,27.018512172212592,0.0,0.0,0.0,0.0,0.0,0.0,100.0,50,0.0,0,0,0,0,0,0,0,0,0,0,0,0,0,25,0,25,0,0,0,0,25,0,0,25,Neutral,Neutral,100.0,0.0,0.0,0,9,6,12,18,-6,-7,0.0,30,0.0,76.86303193344635,0.0,0.0,79.67034698934616,64.76924289254231,0.0,73.23489522117514,4.62739361331073,14.646979044235028,5.888218083993219,82.01291505492294,24.11001531078608,100.0,100.0,38.88523428317627,19.62739361331073
0,Test,ID1,BV01,12,0,2400,0,2400,Undified,Nan,faces\-3320470480201815947.png,,,,,32,13.038404810405297,4.5,14.142135623730953,4.5,34,31,136,159,49,8,136,161,172,19,11,170,159,500,5,0,336,12,-173,-3,13,121,141,87,86,1.5492886822586966,40.311288741492746,26.019223662515373,71.0,0.0,0.0,0.0,0.0,0.0,29.0,50,0.0,0,0,0,0,0,36,0,0,0,0,0,0,36,25,36,25,0,0,0,36,25,0,0,25,Anger,Neutral,80.0,12.345679012345679,87.65432098765432,-43,76,32,-61,95,-42,63,71.0,30,10.0,85.82281004165156,0.0,0.0,83.37529180751805,67.36270426526264,83.37529180751805,80.28477830873487,59.63543799166969,32.52895566174698,68.24704189163585,29.230844317564813,23.9442790089402,92.9,29.0,27.342716746310234,57.49901823858327
0,Test,ID1,BV01,13,0,2600,0,2600,Undified,Nan,faces\-8619256182297506965.png,,,,,31,13.0,4.549509756796391,14.035668847618199,4.061552812808832,34,28,136,160,49,8,136,162,157,22,14,170,160,500,6,0,328,11,-172,-3,13,121,141,87,86,1.4574454842977365,39.45883931389772,27.07397274136177,71.0,0.0,0.0,0.0,0.0,0.0,29.0,50,0.0,0,0,0,0,0,36,0,0,0,0,0,0,36,25,36,25,0,0,0,36,25,0,0,25,Anger,Neutral,80.0,12.345679012345679,87.65432098765432,-47,79,34,-59,87,-45,65,71.0,30,20.0,85.82281004165156,0.0,0.0,87.25252928694238,70.07677050085965,87.25252928694238,81.09899817941398,59.63543799166969,31.839799635882798,70.37952250531922,27.306281813686027,22.755377726222093,92.9,29.0,26.414849726912102,57.49901823858327
0,Test,ID1,BV01,14,0,2800,0,2800,Undified,Nan,faces\2167399051679515442.png,,,,,31,14.035668847618199,5.0,14.142135623730953,4.0,35,28,136,161,50,8,136,162,126,24,19,171,161,500,6,0,313,12,-172,-3,10,121,141,87,86,1.4552691225948835,39.319206502675,27.018512172212592,71.0,0.0,0.0,0.0,0.0,0.0,29.0,50,0.0,0,0,0,0,0,36,0,0,0,0,0,0,36,25,36,25,0,0,0,36,25,0,0,25,Anger,Neutral,100.0,12.345679012345679,87.65432098765432,-42,82,27,-53,99,-43,65,71.0,30,10.0,91.70251523267711,0.0,0.0,83.37529180751805,67.36270426526264,83.37529180751805,84.40057194245276,58.45949695346458,33.06811438849055,67.8942595801743,29.824649530105834,24.632607938623774,92.9,29.0,27.610085791367922,56.32307720037816
0,Test,ID1,BV01,15,0,3000,0,3000,Undified,Nan,faces\-5783377121628028695.png,,,,,33,13.0,4.5,14.035668847618199,4.561552812808832,34,32,136,161,50,8,136,163,158,19,12,171,161,500,7,0,329,12,-171,-3,10,121,141,87,86,1.4522880287386049,39.319206502675,27.07397274136177,71.0,0.0,0.0,0.0,0.0,0.0,29.0,50,0.0,0,0,0,0,0,36,0,0,0,0,0,0,36,25,36,25,0,0,0,36,25,0,0,25,Anger,Neutral,100.0,12.345679012345679,87.65432098765432,-42,72,33,-50,88,-42,64,71.0,30,10.0,91.70251523267711,0.0,0.0,83.37529180751805,67.36270426526264,83.37529180751805,84.40057194245276,58.45949695346458,33.35211438849055,67.8942595801743,29.924649530105835,25.04260793862377,92.9,29.0,27.96008579136792,56.32307720037816
0,Test,ID1,BV01,16,0,3200,0,3200,Undified,Nan,faces\784378680748171031.png,,,,,32,13.0,4.561552812808832,15.033296378372908,4.5,35,29,136,161,50,8,136,163,107,15,14,170,161,500,5,0,303,12,-170,-2,13,121,141,87,86,1.531876420411301,38.3275357934736,25.019992006393608,71.0,0.0,0.0,0.0,0.0,0.0,29.0,50,0.0,0,0,0,0,0,36,0,0,0,0,0,0,36,25,36,25,0,0,0,36,25,0,0,25,Anger,Neutral,100.0,12.345679012345679,87.65432098765432,-47,77,33,-51,92,-45,63,71.0,30,10.0,85.82281004165156,0.0,0.0,83.37529180751805,67.36270426526264,83.37529180751805,80.28477830873487,59.63543799166969,31.676955661746973,68.24704189163585,28.930844317564812,22.7142790089402,92.9,29.0,26.292716746310234,57.49901823858327
0,Test,ID1,BV01,17,0,3400,0,3400,Undified,Nan,faces\-5598211098832454322.png,,,,,31,13.038404810405297,4.5,14.142135623730953,4.0,34,28,135,162,51,8,135,164,175,21,12,171,162,500,2,0,337,12,-171,-3,9,112,141,86,86,1.4522880287386049,39.319206502675,27.07397274136177,0.0,0.0,0.0,0.0,77.0,0.0,23.0,50,0.0,0,0,0,38,38,0,0,0,0,0,38,0,38,25,0,25,0,0,0,0,64,0,0,25,Sadness,Neutral,80.0,11.494252873563218,88.50574712643679,-21,51,41,-50,-54,-81,-46,77.0,30,10.0,93.14456644105735,83.37529180751805,83.37529180751805,83.37529180751805,67.36270426526264,83.37529180751805,85.41000778831892,1.3710867117885301,22.934001557663784,50.76773650767149,39.8268115726947,12.185183104349202,100.0,100.0,29.861501168247838,57.74752349339773
0,Test,ID1,BV01,18,0,3600,0,3600,Undified,Nan,faces\6183149445087612287.png,,,,,28,13.038404810405297,4.123105625617661,14.035668847618199,3.58113883008419,31,25,135,162,50,8,135,164,88,15,17,170,162,100,0,0,94,13,-169,-3,12,112,141,86,86,1.420950242170026,38.47076812334269,27.07397274136177,0.0,0.0,0.0,0.0,70.0,0.0,30.0,50,0.0,0,0,0,35,35,0,0,0,0,0,35,0,35,25,0,25,0,0,0,0,60,0,0,25,Sadness,Neutral,80.0,12.5,87.5,-27,53,46,-51,-50,-82,-43,70.0,30,0.0,88.04403301853132,79.67034698934616,79.67034698934616,79.67034698934616,64.76924289254231,79.67034698934616,81.06159598073461,2.3911933962937355,21.25231919614692,49.03604886302851,40.67732050765065,9.033131045948714,100.0,100.0,27.459239397110192,56.76619339629374
0,Test,ID1,BV01,19,0,3800,0,3800,Undified,Nan,faces\-1591342970160960484.png,,,,,27,13.0,4.0,14.035668847618199,3.64269164289302,30,25,134,162,51,8,134,164,75,15,20,170,162,100,0,0,87,13,-169,-3,11,112,141,86,86,1.4785517286115513,38.47076812334269,26.019223662515373,0.0,0.0,0.0,0.0,77.0,0.0,23.0,50,0.0,0,0,0,38,38,0,0,0,0,0,38,0,38,25,0,25,0,0,0,0,64,0,0,25,Sadness,Neutral,80.0,11.494252873563218,88.50574712643679,-20,52,37,-61,-59,-84,-44,77.0,30,0.0,89.89205711007143,79.67034698934616,79.67034698934616,79.67034698934616,64.76924289254231,79.67034698934616,82.35521284481268,2.0215885779857135,21.39904256896254,48.92516741753611,40.695387350452386,10.308341946248408,100.0,100.0,28.353281926721905,58.39802535959491
0,Test,ID1,BV01,20,0,4000,0,4000,Undified,Nan,faces\-9218737209964198795.png,,,,,30,13.0,4.123105625617661,14.035668847618199,4.123105625617661,31,29,135,162,50,8,135,164,73,14,19,170,162,500,2,0,286,13,-169,-2,13,112,141,86,86,1.4785517286115513,38.47076812334269,26.019223662515373,0.0,0.0,0.0,0.0,77.0,0.0,23.0,50,0.0,0,0,0,38,38,0,0,0,0,0,38,0,38,25,0,25,0,0,0,0,64,0,0,25,Sadness,Neutral,80.0,11.494252873563218,88.50574712643679,-26,54,39,-60,-59,-83,-46,77.0,30,0.0,85.82281004165156,79.67034698934616,79.67034698934616,79.67034698934616,64.76924289254231,79.67034698934616,79.50673989691879,2.8354379916696875,21.137347979383758,49.1693222416413,40.31521619637884,9.95820659386758,100.0,100.0,28.27601098453782,59.211874773278886
0,Test,ID1,BV01,21,0,4200,0,4200,Undified,Nan,faces\-5757996324267021714.png,,,,,30,14.035668847618199,4.549509756796391,14.142135623730953,4.123105625617661,32,29,134,163,51,8,134,165,126,24,19,170,163,100,0,0,113,12,-170,-3,10,112,141,86,86,1.473046862988853,38.3275357934736,26.019223662515373,0.0,1.0,0.0,0.0,76.0,0.0,23.0,50,0.0,0,0,0,38,38,0,0,0,0,0,38,0,38,26,0,25,0,0,0,0,63,0,0,25,Sadness,Neutral,80.0,11.627906976744185,88.37209302325581,-29,45,42,-60,-56,-84,-44,77.0,30,10.0,91.70251523267711,83.37529180751805,83.37529180751805,83.37529180751805,67.36270426526264,83.37529180751805,84.40057194245276,2.459496953464577,21.80811438849055,51.09425958017431,39.164649530105834,10.666607938623772,99.5,99.0,28.460085791367916,58.00252020927853
0,Test,ID1,BV01,22,0,4400,0,4400,Undified,Nan,faces\1750127092715739960.png,,,,,32,14.0,4.5,14.035668847618199,4.611062569605222,32,32,134,163,51,8,134,165,120,18,15,170,163,100,0,0,110,13,-169,-3,11,112,141,86,86,1.4785517286115513,38.47076812334269,26.019223662515373,0.0,1.0,0.0,0.0,77.0,0.0,23.0,50,0.0,0,0,0,38,39,0,0,0,0,0,38,0,38,26,0,25,0,0,0,0,64,0,0,25,Sadness,Neutral,100.0,11.494252873563218,88.50574712643679,-30,47,45,-50,-59,-81,-46,78.0,30,0.0,89.89205711007143,79.67034698934616,79.67034698934616,79.67034698934616,64.76924289254231,79.67034698934616,82.35521284481268,2.8215885779857137,22.39904256896254,49.165167417536104,40.80338735045239,11.76914194624841,99.5,99.0,29.403281926721906,58.64802535959491
0,Test,ID1,BV01,23,0,4600,0,4600,Undified,Nan,faces\-2163549019325219043.png,,,,,30,14.0,4.5,14.035668847618199,4.123105625617661,32,29,134,163,51,8,134,165,94,17,18,170,163,100,0,0,97,12,-169,-2,13,112,141,86,86,1.4785517286115513,38.47076812334269,26.019223662515373,0.0,0.0,0.0,0.0,77.0,0.0,23.0,50,0.0,0,0,0,38,38,0,0,0,0,0,38,0,38,25,0,25,0,0,0,0,64,0,0,25,Sadness,Neutral,100.0,11.494252873563218,88.50574712643679,-22,46,39,-59,-58,-81,-43,77.0,30,10.0,85.82281004165156,83.37529180751805,83.37529180751805,83.37529180751805,67.36270426526264,83.37529180751805,80.28477830873487,2.8354379916696875,21.908955661746976,51.20704189163584,38.96284431756482,10.817479008940202,100.0,100.0,29.092716746310234,59.211874773278886
0,Test,ID1,BV01,24,0,4800,0,4800,Undified,Nan,faces\2065019554616267356.png,,,,,28,13.038404810405297,4.061552812808832,15.132745950421555,4.061552812808832,31,26,134,163,51,8,134,165,105,18,17,169,163,100,0,0,102,12,-169,-3,12,112,141,86,86,1.427177257724454,38.63935817272331,27.07397274136177,0.0,0.0,0.0,0.0,77.0,0.0,23.0,50,0.0,0,0,0,38,38,0,0,0,0,0,38,0,38,25,0,25,0,0,0,0,64,0,0,25,Sadness,Neutral,100.0,11.494252873563218,88.50574712643679,-20,55,47,-57,-51,-82,-44,77.0,30,10.0,88.04403301853132,83.37529180751805,83.37529180751805,83.37529180751805,67.36270426526264,83.37529180751805,81.83963439255072,2.3911933962937355,21.911926878510144,51.073768513023055,39.12494862883663,10.822403461021338,100.0,100.0,28.975945158882606,58.76763017790294
0,Test,ID1,BV01,25,0,5000,0,5000,Undified,Nan,faces\8061877752529450263.png,,,,,30,13.038404810405297,4.5,15.132745950421555,4.061552812808832,34,26,135,163,51,8,135,165,212,17,8,170,163,100,0,0,156,13,-174,-4,22,112,146,103,104,1.7088007490635062,49.8196748283246,29.154759474226502,0.0,0.0,0.0,0.0,0.0,0.0,100.0,50,0.0,0,0,0,0,0,0,0,0,0,0,0,0,0,25,0,25,0,0,0,0,25,0,0,25,Neutral,Neutral,80.0,0.0,0.0,-6,9,7,21,15,-7,-6,0.0,30,0.0,50.00624703467075,0.0,0.0,79.67034698934616,64.76924289254231,0.0,54.435145792032216,9.99875059306585,10.887029158406444,7.499625177919755,78.74381443686742,18.683167891694797,100.0,100.0,35.715271868804834,24.99875059306585
0,Test,ID1,BV01,26,0,5200,0,5200,Undified,Nan,faces\-3563627067859746404.png,,,,,27,13.0,4.061552812808832,14.035668847618199,3.5,31,24,136,163,50,7,136,165,157,11,7,171,163,100,0,0,128,14,-171,-3,19,112,146,103,104,1.606201001370854,46.690470119715,29.068883707497267,0.0,0.0,0.0,0.0,0.0,0.0,100.0,50,0.0,0,0,0,0,0,0,0,0,0,0,0,0,0,25,0,25,0,0,0,0,25,0,0,25,Neutral,Neutral,80.0,0.0,0.0,1,12,8,18,11,-4,-7,0.0,30,0.0,64.4969915538629,0.0,0.0,76.13003866968737,62.291027068781155,0.0,63.83520220833837,7.100601689227421,12.767040441667675,6.630180506768227,80.67937581541926,22.42673813362652,100.0,100.0,38.17528033125076,22.10060168922742
0,Test,ID1,BV01,27,0,5400,0,5400,Undified,Nan,faces\-1539340437962156621.png,,,,,29,13.038404810405297,4.561552812808832,14.142135623730953,3.64269164289302,34,25,135,163,51,8,135,165,106,17,16,171,163,100,0,0,103,14,-173,-4,20,112,146,103,104,1.6740271395366697,48.66210024238576,29.068883707497267,0.0,0.0,0.0,0.0,0.0,0.0,100.0,50,0.0,0,0,0,0,0,0,0,0,0,0,0,0,0,25,0,25,0,0,0,0,25,0,0,25,Neutral,Neutral,80.0,0.0,0.0,-1,7,-1,20,11,-6,-6,0.0,30,0.0,60.11875347222429,0.0,0.0,76.13003866968737,62.291027068781155,0.0,60.77043555119134,7.976249305555142,12.154087110238269,6.892874791666543,79.96274372178591,20.788883259976426,100.0,100.0,37.0155653326787,22.976249305555143
0,Test,ID1,BV01,28,0,5600,0,5600,Undified,Nan,faces\6375801742003257352.png,,,,,27,13.038404810405297,4.061552812808832,15.033296378372908,3.64269164289302,31,24,135,163,52,8,135,165,77,14,18,171,163,100,0,0,88,13,-174,-5,24,112,146,103,104,1.7238374982938551,52.17278984298233,30.265491900843116,0.0,0.0,0.0,0.0,0.0,0.0,100.0,50,0.0,0,0,0,0,0,0,0,0,0,0,0,0,0,25,0,25,0,0,0,0,25,0,0,25,Neutral,Neutral,80.0,0.0,0.0,-7,3,7,13,18,-7,-7,0.0,30,8.0,40.25858975696685,0.0,0.0,79.67034698934616,64.76924289254231,0.0,47.61178569763948,11.94828204860663,9.522357139527896,8.084484614581989,77.59359087809835,16.862305512219706,100.0,100.0,34.691767854645924,26.94828204860663
0,Test,ID1,BV01,29,0,5800,0,5800,Undified,Nan,faces\6811897275599246191.png,,,,,28,13.038404810405297,4.123105625617661,14.035668847618199,3.64269164289302,31,25,134,163,51,8,134,165,163,18,11,170,163,100,0,0,131,14,-173,-5,22,112,146,103,104,1.7342336071843134,48.83646178829912,28.16025568065745,0.0,0.0,0.0,0.0,0.0,0.0,100.0,50,0.0,0,0,0,0,0,0,0,0,0,0,0,0,0,25,0,25,0,0,0,0,25,0,0,25,Neutral,Neutral,80.0,0.0,0.0,-8,9,0,21,11,-5,-7,0.0,30,0.0,50.00624703467075,0.0,0.0,76.13003866968737,62.291027068781155,0.0,53.69168104490387,9.99875059306585,10.738336208980776,7.499625177919755,78.86946796215459,19.309867057441426,100.0,100.0,36.303752156735584,24.99875059306585
0,Test,ID1,BV01,30,0,6000,0,6000,Undified,Nan,faces\1411262250124837608.png,,,,,25,13.038404810405297,4.0,14.142135623730953,3.0,30,21,134,164,51,8,134,166,93,15,16,170,164,100,0,0,96,13,-174,-6,21,112,146,103,104,1.7582579309624444,50.009999000199954,28.442925306655784,0.0,0.0,0.0,0.0,0.0,0.0,100.0,50,0.0,0,0,0,0,0,0,0,0,0,0,0,0,0,25,0,25,0,0,0,0,25,0,0,25,Neutral,Neutral,100.0,0.0,0.0,-8,3,1,16,11,-7,-7,0.0,30,8.0,55.03961080030571,0.0,0.0,79.67034698934616,64.76924289254231,0.0,57.95850042797669,8.992077839938858,11.591700085595338,7.197623351981657,79.33775136121234,19.623400243115405,100.0,100.0,36.2437750641965,23.992077839938858
0,Test,ID1,BV01,31,0,6200,0,6200,Undified,Nan,faces\764262580546351438.png,,,,,27,13.038404810405297,4.061552812808832,15.132745950421555,3.64269164289302,31,24,134,163,51,9,134,166,100,15,15,169,163,100,0,0,100,12,-173,-5,26,112,146,103,104,1.7632839549195858,53.366656256505344,30.265491900843116,0.0,0.0,0.0,0.0,0.0,0.0,100.0,50,0.0,0,0,0,0,0,0,0,0,0,0,0,0,0,25,0,25,0,0,0,0,25,0,0,25,Neutral,Neutral,100.0,0.0,0.0,-8,11,7,23,15,-6,-9,0.0,30,16.0,31.232035321925014,0.0,0.0,83.37529180751805,67.36270426526264,0.0,42.0712360049263,13.753592935614998,8.41424720098526,8.626077880684498,76.70626129594504,15.788435130826079,100.0,100.0,34.210685400738946,28.753592935614996
0,Test,ID1,BV01,32,0,6400,0,6400,Undified,Nan,faces\-2514875584003953646.png,,,,,31,14.035668847618199,4.561552812808832,15.033296378372908,4.561552812808832,32,30,133,163,51,9,133,166,116,21,18,168,163,100,0,0,108,12,-170,-4,10,112,141,86,86,1.4817517455006142,38.63935817272331,26.0768096208106,0.0,0.0,0.0,0.0,42.0,0.0,58.0,50,0.0,0,0,0,21,21,0,0,0,0,0,21,0,21,25,0,25,0,0,0,0,46,0,0,25,Neutral,Neutral,100.0,0.0,0.0,-5,5,8,12,13,-6,-8,0.0,30,16.0,91.70251523267711,0.0,0.0,83.37529180751805,67.36270426526264,35.01762255915758,84.40057194245276,1.6594969534645772,16.88011438849055,24.257541493576046,68.43402399938445,25.543545385551635,100.0,100.0,40.56008579136791,16.659496953464576
0,Test,ID1,BV01,33,0,6600,0,6600,Undified,Nan,faces\-3445299049083297069.png,,,,,28,13.038404810405297,4.061552812808832,15.132745950421555,4.0,31,26,133,163,51,8,133,166,162,13,8,168,163,100,0,0,131,13,-169,-4,13,112,141,86,86,1.4891766378853548,38.832975677895206,26.0768096208106,0.0,0.0,0.0,0.0,77.0,0.0,23.0,50,0.0,0,0,0,38,38,0,0,0,0,0,38,0,38,25,0,25,0,0,0,0,64,0,0,25,Sadness,Neutral,80.0,11.494252873563218,88.50574712643679,-24,52,43,-58,-59,-83,-46,77.0,30,8.0,85.82281004165156,79.67034698934616,79.67034698934616,79.67034698934616,64.76924289254231,79.67034698934616,79.50673989691879,2.8354379916696875,21.137347979383758,49.1693222416413,40.31521619637884,9.95820659386758,100.0,100.0,28.27601098453782,59.211874773278886
0,Test,ID1,BV01,34,0,6800,0,6800,Undified,Nan,faces\1296249151177399573.png,,,,,30,14.035668847618199,4.5,14.142135623730953,4.123105625617661,32,29,132,164,51,8,132,166,176,23,13,168,164,100,0,0,138,12,-170,-3,11,112,141,86,86,1.5165263893228351,39.45883931389772,26.019223662515373,0.0,0.0,0.0,0.0,69.0,0.0,31.0,50,0.0,0,0,0,34,34,0,0,0,0,0,34,0,34,25,0,25,0,0,0,0,60,0,0,25,Sadness,Neutral,80.0,12.658227848101266,87.34177215189874,-21,51,38,-58,-55,-84,-45,69.0,30,20.0,89.89205711007143,83.37529180751805,83.37529180751805,83.37529180751805,67.36270426526264,83.37529180751805,83.1332512566288,2.0215885779857135,21.04265025132576,50.96288706753065,39.143015471638364,8.347614361321034,100.0,100.0,26.869987688494327,56.107031615960395
0,Test,ID1,BV01,35,0,7000,0,7000,Undified,Nan,faces\409489450449598491.png,,,,,30,13.038404810405297,4.561552812808832,15.132745950421555,4.061552812808832,34,26,132,163,50,8,132,165,109,12,11,166,163,100,0,0,104,11,-169,-4,14,112,141,86,86,1.4891766378853548,38.832975677895206,26.0768096208106,0.0,0.0,0.0,0.0,53.0,0.0,47.0,50,0.0,0,0,0,26,26,0,0,0,0,0,26,0,26,25,0,25,0,0,0,0,52,0,0,25,Sadness,Neutral,100.0,15.873015873015872,84.12698412698413,-27,45,42,-58,-59,-81,-44,53.0,30,24.0,83.3108930788597,87.25252928694238,87.25252928694238,87.25252928694238,70.07677050085965,87.25252928694238,79.34065630545969,3.337821384228059,19.896131261091938,53.490237523086726,37.04187561207659,4.389351637572579,100.0,100.0,24.151098445818956,52.61956741597409
0,Test,ID1,BV01,36,0,7200,0,7200,Undified,Nan,faces\-1125247767092309338.png,,,,,33,13.0,5.049509756796391,14.31782106327635,4.123105625617661,38,28,131,163,50,9,131,165,90,20,22,166,163,100,0,0,95,11,-169,-4,13,112,141,86,86,1.4891766378853548,38.832975677895206,26.0768096208106,0.0,0.0,0.0,0.0,74.0,0.0,26.0,50,0.0,0,0,0,37,37,0,0,0,0,0,37,0,37,25,0,25,0,0,0,0,62,0,0,25,Sadness,Neutral,100.0,11.904761904761903,88.09523809523809,-21,52,38,-58,-60,-81,-45,74.0,30,24.0,85.82281004165156,87.25252928694238,87.25252928694238,87.25252928694238,70.07677050085965,87.25252928694238,81.09899817941398,2.8354379916696875,21.843799635882796,53.339522505319216,37.338281813686024,10.108577726222096,100.0,100.0,28.614849726912094,58.359247515479204
0,Test,ID1,BV01,37,0,7400,0,7400,Undified,Nan,faces\4834147388366515619.png,,,,,30,14.0,4.561552812808832,14.31782106327635,4.123105625617661,32,28,130,163,51,9,130,166,81,18,22,166,163,100,0,0,90,12,-170,-5,12,112,141,86,86,1.470491931683399,39.812058474788756,27.07397274136177,0.0,0.0,0.0,0.0,77.0,0.0,23.0,50,0.0,0,0,0,38,38,0,0,0,0,0,38,0,38,25,0,25,0,0,0,0,64,0,0,25,Sadness,Neutral,100.0,11.494252873563218,88.50574712643679,-22,54,45,-60,-56,-84,-45,77.0,30,16.0,88.04403301853132,83.37529180751805,83.37529180751805,83.37529180751805,67.36270426526264,83.37529180751805,81.83963439255072,2.3911933962937355,21.295926878510144,51.073768513023055,38.92494862883663,10.002403461021341,100.0,100.0,28.275945158882607,58.76763017790294
0,Test,ID1,BV01,38,0,7600,0,7600,Undified,Nan,faces\8419819172108219358.png,,,,,35,14.0,5.0,14.142135623730953,5.0990195135927845,35,36,130,163,51,9,130,166,85,17,20,166,163,100,0,0,92,12,-171,-4,12,112,150,86,87,1.5194813356575871,39.6232255123179,26.0768096208106,0.0,0.0,0.0,0.0,0.0,0.0,100.0,50,0.0,0,0,0,0,0,0,0,0,0,0,0,0,0,25,0,25,0,0,0,0,25,0,0,25,Neutral,Neutral,100.0,0.0,0.0,-5,2,8,21,10,-6,-8,0.0,30,16.0,88.04403301853132,0.0,0.0,83.37529180751805,67.36270426526264,0.0,81.83963439255072,2.3911933962937355,16.367926878510143,5.21735801888812,83.41007702414458,26.40091630055214,100.0,100.0,40.175945158882605,17.391193396293737
0,Test,ID1,BV01,39,0,7800,0,7800,Undified,Nan,faces\-4507320041651913774.png,,,,,27,13.038404810405297,4.0,14.31782106327635,3.64269164289302,30,25,130,163,51,9,130,166,250,15,6,166,163,100,0,0,175,11,-168,-4,11,112,141,86,86,1.398205827534987,37.8549864614954,27.07397274136177,0.0,0.0,0.0,0.0,77.0,0.0,23.0,50,0.0,0,0,0,38,38,0,0,0,0,0,38,0,38,25,0,25,0,0,0,0,64,0,0,25,Sadness,Neutral,80.0,11.494252873563218,88.50574712643679,-23,52,40,-61,-53,-83,-44,77.0,30,24.0,89.89205711007143,87.25252928694238,87.25252928694238,87.25252928694238,70.07677050085965,87.25252928694238,83.94747112730789,2.0215885779857135,22.02549422546158,53.09536768121403,37.618452967759566,10.798713078602926,100.0,100.0,28.942120669096184,58.39802535959491
0,Test,ID1,BV01,40,0,8000,0,8000,Undified,Nan,faces\8523065274121785044.png,,,,,32,14.0,4.5,14.142135623730953,4.611062569605222,32,32,130,163,51,9,130,166,136,15,11,166,163,100,0,0,118,12,-169,-4,13,112,141,86,86,1.470491931683399,39.812058474788756,27.07397274136177,0.0,0.0,0.0,0.0,77.0,0.0,23.0,50,0.0,0,0,0,38,38,0,0,0,0,0,38,0,38,25,0,25,0,0,0,0,64,0,0,25,Sadness,Neutral,100.0,11.494252873563218,88.50574712643679,-25,55,40,-61,-52,-82,-45,77.0,30,16.0,85.82281004165156,83.37529180751805,83.37529180751805,83.37529180751805,67.36270426526264,83.37529180751805,80.28477830873487,2.8354379916696875,21.600955661746976,51.20704189163584,38.86284431756482,10.407479008940197,100.0,100.0,28.742716746310233,59.211874773278886
0,Test,ID1,BV01,41,0,8200,0,8200,Undified,Nan,faces\2617876382997124951.png,,,,,27,14.0,4.0,15.132745950421555,4.061552812808832,28,26,130,163,52,9,130,166,160,16,10,166,163,100,0,0,130,12,-169,-4,11,112,150,86,87,1.427177257724454,38.63935817272331,27.07397274136177,0.0,0.0,0.0,0.0,77.0,0.0,23.0,50,0.0,0,0,0,38,38,0,0,0,0,0,38,0,38,25,0,25,0,0,0,0,64,0,0,25,Sadness,Neutral,100.0,11.494252873563218,88.50574712643679,-25,55,38,-60,-57,-83,-44,77.0,30,16.0,89.89205711007143,83.37529180751805,83.37529180751805,83.37529180751805,67.36270426526264,83.37529180751805,83.1332512566288,2.0215885779857135,21.86265025132576,50.96288706753065,39.24301547163836,10.757614361321032,100.0,100.0,28.819987688494322,58.39802535959491
0,Test,ID1,BV01,42,0,8400,0,8400,Undified,Nan,faces\6333237087881554105.png,,,,,29,14.0,4.5,15.132745950421555,4.0,32,26,131,164,51,8,131,166,180,18,10,166,164,100,0,0,140,13,-171,-4,14,112,150,86,87,1.5572411502397436,40.607881008493905,26.0768096208106,0.0,0.0,0.0,0.0,76.0,0.0,24.0,50,0.0,0,0,0,38,38,0,0,0,0,0,38,0,38,25,0,25,0,0,0,0,63,0,0,25,Sadness,Neutral,100.0,11.627906976744185,88.37209302325581,-28,54,38,-49,-52,-82,-44,76.0,30,8.0,83.3108930788597,79.67034698934616,79.67034698934616,79.67034698934616,64.76924289254231,79.67034698934616,77.74839802296448,3.337821384228059,21.021679604592897,49.32003725940881,40.1188099947694,9.648980505218052,100.0,100.0,28.162259703444672,59.43084464004201
0,Test,ID1,BV01,43,0,8600,0,8600,Undified,Nan,faces\9039948432894869296.png,,,,,30,14.0,4.549509756796391,14.142135623730953,4.123105625617661,32,29,131,164,51,8,131,166,84,16,19,167,164,100,0,0,92,12,-169,-4,13,112,150,86,87,1.4635172270741132,39.6232255123179,27.07397274136177,0.0,0.0,0.0,0.0,0.0,0.0,100.0,50,0.0,0,0,0,0,0,0,0,0,0,0,0,0,0,25,0,25,0,0,0,0,25,0,0,25,Neutral,Neutral,100.0,0.0,0.0,-8,10,5,15,15,-4,-7,0.0,30,16.0,85.82281004165156,0.0,0.0,83.37529180751805,67.36270426526264,0.0,80.28477830873487,2.8354379916696875,16.056955661746976,5.350631397500906,83.34797271287276,26.805991848470995,100.0,100.0,40.642716746310235,17.835437991669686
0,Test,ID1,BV01,44,0,8800,0,8800,Undified,Nan,faces\-8374174301649569837.png,,,,,32,14.035668847618199,4.5,15.132745950421555,5.049509756796391,32,33,131,163,51,9,131,166,100,18,18,166,163,100,0,0,100,12,-170,-5,12,112,141,86,86,1.5798814630224345,39.6232255123179,25.079872407968914,0.0,0.0,0.0,0.0,0.0,0.0,100.0,50,0.0,0,0,0,0,0,0,0,0,0,0,0,0,0,25,0,25,0,0,0,0,25,0,0,25,Neutral,Neutral,100.0,0.0,0.0,-4,7,0,13,14,-5,-8,0.0,30,16.0,88.04403301853132,0.0,0.0,83.37529180751805,67.36270426526264,0.0,81.83963439255072,2.3911933962937355,16.367926878510143,5.21735801888812,83.51007702414458,26.810916300552137,100.0,100.0,40.52594515888261,17.391193396293737
0,Test,ID1,BV01,45,0,9000,0,9000,Undified,Nan,faces\-9168082440093984109.png,,,,,31,14.0,4.5,15.132745950421555,4.549509756796391,32,30,131,163,51,9,131,166,105,18,17,166,163,500,2,0,302,11,-170,-4,13,112,141,86,86,1.5267227492053608,39.812058474788756,26.0768096208106,0.0,0.0,0.0,0.0,77.0,0.0,23.0,50,0.0,0,0,0,38,38,0,0,0,0,0,38,0,38,25,0,25,0,0,0,0,64,0,0,25,Sadness,Neutral,100.0,11.494252873563218,88.50574712643679,-21,46,47,-61,-58,-81,-45,77.0,30,24.0,85.82281004165156,87.25252928694238,87.25252928694238,87.25252928694238,70.07677050085965,87.25252928694238,81.09899817941398,2.8354379916696875,22.071799635882797,53.339522505319216,37.338281813686024,10.858577726222096,100.0,100.0,29.214849726912096,59.211874773278886
0,Test,ID1,BV01,46,0,9200,0,9200,Undified,Nan,faces\2017545844685527107.png,,,,,29,14.0,4.5,15.297058540778355,4.061552812808832,32,26,131,163,51,9,131,166,100,19,19,166,163,100,0,0,100,12,-170,-4,12,112,141,86,86,1.5194813356575871,39.6232255123179,26.0768096208106,0.0,0.0,0.0,0.0,75.0,0.0,25.0,50,0.0,0,0,0,38,38,0,0,0,0,0,38,0,38,25,0,25,0,0,0,0,62,0,0,25,Sadness,Neutral,100.0,11.76470588235294,88.23529411764706,-29,47,42,-58,-50,-84,-44,75.0,30,16.0,88.04403301853132,83.37529180751805,83.37529180751805,83.37529180751805,67.36270426526264,83.37529180751805,81.83963439255072,2.3911933962937355,21.167926878510144,51.073768513023055,38.92494862883663,9.502403461021341,100.0,100.0,27.875945158882608,58.200016925705505
0,Test,ID1,BV01,47,0,9400,0,9400,Undified,Nan,faces\-5257929003096876715.png,,,,,31,14.035668847618199,4.5,15.132745950421555,4.561552812808832,32,30,131,162,51,10,131,166,90,19,21,166,162,100,0,0,95,11,-169,-4,14,112,141,86,86,1.5034135711541916,37.8549864614954,25.179356624028344,0.0,0.0,0.0,0.0,16.0,0.0,84.0,50,0.0,0,0,0,8,8,0,0,0,0,0,8,0,8,25,0,25,0,0,0,0,33,0,0,25,Neutral,Neutral,100.0,0.0,0.0,-2,11,5,18,13,-5,-7,0.0,30,24.0,83.3108930788597,0.0,0.0,87.25252928694238,70.07677050085965,13.960404685910781,79.34065630545969,3.337821384228059,15.86813126109194,13.17956899251935,76.8904104365305,25.524205120017974,100.0,100.0,40.15109844581895,18.337821384228057
0,Test,ID1,BV01,48,0,9600,0,9600,Undified,Nan,faces\4374152778174006947.png,,,,,30,13.0,4.549509756796391,15.132745950421555,4.061552812808832,34,26,132,163,50,9,132,166,94,17,18,166,163,100,0,0,97,11,-171,-4,15,112,141,86,86,1.5194813356575871,39.6232255123179,26.0768096208106,0.0,0.0,0.0,0.0,73.0,0.0,27.0,50,0.0,0,0,0,36,36,0,0,0,0,0,36,0,36,25,0,25,0,0,0,0,62,0,0,25,Sadness,Neutral,100.0,12.048192771084338,87.95180722891565,-22,53,47,-53,-61,-83,-45,73.0,30,24.0,80.2071718606894,87.25252928694238,87.25252928694238,87.25252928694238,70.07677050085965,87.25252928694238,77.16805145274047,3.95856562786212,20.397610290548094,53.67646079617695,36.4756365083325,7.989576514018369,100.0,100.0,27.125207717911074,59.19651743509103
0,Test,ID1,BV01,49,0,9800,0,9800,Undified,Nan,faces\-1270264266416508731.png,,,,,22,12.041594578792296,2.5,10.04987562112089,2.5,20,24,470,162,39,5,470,163,100,0,1,498,162,54,6,11,77,9,162,0,-2,453,141,72,72,1.8402666843826088,46.04345773288535,25.019992006393608,0.0,0.0,68.0,0.0,7.0,0.0,25.0,50,0.0,0,34,68,4,4,0,0,0,34,0,38,0,4,25,0,25,0,0,34,0,28,0,0,59,Fear,Neutral,100.0,12.82051282051282,87.17948717948718,-36,94,3,-46,78,0,0,75.0,30,40.0,98.12826950307297,95.55630362682842,95.55630362682842,95.55630362682842,75.8894125387799,95.55630362682842,91.45661241378505,0.37434609938540575,48.29132248275701,57.16827082457126,43.4110445817215,45.95525756161841,72.8,100.0,51.91849186206776,55.9192178942572
0,Test,ID1,BV01,50,0,10000,0,10000,Undified,Nan,faces\-2713933591095367598.png,,,,,27,14.035668847618199,4.061552812808832,15.132745950421555,4.061552812808832,28,26,132,163,51,9,132,166,93,15,16,167,163,100,0,0,96,11,-169,-4,12,112,141,86,86,1.393461308161864,37.8549864614954,27.166155414412252,0.0,0.0,0.0,0.0,37.0,0.0,63.0,50,0.0,0,0,0,18,18,0,0,0,0,0,18,0,18,25,0,25,0,0,0,0,44,0,0,25,Neutral,Neutral,100.0,0.0,0.0,-8,11,5,17,11,-4,-9,0.0,30,24.0,88.04403301853132,0.0,0.0,87.25252928694238,70.07677050085965,32.28343583616868,82.65385426322982,2.3911933962937355,16.530770852645965,22.973247728780894,69.48678724329827,26.01214229013728,100.0,100.0,40.99807813948447,17.391193396293737
0,Test,ID1,BV01,51,0,10200,0,10200,Undified,Nan,faces\5968171560999067139.png,,,,,19,12.041594578792296,2.0,11.04536101718726,2.5,16,22,476,163,39,4,476,163,100,0,0,503,163,80,8,10,90,9,164,0,-7,461,141,72,72,1.8266044815304352,42.01190307520001,23.0,0.0,0.0,51.0,2.0,6.0,0.0,41.0,50,0.0,1,26,51,3,3,0,0,0,26,0,28,0,3,25,1,25,1,0,26,0,28,1,0,50,Fear,Neutral,100.0,16.39344262295082,83.60655737704919,-41,90,1,-40,72,0,0,59.0,30,40.0,95.19608139876723,95.55630362682842,95.55630362682842,95.55630362682842,75.8894125387799,95.55630362682842,89.40408074077104,0.9607837202465532,41.480816148154204,57.3442021108296,43.065046385413424,41.4075248237341,79.6,100.0,50.11061211111565,51.612423064508846
0,Test,ID1,BV01,52,0,10400,0,10400,Undified,Nan,faces\-1310670674833776909.png,,,,,19,11.0,2.118033988749895,10.04987562112089,2.0,19,19,478,162,38,4,478,162,100,0,0,505,163,133,4,3,116,9,164,1,-7,461,141,72,72,1.7905974332917265,43.01162633521314,24.020824298928627,69.0,0.0,1.0,2.0,0.0,0.0,29.0,50,0.0,1,0,1,0,0,34,0,0,2,0,0,0,34,25,36,25,1,0,0,34,25,1,0,26,Anger,Neutral,100.0,12.658227848101266,87.34177215189874,-37,77,34,-53,92,-45,62,72.0,30,40.0,95.19608139876723,0.0,0.0,95.55630362682842,75.8894125387799,95.55630362682842,89.40408074077104,56.160783720246556,33.720816148154206,73.9042021108296,25.317046385413427,24.8827248237341,92.7,31.0,28.160612111115654,55.79622675822124
0,Test,ID1,BV01,53,0,10600,0,10600,Undified,Nan,faces\-8883332410979756858.png,,,,,25,13.038404810405297,3.5,15.132745950421555,3.64269164289302,26,24,135,162,52,8,135,165,128,9,7,171,162,100,0,0,114,13,-175,-5,22,112,146,103,104,1.6847634693327882,50.99019513592785,30.265491900843116,0.0,0.0,0.0,0.0,0.0,0.0,100.0,50,0.0,0,0,0,0,0,0,0,0,0,0,0,0,0,25,0,25,0,0,0,0,25,0,0,25,Neutral,Neutral,80.0,0.0,0.0,-6,6,-1,18,13,-6,-8,0.0,30,8.0,50.00624703467075,0.0,0.0,79.67034698934616,64.76924289254231,0.0,54.435145792032216,9.99875059306585,10.887029158406444,7.499625177919755,78.84381443686743,19.093167891694797,100.0,100.0,36.06527186880483,24.99875059306585
0,Test,ID1,BV01,54,0,10800,0,10800,Undified,Nan,faces\-6849007983394269838.png,,,,,30,12.041594578792296,4.0,13.038404810405297,3.58113883008419,33,27,136,161,49,9,136,164,150,12,8,171,161,100,0,0,125,13,-172,-5,23,112,146,103,104,1.7825955959845543,51.97114584074514,29.154759474226502,0.0,0.0,0.0,0.0,0.0,0.0,100.0,50,0.0,0,0,0,0,0,0,0,0,0,0,0,0,0,25,0,25,0,0,0,0,25,0,0,25,Neutral,Neutral,100.0,0.0,0.0,-1,13,4,23,13,-4,-8,0.0,30,8.0,45.01395464879853,0.0,0.0,79.67034698934616,64.76924289254231,0.0,50.94054112192166,10.997209070240295,10.188108224384333,7.799162721072088,78.45472393533448,18.980607674013864,100.0,100.0,36.24108116828825,25.997209070240295
0,Test,ID1,BV01,55,0,11000,0,11000,Undified,Nan,faces\402828847710206427.png,,,,,34,13.038404810405297,4.549509756796391,13.038404810405297,4.611062569605222,34,35,136,161,51,9,136,164,155,14,9,173,161,500,2,0,327,14,-175,-5,-42,112,146,103,104,1.7902513789968155,50.635955604688654,28.284271247461906,0.0,0.0,0.0,0.0,0.0,0.0,100.0,50,0.0,0,0,0,0,0,0,0,0,0,0,0,0,0,25,0,25,0,0,0,0,25,0,0,25,Neutral,Neutral,100.0,0.0,0.0,0,4,7,13,9,-7,-8,0.0,30,0.0,1.813936298265547,0.0,0.0,76.13003866968737,62.291027068781155,0.0,19.95706352942023,19.637212740346893,3.991412705884046,10.391163822104069,72.98277529525878,9.487543411880935,100.0,100.0,30.543559529413034,34.6372127403469
0,Test,ID1,BV01,56,0,11200,0,11200,Undified,Nan,faces\-1856514525538816705.png,,,,,29,13.038404810405297,4.061552812808832,14.035668847618199,4.061552812808832,31,28,137,161,51,9,137,164,166,15,9,173,161,100,0,0,133,12,-176,-5,-46,112,146,103,104,1.9300259065618783,54.589376255824725,28.284271247461906,0.0,0.0,0.0,0.0,0.0,0.0,100.0,50,0.0,0,0,0,0,0,0,0,0,0,0,0,0,0,25,0,25,0,0,0,0,25,0,0,25,Neutral,Neutral,100.0,0.0,0.0,0,9,3,20,19,-5,-8,0.0,30,16.0,0.8748948473948897,0.0,0.0,83.37529180751805,67.36270426526264,0.0,20.821237672755213,19.825021030521025,4.164247534551043,10.447506309156307,73.22411871995047,10.527721290183852,100.0,100.0,31.373185650913282,34.82502103052103
0,Test,ID1,BV01,57,0,11400,0,11400,Undified,Nan,faces\4939470752859337288.png,,,,,33,13.0,4.5,14.035668847618199,4.611062569605222,34,32,138,161,51,8,138,163,275,11,4,174,161,100,0,0,187,12,-170,-3,12,121,141,87,86,1.5545235844443777,40.44749683231337,26.019223662515373,71.0,0.0,0.0,0.0,0.0,0.0,29.0,50,0.0,0,0,0,0,0,36,0,0,0,0,0,0,36,25,36,25,0,0,0,36,25,0,0,25,Anger,Neutral,100.0,12.345679012345679,87.65432098765432,-39,79,30,-53,90,-43,63,71.0,30,16.0,88.04403301853132,0.0,0.0,83.37529180751805,67.36270426526264,83.37529180751805,81.83963439255072,59.19119339629374,32.55592687851014,68.11376851302306,29.392948628836624,23.949203461021344,92.9,29.0,27.225945158882617,57.05477364320732
0,Test,ID1,BV01,58,0,11600,0,11600,Undified,Nan,faces\4533498240922302108.png,,,,,32,14.0,4.5,14.035668847618199,4.611062569605222,32,32,138,160,51,8,138,162,566,17,3,174,160,100,0,0,333,12,-172,-4,10,121,141,87,86,1.5304993879563584,41.43669871020132,27.07397274136177,57.0,14.0,0.0,0.0,0.0,0.0,29.0,50,30.0,15,15,0,0,7,36,0,0,0,15,0,7,28,32,28,40,0,0,7,28,25,7,0,25,Anger,Neutral,100.0,14.925373134328357,85.07462686567165,-43,83,29,-57,95,-44,63,71.0,30,16.0,91.70251523267711,0.0,0.0,83.37529180751805,67.36270426526264,83.37529180751805,84.40057194245276,58.45949695346458,32.78411438849055,67.8942595801743,29.724649530105836,24.22260793862377,87.3,29.0,27.26008579136792,55.678153669882484
0,Test,ID1,BV01,59,0,11800,0,11800,Undified,Nan,faces\-8272284756379356028.png,,,,,31,13.0,4.5,14.035668847618199,4.123105625617661,34,29,139,159,50,8,139,161,210,21,10,174,159,100,0,0,155,11,-172,-3,13,121,141,87,86,1.5702717677706413,42.42640687119285,27.018512172212592,61.0,0.0,0.0,0.0,0.0,0.0,39.0,50,0.0,0,0,0,0,0,30,0,0,0,0,0,0,30,25,30,25,0,0,0,30,25,0,0,25,Anger,Neutral,100.0,14.084507042253522,85.91549295774648,-39,79,35,-57,94,-44,64,61.0,30,24.0,85.82281004165156,0.0,0.0,87.25252928694238,70.07677050085965,87.25252928694238,81.09899817941398,51.63543799166969,29.883799635882795,67.97952250531921,29.32628181368603,20.857377726222094,93.9,39.0,26.764849726912104,54.56431123110631
0,Test,ID1,BV01,60,0,12000,0,12000,Undified,Nan,faces\5255307793823932288.png,,,,,30,14.0,4.561552812808832,14.035668847618199,4.061552812808832,32,28,139,159,51,7,139,160,237,19,8,175,159,100,0,0,168,12,-174,-4,4,121,141,87,86,1.5989423516590766,43.289721643826724,27.07397274136177,0.0,0.0,0.0,0.0,77.0,0.0,23.0,50,0.0,0,0,0,38,38,0,0,0,0,0,38,0,38,25,0,25,0,0,0,0,64,0,0,25,Sadness,Neutral,100.0,11.494252873563218,88.50574712643679,-26,53,47,-49,-61,-82,-43,77.0,30,16.0,97.35646290455144,83.37529180751805,83.37529180751805,83.37529180751805,67.36270426526264,83.37529180751805,88.35833531276478,0.528707419089713,23.215667062552956,50.51502271986185,40.223815355387,12.561965363729891,100.0,100.0,29.953750296914716,56.90514420069891
0,Test,ID1,BV01,61,0,12200,0,12200,Undified,Nan,faces\6496747603592485395.png,,,,,30,14.0,4.5,14.035668847618199,4.061552812808832,32,28,140,158,49,7,140,159,130,17,13,174,158,500,2,0,315,11,-176,-3,-25,121,141,87,86,1.5983724598941091,43.18564576337836,27.018512172212592,0.0,0.0,0.0,0.0,62.0,0.0,38.0,50,0.0,0,0,0,31,31,0,0,0,0,0,31,0,31,25,0,25,0,0,0,0,56,0,0,25,Sadness,Neutral,100.0,13.88888888888889,86.11111111111111,-23,51,47,-51,-52,-83,-44,62.0,30,24.0,35.438787439142686,87.25252928694238,87.25252928694238,87.25252928694238,70.07677050085965,87.25252928694238,45.830182357657776,12.912242512171463,13.382036471531556,56.36256386146975,31.192967146589975,-3.1231576959265612,100.0,100.0,20.224527353648668,64.94002028994925
0,Test,ID1,BV01,62,0,12400,0,12400,Undified,Nan,faces\2886907450658308649.png,,,,,25,13.0,3.5,12.041594578792296,3.0,26,24,477,170,41,5,477,170,66,2,3,505,170,22,2,9,44,10,170,0,-2,461,149,72,72,1.6805597728613355,42.04759208325728,25.019992006393608,58.0,1.0,9.0,0.0,0.0,0.0,32.0,50,0.0,0,4,9,0,0,30,0,0,4,0,4,0,29,26,29,25,0,0,5,29,25,0,0,30,Anger,Neutral,100.0,14.705882352941178,85.29411764705883,-40,77,31,-55,98,-42,64,68.0,30,32.0,98.12826950307297,0.0,0.0,91.31007162822623,72.91705013975835,91.31007162822623,90.56490369407858,47.57434609938541,33.88898073881572,68.99284322534005,29.662215789135818,25.807447502433224,90.1,41.0,29.784735554111784,53.697875511150116
0,Test,ID1,BV01,63,0,12600,0,12600,Undified,Nan,faces\-242018912012314502.png,,,,,25,14.035668847618199,4.061552812808832,14.035668847618199,3.1622776601683795,28,22,139,160,51,6,139,161,250,20,8,175,160,100,0,0,175,11,-174,-3,-5,121,141,87,86,1.3853663432421488,40.19950248448356,29.017236257093817,0.0,0.0,0.0,0.0,77.0,0.0,23.0,50,0.0,0,0,0,38,38,0,0,0,0,0,38,0,38,25,0,25,0,0,0,0,64,0,0,25,Sadness,Neutral,100.0,11.494252873563218,88.50574712643679,-24,51,46,-57,-52,-83,-45,77.0,30,24.0,96.77064550110329,87.25252928694238,87.25252928694238,87.25252928694238,70.07677050085965,87.25252928694238,88.76248300103019,0.6458708997793423,22.98849660020604,52.68265237775211,38.43012639790133,12.083633390047682,100.0,100.0,29.66437245015453,57.02230768138854
0,Test,ID1,BV01,64,0,12800,0,12800,Undified,Nan,faces\-5224955344765041379.png,,,,,23,14.035668847618199,3.5,14.0,3.08113883008419,24,22,135,159,50,5,135,159,122,11,9,170,159,100,0,0,111,13,-176,-3,-1,112,135,103,103,1.457336386848583,45.17742799230607,31.0,0.0,0.0,0.0,0.0,60.0,0.0,40.0,50,0.0,0,0,0,30,30,0,0,0,0,0,30,0,30,25,0,25,0,0,0,0,55,0,0,25,Sadness,Neutral,100.0,14.285714285714285,85.71428571428571,-30,53,47,-53,-59,-81,-43,60.0,30,8.0,98.51916908265252,79.67034698934616,79.67034698934616,79.67034698934616,64.76924289254231,79.67034698934616,88.39419122561947,0.2961661834694951,22.238838245123894,48.40754069918124,42.01338656321696,8.899886462726563,100.0,100.0,26.90912868384292,51.724737612040926
0,Test,ID1,BV01,65,0,13000,0,13000,Undified,Nan,faces\7324466680055053914.png,,,,,24,14.035668847618199,4.061552812808832,14.035668847618199,3.0,28,21,133,157,50,7,133,158,146,19,13,168,157,100,0,0,123,10,-173,-4,-7,112,141,86,86,1.3829049264150295,40.19950248448356,29.068883707497267,0.0,0.0,0.0,0.0,0.0,0.0,100.0,50,0.0,0,0,0,0,0,0,0,0,0,0,0,0,0,25,0,25,0,0,0,0,25,0,0,25,Neutral,Neutral,100.0,0.0,0.0,-7,5,9,16,15,-7,-8,0.0,30,32.0,95.25297182181426,0.0,0.0,91.31007162822623,72.91705013975835,0.0,88.55219531719747,0.9494056356371487,17.710439063439495,4.784821690691144,84.32736217916683,27.77078504721605,100.0,100.0,40.83282929757962,15.949405635637149
0,Test,ID1,BV01,66,0,13200,0,13200,Undified,Nan,faces\4211594150873746804.png,,,,,28,14.035668847618199,4.123105625617661,15.0,4.061552812808832,29,27,135,157,51,7,135,158,110,22,20,170,157,500,2,0,305,13,-176,-3,4,112,135,103,103,1.6525336144656106,46.2709412050371,28.0,0.0,0.0,0.0,0.0,0.0,0.0,100.0,50,0.0,0,0,0,0,0,0,0,0,0,0,0,0,0,25,0,25,0,0,0,0,25,0,0,25,Neutral,Neutral,100.0,0.0,0.0,-2,7,8,15,18,-4,-6,0.0,30,8.0,97.35646290455144,0.0,0.0,79.67034698934616,64.76924289254231,0.0,87.5802969009487,0.528707419089713,17.51605938018974,4.658612225726914,84.63113990951334,28.758188216188508,100.0,100.0,41.7370445351423,15.528707419089713
0,Test,ID1,BV01,67,0,13400,0,13400,Undified,Nan,faces\-4045229636382720350.png,,,,,30,14.0,4.549509756796391,14.035668847618199,4.061552812808832,32,28,138,157,51,7,138,158,146,19,13,174,157,500,3,0,323,13,-175,-2,9,112,135,103,103,1.5569169852025997,45.17742799230607,29.017236257093817,0.0,0.0,0.0,0.0,77.0,0.0,23.0,50,0.0,0,0,0,38,38,0,0,0,0,0,38,0,38,25,0,25,0,0,0,0,64,0,0,25,Sadness,Neutral,100.0,11.494252873563218,88.50574712643679,-29,55,38,-56,-52,-84,-43,77.0,30,8.0,93.14456644105735,79.67034698934616,79.67034698934616,79.67034698934616,64.76924289254231,79.67034698934616,84.63196937650284,1.3710867117885301,21.85439387530057,48.73001685767695,41.07918345150873,10.915910689276583,100.0,100.0,28.69479540647542,57.74752349339773
0,Test,ID1,BV01,68,0,13600,0,13600,Undified,Nan,faces\-8725960314369553844.png,,,,,31,13.0,4.5,14.035668847618199,4.0,34,28,140,157,50,7,140,158,127,14,11,175,157,100,0,0,113,12,-176,-3,-35,121,141,87,86,1.6686663765191387,45.17742799230607,27.07397274136177,0.0,0.0,0.0,0.0,75.0,0.0,25.0,50,0.0,0,0,0,38,38,0,0,0,0,0,38,0,38,25,0,25,0,0,0,0,62,0,0,25,Sadness,Neutral,100.0,11.76470588235294,88.23529411764706,-28,45,48,-49,-53,-81,-43,75.0,30,16.0,6.726507822769734,83.37529180751805,83.37529180751805,83.37529180751805,67.36270426526264,83.37529180751805,24.9173667555176,18.654698435446054,10.68347335110352,55.95282002476875,29.629480655736764,-4.45771024554692,100.0,100.0,20.38760501332764,74.46352196485782
0,Test,ID1,BV01,69,0,13800,0,13800,Undified,Nan,faces\155599313150398415.png,,,,,27,14.0,4.0,15.033296378372908,4.0,28,26,139,157,51,7,139,159,200,20,10,174,157,100,0,0,150,11,-175,-3,13,121,141,87,86,1.6686663765191387,45.17742799230607,27.07397274136177,0.0,0.0,0.0,0.0,1.0,0.0,99.0,50,0.0,0,0,0,0,0,0,0,0,0,0,0,0,0,25,0,25,0,0,0,0,26,0,0,25,Neutral,Neutral,80.0,0.0,0.0,-5,12,4,23,18,-5,-9,0.0,30,24.0,85.82281004165156,0.0,0.0,87.25252928694238,70.07677050085965,0.8725252928694238,81.09899817941398,2.8354379916696875,16.219799635882797,5.830520308579089,82.94548357107813,26.569297901961306,100.0,100.0,40.414849726912095,17.835437991669686
0,Test,ID1,BV01,70,0,14000,0,14000,Undified,Nan,faces\3830716962574598122.png,,,,,26,13.038404810405297,4.061552812808832,14.035668847618199,3.0,31,21,138,158,51,6,138,159,375,15,4,174,158,100,0,0,237,13,-175,-4,11,112,135,103,103,1.698182419356579,44.28317965096907,26.0768096208106,0.0,0.0,0.0,0.0,0.0,0.0,100.0,50,0.0,0,0,0,0,0,0,0,0,0,0,0,0,0,25,0,25,0,0,0,0,25,0,0,25,Neutral,Neutral,80.0,0.0,0.0,-4,8,4,10,17,-4,-8,0.0,30,8.0,89.89205711007143,0.0,0.0,79.67034698934616,64.76924289254231,0.0,82.35521284481268,2.0215885779857135,16.471042568962538,5.106476573395714,83.7503400257647,27.36383721377964,100.0,100.0,40.95328192672191,17.021588577985714
0,Test,ID1,BV01,71,0,14200,0,14200,Undified,Nan,faces\1476152618019335614.png,,,,,31,13.038404810405297,4.611062569605222,14.035668847618199,4.061552812808832,35,28,137,157,51,7,137,158,93,15,16,173,157,100,0,0,96,12,-175,-3,10,112,135,103,103,1.6401177648507062,44.28317965096907,27.0,0.0,0.0,0.0,0.0,0.0,0.0,100.0,50,0.0,0,0,0,0,0,0,0,0,0,0,0,0,0,25,0,25,0,0,0,0,25,0,0,25,Neutral,Neutral,80.0,0.0,0.0,-6,10,5,23,18,-5,-9,0.0,30,16.0,91.70251523267711,0.0,0.0,83.37529180751805,67.36270426526264,0.0,84.40057194245276,1.6594969534645772,16.88011438849055,4.997849086039373,83.94177792541377,27.494320778154567,100.0,100.0,40.91008579136791,16.659496953464576
0,Test,ID1,BV01,72,0,14400,0,14400,Undified,Nan,faces\3946990336022933234.png,,,,,31,13.0,4.549509756796391,14.035668847618199,4.061552812808832,34,28,138,157,50,8,138,159,133,20,15,173,157,100,0,0,116,12,-174,-4,10,112,135,103,103,1.5989423516590766,43.289721643826724,27.07397274136177,0.0,0.0,0.0,0.0,0.0,0.0,100.0,50,0.0,0,0,0,0,0,0,0,0,0,0,0,0,0,25,0,25,0,0,0,0,25,0,0,25,Neutral,Neutral,100.0,0.0,0.0,-4,8,2,22,12,-6,-10,0.0,30,16.0,91.70251523267711,0.0,0.0,83.37529180751805,67.36270426526264,0.0,84.40057194245276,1.6594969534645772,16.88011438849055,4.997849086039373,83.84177792541378,27.08432077815457,100.0,100.0,40.56008579136791,16.659496953464576
0,Test,ID1,BV01,73,0,14600,0,14600,Undified,Nan,faces\5679500449807079634.png,,,,,32,14.0,4.5,15.033296378372908,5.0990195135927845,32,33,138,157,51,8,138,159,271,19,7,173,157,100,0,0,185,13,-179,-3,-12,112,135,103,103,1.659759196643281,43.18564576337836,26.019223662515373,0.0,0.0,0.0,0.0,0.0,0.0,100.0,50,0.0,0,0,0,0,0,0,0,0,0,0,0,0,0,25,0,25,0,0,0,0,25,0,0,25,Neutral,Neutral,100.0,0.0,0.0,-4,10,6,16,19,-7,-8,0.0,30,8.0,88.06960391333077,0.0,0.0,79.67034698934616,64.76924289254231,0.0,81.07949560709423,2.386079217333847,16.215899121418847,5.215823765200154,83.2352905485493,25.793402956628487,100.0,100.0,39.71192434106413,17.386079217333847
0,Test,ID1,BV01,74,0,14800,0,14800,Undified,Nan,faces\-789710368566702044.png,,,,,32,14.0,4.561552812808832,14.142135623730953,4.549509756796391,32,32,139,157,50,8,139,159,166,20,12,174,157,500,5,0,333,12,-177,-4,-8,121,141,87,86,1.6147299901768315,42.1070065428546,26.0768096208106,0.0,0.0,0.0,0.0,0.0,0.0,100.0,50,0.0,0,0,0,0,0,0,0,0,0,0,0,0,0,25,0,25,0,0,0,0,25,0,0,25,Neutral,Neutral,100.0,0.0,0.0,-8,13,0,16,12,-7,-8,0.0,30,16.0,94.29151627079587,0.0,0.0,83.37529180751805,67.36270426526264,0.0,86.21287266913589,1.1416967458408267,17.242574533827177,4.842509023752248,84.04728004791178,27.15794617207515,100.0,100.0,40.481930900370386,16.141696745840825
0,Test,ID1,BV01,75,0,15000,0,15000,Undified,Nan,faces\-6998984957032389136.png,,,,,29,14.035668847618199,4.561552812808832,15.033296378372908,4.0,32,26,139,160,52,7,139,161,166,20,12,175,160,100,0,0,133,11,-173,-2,5,121,141,87,86,1.5416425470853323,40.11234224026316,26.019223662515373,71.0,0.0,0.0,0.0,0.0,0.0,29.0,50,0.0,0,0,0,0,0,36,0,0,0,0,0,0,36,25,36,25,0,0,0,36,25,0,0,25,Anger,Neutral,100.0,12.345679012345679,87.65432098765432,-46,79,27,-61,92,-44,65,71.0,30,24.0,96.7900815021862,0.0,0.0,87.25252928694238,70.07677050085965,87.25252928694238,88.77608820178823,57.44198369956276,33.659217640357646,69.72148621768714,28.700419846029114,25.214064035049972,92.9,29.0,27.91641323026824,55.30556394647634
0,Test,ID1,BV01,76,0,15200,0,15200,Undified,Nan,faces\6165346706430304094.png,,,,,32,14.0,4.561552812808832,14.035668847618199,4.549509756796391,32,32,139,159,51,8,139,161,208,25,12,175,159,100,0,0,154,11,-174,-3,4,121,141,87,86,1.5832393918593002,41.19465984809196,26.019223662515373,45.0,0.0,0.0,0.0,0.0,0.0,55.0,50,0.0,0,0,0,0,0,22,0,0,0,0,0,0,22,25,22,25,0,0,0,22,25,0,0,25,Neutral,Neutral,100.0,0.0,0.0,-1,8,4,14,10,-4,-8,0.0,30,24.0,97.35646290455144,0.0,0.0,87.25252928694238,70.07677050085965,39.263638179124065,89.17255518344389,36.52870741908971,17.834511036688777,37.053613224245154,58.87436493894827,26.5805752897558,95.5,55.0,32.97588327751659,15.528707419089713
0,Test,ID1,BV01,77,0,15400,0,15400,Undified,Nan,faces\-7051468858815689687.png,,,,,26,14.0,4.0,14.035668847618199,3.64269164289302,28,25,139,159,50,7,139,160,175,21,12,174,159,100,0,0,137,12,-175,-3,4,121,141,87,86,1.5215594786042452,41.19465984809196,27.07397274136177,33.0,0.0,0.0,0.0,0.0,0.0,67.0,50,0.0,0,0,0,0,0,16,0,0,0,0,0,0,16,25,16,25,0,0,0,16,25,0,0,25,Neutral,Neutral,100.0,0.0,0.0,0,4,4,11,11,-7,-8,0.0,30,16.0,97.35646290455144,0.0,0.0,83.37529180751805,67.36270426526264,27.513846296480956,88.35833531276478,26.928707419089715,17.671667062552956,27.71122768879144,65.96685138024333,25.88626896621553,96.7,67.0,34.20375029691472,15.528707419089713
0,Test,ID1,BV01,78,0,15600,0,15600,Undified,Nan,faces\-6240911788484974700.png,,,,,29,14.0,4.5,15.132745950421555,4.0,32,26,138,159,51,7,138,160,146,19,13,173,159,100,0,0,123,12,-173,-3,6,121,141,87,86,1.4713852722143648,41.303752856126756,28.071337695236398,52.0,0.0,0.0,0.0,0.0,0.0,48.0,50,0.0,0,0,0,0,0,26,0,0,0,0,0,0,26,25,26,25,0,0,0,26,25,0,0,25,Anger,Neutral,100.0,16.129032258064516,83.87096774193549,-45,73,32,-53,97,-42,63,52.0,30,16.0,96.05352445959049,0.0,0.0,83.37529180751805,67.36270426526264,83.37529180751805,87.44627840129212,42.3892951080819,29.553255680258424,63.07319902655951,34.086068618881605,21.47017646221119,94.8,48.0,28.41694176019382,49.757037043565774
0,Test,ID1,BV01,79,0,15800,0,15800,Undified,Nan,faces\-8529427222184964244.png,,,,,29,14.0,4.061552812808832,14.035668847618199,4.123105625617661,29,29,139,159,50,7,139,160,118,19,16,174,159,100,0,0,109,12,-175,-4,-14,121,141,87,86,1.5797430915481534,41.19465984809196,26.0768096208106,55.0,0.0,0.0,0.0,0.0,0.0,45.0,50,0.0,0,0,0,0,0,28,0,0,0,0,0,0,28,25,28,25,0,0,0,28,25,0,0,25,Anger,Neutral,100.0,15.384615384615385,84.61538461538461,-44,73,30,-56,88,-42,65,55.0,30,16.0,83.22837744143138,0.0,0.0,83.37529180751805,67.36270426526264,83.37529180751805,78.46867548858074,47.35432451171373,28.453735097716148,64.56270784764905,31.996701270738836,19.76683899921907,94.5,45.0,27.07030132328711,53.25817066555988
0,Test,ID1,BV01,80,0,16000,0,16000,Undified,Nan,faces\6615765053291522030.png,,,,,30,14.0,4.561552812808832,14.035668847618199,4.123105625617661,32,29,139,159,51,8,139,161,191,23,12,175,159,100,0,0,145,11,-172,-3,4,121,141,87,86,1.5415805487340886,40.19950248448356,26.0768096208106,0.0,0.0,0.0,0.0,56.0,0.0,44.0,50,0.0,0,0,0,28,28,0,0,0,0,0,28,0,28,25,0,25,0,0,0,0,53,0,0,25,Sadness,Neutral,80.0,15.151515151515152,84.84848484848484,-26,45,46,-51,-58,-82,-45,56.0,30,24.0,97.35646290455144,87.25252928694238,87.25252928694238,87.25252928694238,70.07677050085965,87.25252928694238,89.17255518344389,0.528707419089713,21.866511036688777,52.647503333545224,38.59925285150821,7.3530640810117855,100.0,100.0,25.87588327751659,50.740828631210924
0,Test,ID1,BV01,81,0,16200,0,16200,Undified,Nan,faces\-6500384588877537827.png,,,,,26,14.0,3.58113883008419,14.035668847618199,4.0,25,28,142,160,50,7,142,162,242,17,7,177,160,100,0,0,171,12,-174,-3,-24,121,141,87,86,1.5033198122497125,39.11521443121589,26.019223662515373,0.0,0.0,0.0,0.0,77.0,0.0,23.0,50,0.0,0,0,0,38,38,0,0,0,0,0,38,0,38,25,0,25,0,0,0,0,64,0,0,25,Sadness,Neutral,100.0,11.494252873563218,88.50574712643679,-25,54,40,-60,-54,-82,-45,77.0,30,16.0,39.885022209297986,83.37529180751805,83.37529180751805,83.37529180751805,67.36270426526264,83.37529180751805,48.128326826087374,12.022995558140403,15.169665365217476,53.96330916157706,33.442185353347085,1.826300241856548,100.0,100.0,23.919249023913107,68.39943233974961
0,Test,ID1,BV01,82,0,16400,0,16400,Undified,Nan,faces\3663809287646589227.png,,,,,27,14.035668847618199,4.0,15.033296378372908,4.123105625617661,28,27,144,161,50,7,144,162,450,18,4,178,161,100,0,0,275,12,-172,-2,6,121,141,87,86,1.5033198122497125,39.11521443121589,26.019223662515373,0.0,0.0,0.0,0.0,77.0,0.0,23.0,50,0.0,0,0,0,38,38,0,0,0,0,0,38,0,38,25,0,25,0,0,0,0,64,0,0,25,Sadness,Neutral,100.0,11.494252873563218,88.50574712643679,-22,54,42,-56,-62,-83,-46,77.0,30,16.0,96.05352445959049,83.37529180751805,83.37529180751805,83.37529180751805,67.36270426526264,83.37529180751805,87.44627840129212,0.7892951080819017,22.725255680258424,50.5931990265595,39.97006861888161,11.908576462211188,100.0,100.0,29.46694176019382,57.1657318896911
0,Test,ID1,BV01,83,0,16600,0,16600,Undified,Nan,faces\4197837510304687165.png,,,,,27,14.035668847618199,4.0,15.033296378372908,4.061552812808832,28,27,143,161,52,7,143,162,1050,21,2,179,161,100,0,0,575,12,-173,-3,-22,121,141,87,86,1.48462439325275,40.11234224026316,27.018512172212592,0.0,0.0,0.0,0.0,75.0,0.0,25.0,50,0.0,0,0,0,38,38,0,0,0,0,0,38,0,38,25,0,25,0,0,0,0,62,0,0,25,Sadness,Neutral,100.0,11.76470588235294,88.23529411764706,-24,49,43,-50,-57,-84,-44,75.0,30,16.0,50.041143876235985,83.37529180751805,83.37529180751805,83.37529180751805,67.36270426526264,83.37529180751805,55.237611992943975,9.991771224752803,15.847522398588797,53.35394186156078,34.44060771004578,2.4034637692405725,100.0,100.0,23.8856417989416,65.80059475416456
0,Test,ID1,BV01,84,0,16800,0,16800,Undified,Nan,faces\7526326731758244127.png,,,,,31,15.0,4.561552812808832,14.035668847618199,4.561552812808832,30,32,142,160,52,8,142,162,633,19,3,179,160,100,0,0,366,12,-171,-3,3,121,141,87,86,1.4316708869926846,40.11234224026316,28.0178514522438,55.0,0.0,0.0,0.0,0.0,0.0,45.0,50,0.0,0,0,0,0,0,28,0,0,0,0,0,0,28,25,28,25,0,0,0,28,25,0,0,25,Anger,Neutral,100.0,15.384615384615385,84.61538461538461,-44,81,28,-59,94,-43,63,55.0,30,16.0,97.80867485429361,0.0,0.0,83.37529180751805,67.36270426526264,83.37529180751805,88.67488367758432,44.43826502914128,30.274976735516866,63.68789000287732,33.61717636545658,22.08043855594174,94.5,45.0,28.25123255163765,50.34211118298743
0,Test,ID1,BV01,85,0,17000,0,17000,Undified,Nan,faces\1586626034870543694.png,,,,,27,14.035668847618199,4.0,15.132745950421555,4.061552812808832,28,26,142,161,51,7,142,163,600,12,2,177,161,100,0,0,350,13,-170,-4,6,121,141,87,86,1.4185657429683292,38.3275357934736,27.018512172212592,0.0,0.0,0.0,0.0,77.0,0.0,23.0,50,0.0,0,0,0,38,38,0,0,0,0,0,38,0,38,25,0,25,0,0,0,0,64,0,0,25,Sadness,Neutral,100.0,11.494252873563218,88.50574712643679,-27,49,42,-55,-52,-82,-45,77.0,30,8.0,96.05352445959049,79.67034698934616,79.67034698934616,79.67034698934616,64.76924289254231,79.67034698934616,86.66823998947604,0.7892951080819017,22.87764799789521,48.55547937656496,41.622440497695635,12.279304047138568,100.0,100.0,29.7002359984214,57.1657318896911
0,Test,ID1,BV01,86,0,17200,0,17200,Undified,Nan,faces\-645259845188111843.png,,,,,22,13.038404810405297,3.5,15.033296378372908,3.0,26,19,142,161,51,7,142,163,500,10,0,177,161,100,0,0,300,12,-173,-4,6,121,141,87,86,1.5415805487340886,40.19950248448356,26.0768096208106,0.0,0.0,0.0,0.0,77.0,0.0,23.0,50,0.0,0,0,0,38,38,0,0,0,0,0,38,0,38,25,0,25,0,0,0,0,64,0,0,25,Sadness,Neutral,100.0,11.494252873563218,88.50574712643679,-27,45,45,-56,-52,-82,-43,77.0,30,16.0,96.05352445959049,83.37529180751805,83.37529180751805,83.37529180751805,67.36270426526264,83.37529180751805,87.44627840129212,0.7892951080819017,23.033255680258424,50.5931990265595,40.070068618881606,12.318576462211187,100.0,100.0,29.816941760193817,57.1657318896911
