Problem,NameTest,User,Module,Image,Timestamp,TimeBlock,TimeVideo,TimeDetection,URL_Media,Codigo_Media,URL,XEyeTracking,YEyeTracking,Distance,Velocity,Blinks,B_left_horizontal,B_left_vertical,B_right_horizontal,B_right_vertical,PLeftEAR,PRightEAR,XFrame,YFrame,WFrame,HFrame,XEyeLeft,YEyeLeft,GazeRatioLeft,LWLeft,RWLeft,XEyeRight,YEyeRight,GazeRatioRight,LWRight,RWRight,GazeRatioAvg,FrownT,Pitch,Roll,Yaw,XPose,YPose,WidthPose,HeightPose,MouthRatio,VMouth,HMouth,Anger,Disgust,Fear,Joy,Sadness,Surprise,Neutral,Anticipation,Trust,Love,Submission,Awe,Disapproval,Remorse,Contempt,Agressiveness,Optimism,Guilt,Curiosity,Despair,Unbelief,Envy,Cynicism,Pride,Hope,Delight,Sentimentality,Shame,Outrage,Pessimism,Morbidness,Dominance,Anxiety,Predominant,Trend,Veracity,Positive valence,Negative valence,Jvalence,Jarousal,Jdominance,Evalence,Earousal,Dvalence,Darousal,Intensity,eng_blinks,eng_frownt,FOCUS,Stress,Variant2,Stress_intens,Cognitive effort,Frustration,Interest,Rejection,Commitment,Confusion,Comprehension,Performance,Confidence 1,Confidence 2,PerformancePolit,Variant
0,Test,ID1,BV01,4,0,800,0,800,Undified,Nan,faces\-7039003029299793708.png,,,,,30,23.08679276123039,7.035533905932738,24.0,7.5,30,31,283,137,82,11,283,137,500,20,0,340,139,100,0,0,300,17,174,2,2,259,107,124,124,1.4678186567426963,66.06814663663572,45.01110973970761,0.0,0.0,0.0,0.0,100.0,0.0,0.0,50,0,0,0,0,50,50,0,0,0,0,0,50,0,50,25,0,25,0,0,0,0,75,0,0,25,Sadness,Neutral,100.0,9.090909090909092,90.9090909090909,-27,56,44,-51,-61,-82,-45,100.0,30.0,20.0,98.2404278726887,71.65313105737893,71.65313105737893,71.65313105737893,59.157191740165246,71.65313105737893,86.51545703293166,0.3519144254622603,24.503091406586332,44.01479640919709,45.239708575935495,18.352835115826462,100.0,100.0,34.277318554939754,63.07918715273499
0,Test,ID1,BV01,5,0,1000,0,1000,Undified,Nan,faces\-7787671337811892478.png,,,,,30,23.08679276123039,7.071067811865476,25.0,7.5,30,30,280,139,83,11,280,139,1050,21,2,337,141,100,0,0,575,17,174,1,5,259,107,124,124,1.5218342161494791,67.02984409947557,44.04543109109048,78.0,0.0,0.0,0.0,0.0,0.0,22.0,50,0,0,0,0,0,0,39,0,0,0,0,0,0,39,25,39,25,0,0,0,39,25,0,0,25,Anger,Neutral,100.0,11.363636363636363,88.63636363636364,-41,76,33,-51,94,-44,62,78.0,30.0,20.0,96.83621206325527,0.0,0.0,71.65313105737893,59.157191740165246,71.65313105737893,85.53250596632826,63.032757587348954,34.57850119326565,62.81904935776309,33.89801111042236,26.672927602624295,92.2,22.0,27.42987589494924,57.291848496439854
0,Test,ID1,BV01,6,0,1200,0,1200,Undified,Nan,faces\6815292354207043790.png,,,,,26,24.020824298928627,6.535533905932738,25.0,6.541381265149108,27,26,276,141,84,10,276,141,500,22,0,334,143,500,4,0,500,17,175,1,6,259,107,124,124,1.4563398773811824,67.00746227100382,46.01086828130936,87.0,0.0,0.0,0.0,0.0,0.0,13.0,50,0,0,0,0,0,0,44,0,0,0,0,0,0,44,25,44,25,0,0,0,44,25,0,0,25,Anger,Neutral,100.0,10.309278350515463,89.69072164948454,-45,82,37,-61,94,-43,65,87.0,30.0,20.0,96.18104012833426,0.0,0.0,71.65313105737893,59.157191740165246,71.65313105737893,85.07388561188355,70.36379197433315,36.85077712237671,65.01835967385836,32.19270082210168,29.03774148518106,91.3,13.0,27.71108284178254,59.93647238670428
0,Test,ID1,BV01,7,0,1400,0,1400,Undified,Nan,faces\3293802032285361965.png,,,,,18,25.0,4.561552812808832,25.0,4.5,18,18,273,146,85,8,273,146,1000,10,1,332,148,100,0,0,550,19,175,0,6,259,120,124,125,1.4346083390399902,66.007575322837,46.01086828130936,81.0,0.0,0.0,0.0,0.0,0.0,19.0,50,0,0,0,0,0,0,40,0,0,0,0,0,0,40,25,40,25,0,0,0,40,25,0,0,25,Anger,Neutral,100.0,10.989010989010989,89.01098901098901,-41,72,27,-55,90,-46,64,81.0,30.0,0.0,96.18104012833426,0.0,0.0,60.653065971263345,51.45714617988434,60.653065971263345,82.76387194379927,65.56379197433314,34.04877438875985,57.52832387649478,37.65372809318411,26.306340795268227,91.9,19.0,26.31458079156989,58.2665392270804
0,Test,ID1,BV01,8,0,1600,0,1600,Undified,Nan,faces\-602356925534194694.png,,,,,20,23.0,5.0,25.0,5.049509756796391,21,20,270,150,83,7,270,150,150,6,4,327,151,100,0,0,125,18,173,0,5,245,120,124,125,1.4885213981048413,67.0,45.01110973970761,0.0,0.0,0.0,0.0,33.0,0.0,67.0,50,0,0,0,0,16,16,0,0,0,0,0,16,0,16,25,0,25,0,0,0,0,42,0,0,25,Neutral,Neutral,100.0,0.0,0.0,0,6,1,23,17,-6,-9,0.0,30.0,20.0,96.83621206325527,0.0,0.0,65.92406302004437,55.146844114031055,21.75494079661464,84.329401678488,0.6327575873489452,16.8658803356976,16.65504471434274,74.50890439637462,26.13324085925946,100.0,100.0,40.549410251773196,15.632757587348944
0,Test,ID1,BV01,9,0,1800,0,1800,Undified,Nan,faces\-7602257660331381102.png,,,,,19,23.021728866442675,4.5,26.0,5.049509756796391,19,19,265,152,84,7,265,152,400,4,1,322,152,100,0,0,250,18,174,0,7,245,120,124,125,1.4678186567426963,66.06814663663572,45.01110973970761,87.0,0.0,0.0,0.0,0.0,0.0,13.0,50,0,0,0,0,0,0,44,0,0,0,0,0,0,44,25,44,25,0,0,0,44,25,0,0,25,Anger,Neutral,100.0,10.309278350515463,89.69072164948454,-46,72,26,-61,94,-44,63,87.0,30.0,20.0,95.40106416225649,0.0,0.0,65.92406302004437,55.146844114031055,65.92406302004437,83.32479814778885,70.51978716754871,36.15295962955777,61.914170811289026,34.40114316574767,28.421313853521976,91.3,13.0,27.098719722168333,60.09246757991984
0,Test,ID1,BV01,10,0,2000,0,2000,Undified,Nan,faces\15241100808212721.png,,,,,18,24.0,5.049509756796391,27.0,4.5,21,16,263,153,85,7,263,153,700,14,2,320,154,100,0,0,400,19,174,0,8,245,120,124,125,1.469357800428137,66.12110101926616,45.0,86.0,0.0,0.0,0.0,0.0,0.0,14.0,50,0,0,0,0,0,0,43,0,0,0,0,0,0,43,25,43,25,0,0,0,43,25,0,0,25,Anger,Neutral,100.0,10.416666666666668,89.58333333333334,-42,82,32,-60,93,-44,63,86.0,30.0,0.0,94.29494830235252,0.0,0.0,60.653065971263345,51.45714617988434,60.653065971263345,81.44360766561206,69.9410103395295,35.55272153312241,58.841489386053695,36.671169257718255,27.92801884217484,91.4,14.0,26.81654114984181,60.03684367286283
0,Test,ID1,BV01,11,0,2200,0,2200,Undified,Nan,faces\4600998132518608977.png,,,,,20,23.021728866442675,5.0,26.0,5.0,21,19,263,155,84,7,263,155,500,12,0,320,155,100,0,1,300,19,173,-1,6,245,120,124,125,1.3855949068225475,65.12296062065974,47.0,1.0,0.0,0.0,0.0,0.0,0.0,99.0,50,0,0,0,0,0,0,0,0,0,0,0,0,0,0,25,0,25,0,0,0,0,25,0,0,25,Neutral,Neutral,80.0,0.0,0.0,-4,6,1,21,21,-5,-7,0.0,30.0,0.0,96.18104012833426,0.0,0.0,60.653065971263345,51.45714617988434,0.6065306597126334,82.76387194379927,1.563791974333148,16.552774388759854,5.302729455141892,83.53420363026642,27.04438834897646,99.9,99.0,40.464580791569894,15.763791974333149
0,Test,ID1,BV01,12,0,2400,0,2400,Undified,Nan,faces\-4289678562894290590.png,,,,,16,23.021728866442675,4.123105625617661,27.0,4.5,17,16,263,156,84,6,263,156,150,3,2,319,156,100,0,0,125,18,175,-1,9,228,112,149,149,1.4385540948458724,66.18912297349165,46.01086828130936,0.0,0.0,24.0,0.0,5.0,0.0,72.0,50,0,0,12,24,2,2,0,0,0,12,0,14,0,2,25,0,25,0,0,12,0,28,0,0,37,Neutral,Neutral,55.0,0.0,0.0,-7,3,7,21,12,-5,-7,0.0,30.0,20.0,92.87098580467497,0.0,0.0,65.92406302004437,55.146844114031055,15.82177512481065,81.55374329748179,1.4258028390650055,16.310748659496358,13.62971717036536,76.7516005934559,26.063595883716037,90.4,100.0,38.08306149462227,16.425802839065007
0,Test,ID1,BV01,13,0,2600,0,2600,Undified,Nan,faces\7294297522190711810.png,,,,,17,23.0,4.5,27.0,4.5,19,16,262,156,85,6,262,156,500,10,0,319,156,100,0,2,300,18,174,-1,7,228,112,149,149,1.4521009899686292,68.26419266350405,47.01063709417264,0.0,0.0,22.0,0.0,6.0,0.0,72.0,50,0,0,11,22,3,3,0,0,0,11,0,14,0,3,25,0,25,0,0,11,0,28,0,0,36,Neutral,Neutral,55.0,0.0,0.0,0,3,2,19,11,-4,-9,0.0,20.0,20.0,95.40106416225649,0.0,0.0,65.92406302004437,52.146844114031055,14.50329386440976,82.42479814778886,0.9197871675487023,16.484959629557775,14.252747775689981,76.4402815942269,26.650227696369903,91.2,100.0,38.76371972216833,20.9197871675487
0,Test,ID1,BV01,14,0,2800,0,2800,Undified,Nan,faces\-6297369798886414529.png,,,,,19,23.021728866442675,4.5,27.018512172212592,5.5,19,20,262,156,85,7,262,156,1300,13,1,319,156,100,0,0,700,19,175,-1,8,228,112,149,149,1.452429631138384,68.26419266350405,47.0,0.0,0.0,17.0,0.0,11.0,0.0,72.0,50,0,0,8,17,6,6,0,0,0,8,0,14,0,6,25,0,25,0,0,8,0,30,0,0,34,Neutral,Neutral,55.0,0.0,0.0,-4,11,6,23,16,-5,-9,0.0,23.636363636363633,0.0,94.29494830235252,0.0,0.0,60.653065971263345,49.54805527079343,10.31102121511477,80.8708803928848,1.1410103395294955,16.17417607857696,11.467910224717427,78.41275985951454,26.058996084172655,93.2,100.0,38.680632058932716,19.322828521347677
0,Test,ID1,BV01,15,0,3000,0,3000,Undified,Nan,faces\8920494968646302500.png,,,,,22,23.021728866442675,5.5,26.0,5.549509756796391,23,21,262,155,85,7,262,155,700,14,2,320,155,100,0,0,400,19,174,-1,10,245,120,124,125,1.4309127549285436,67.26812023536857,47.01063709417264,6.0,0.0,0.0,0.0,1.0,0.0,92.0,50,0,0,0,0,0,0,3,0,0,0,0,0,0,4,25,3,25,0,0,0,3,26,0,0,25,Neutral,Neutral,80.0,0.0,0.0,-1,10,1,11,13,-4,-7,0.0,26.666666666666668,0.0,91.66804048651306,0.0,0.0,60.653065971263345,50.45714617988434,3.6391839582758005,79.30477219452445,6.466391902697388,15.86095443890489,8.941468747860906,80.37730222116372,26.263923270747483,99.4,94.0,39.29571582917867,18.333058569364052
0,Test,ID1,BV01,16,0,3200,0,3200,Undified,Nan,faces\-3603060596442293345.png,,,,,18,23.021728866442675,4.549509756796391,26.019223662515373,4.5,19,17,263,156,84,6,263,156,128,9,7,320,156,500,1,0,314,19,175,-1,10,228,112,149,149,1.4836536499624042,68.26419266350405,46.01086828130936,0.0,0.0,3.0,0.0,21.0,0.0,76.0,50,0,0,2,3,10,10,0,0,0,2,0,12,0,10,25,0,25,0,0,2,0,36,0,0,26,Neutral,Neutral,80.0,0.0,0.0,-4,7,9,20,16,-6,-9,0.0,29.230769230769234,0.0,91.66804048651306,0.0,0.0,60.653065971263345,51.22637694911511,12.737143853965303,79.53554142529367,1.6663919026973872,15.907108285058735,12.120731305874749,77.65696909782957,25.249582266106376,98.8,100.0,39.53033121379405,17.05100728731277
0,Test,ID1,BV01,17,0,3400,0,3400,Undified,Nan,faces\3632656949930863702.png,,,,,16,24.08318915758459,4.061552812808832,28.0178514522438,4.611062569605222,16,16,263,156,88,6,263,156,280,14,5,322,156,100,0,0,190,19,174,-1,8,228,112,149,149,1.4541250420816807,68.3593446428504,47.01063709417264,0.0,0.0,2.0,0.0,0.0,0.0,98.0,50,0,0,1,2,0,0,0,0,0,1,0,1,0,0,25,0,25,0,0,1,0,25,0,0,26,Neutral,Neutral,80.0,0.0,0.0,0,12,8,18,19,-7,-8,0.0,31.42857142857143,0.0,94.29494830235252,0.0,0.0,60.653065971263345,51.88571760845577,1.2130613194252668,81.5721790941835,1.1410103395294955,16.3144358188367,5.295201113257031,83.22105701881272,25.915150475427147,99.2,100.0,39.585826864127526,15.426724625243779
0,Test,ID1,BV01,18,0,3600,0,3600,Undified,Nan,faces\2907192374513840602.png,,,,,19,23.08679276123039,5.049509756796391,27.0,5.049509756796391,21,18,266,156,85,7,266,156,200,10,5,323,156,100,0,0,150,20,173,-2,10,245,120,124,125,1.4541250420816807,68.3593446428504,47.01063709417264,0.0,0.0,0.0,0.0,0.0,0.0,100.0,50,0,0,0,0,0,0,0,0,0,0,0,0,0,0,25,0,25,0,0,0,0,25,0,0,25,Neutral,Neutral,80.0,0.0,0.0,-1,8,9,19,16,-5,-8,0.0,33.333333333333336,0.0,91.66804048651306,0.0,0.0,55.80351457700471,49.0624602039033,0.0,78.88636640173013,1.6663919026973872,15.777273280346026,4.499917570809216,83.78870258352565,26.100461858785096,100.0,100.0,40.08295496025952,14.99972523603072
0,Test,ID1,BV01,19,0,3800,0,3800,Undified,Nan,faces\-4636782240338698471.png,,,,,15,24.08318915758459,4.049509756796392,28.0,4.0,16,14,267,156,87,6,267,156,200,10,5,325,156,100,0,0,150,21,173,-2,12,244,112,150,149,1.475286612233465,69.35416353759881,47.01063709417264,0.0,0.0,0.0,0.0,26.0,0.0,74.0,50,0,0,0,0,13,13,0,0,0,0,0,13,0,13,25,0,25,0,0,0,0,38,0,0,25,Neutral,Neutral,80.0,0.0,0.0,-5,6,1,20,18,-6,-8,0.0,35.0,0.0,89.16083923072189,0.0,0.0,51.3417119032592,46.43919833228144,13.348845094847393,76.34434696118976,2.167832153855622,15.268869392237953,11.742214448322754,77.64066313746078,24.45015305404352,100.0,100.0,39.351652044178465,14.66783215385562
0,Test,ID1,BV01,20,0,4000,0,4000,Undified,Nan,faces\5668413214964710061.png,,,,,20,23.08679276123039,5.0990195135927845,27.0,5.049509756796391,22,18,269,156,86,7,269,156,80,8,10,327,156,100,0,0,90,21,173,-1,13,244,112,150,149,1.4836536499624042,68.26419266350405,46.01086828130936,0.0,0.0,0.0,0.0,33.0,0.0,67.0,50,0,0,0,0,16,16,0,0,0,0,0,16,0,16,25,0,25,0,0,0,0,42,0,0,25,Neutral,Neutral,80.0,0.0,0.0,0,13,5,17,19,-7,-8,0.0,36.470588235294116,0.0,86.54475225759381,0.0,0.0,51.3417119032592,46.880374802869675,16.942764928075537,74.64543902117657,2.6910495484812373,14.929087804235316,13.655247339691801,75.84034603036422,23.445394358330564,100.0,100.0,38.746815853176486,14.455755430834179
0,Test,ID1,BV01,21,0,4200,0,4200,Undified,Nan,faces\6837937288730213621.png,,,,,17,22.09072203437452,4.061552812808832,27.0,4.5,18,16,270,156,85,7,270,157,87,7,8,327,156,100,0,1,93,19,174,-2,14,244,112,150,149,1.4775851645682003,69.46221994724903,47.01063709417264,0.0,0.0,0.0,0.0,33.0,0.0,67.0,50,0,0,0,0,16,16,0,0,0,0,0,16,0,16,25,0,25,0,0,0,0,42,0,0,25,Neutral,Neutral,80.0,0.0,0.0,-1,5,6,19,16,-6,-8,0.0,37.77777777777778,20.0,83.54863070807225,0.0,0.0,60.653065971263345,53.790479513217676,20.015511770516905,74.62118534961587,3.2902738583855498,14.924237069923175,15.328946964633296,74.59896096325495,23.715192433729463,100.0,100.0,39.093177802442376,14.401384969496661
0,Test,ID1,BV01,22,0,4400,0,4400,Undified,Nan,faces\332964062569510475.png,,,,,15,23.021728866442675,4.061552812808832,28.0178514522438,4.0,17,14,270,156,87,6,270,156,266,8,3,328,156,100,0,3,183,20,174,-1,12,244,112,150,149,1.475286612233465,69.35416353759881,47.01063709417264,0.0,0.0,0.0,0.0,32.0,0.0,68.0,50,0,0,0,0,16,16,0,0,0,0,0,16,0,16,25,0,25,0,0,0,0,41,0,0,25,Neutral,Neutral,80.0,0.0,0.0,-1,2,7,12,10,-6,-7,0.0,38.94736842105263,10.0,89.16083923072189,0.0,0.0,55.80351457700471,50.74667073021909,17.857124664641507,77.63658868057104,2.167832153855622,15.527317736114208,13.629662948551621,76.25992850921581,24.63514002106434,100.0,100.0,39.54548830208565,12.694147943329307
0,Test,ID1,BV01,23,0,4600,0,4600,Undified,Nan,faces\7872921942122602871.png,,,,,18,24.020824298928627,4.611062569605222,28.0178514522438,5.049509756796391,19,18,270,155,87,7,270,156,214,15,7,328,155,500,1,0,357,20,172,-1,10,244,112,150,149,1.4409565393769177,69.18092222571191,48.01041553663122,0.0,0.0,0.0,0.0,33.0,0.0,67.0,50,0,0,0,0,16,16,0,0,0,0,0,16,0,16,25,0,25,0,0,0,0,42,0,0,25,Neutral,Neutral,80.0,0.0,0.0,-8,5,3,17,10,-6,-8,0.0,40.0,10.0,91.66804048651306,0.0,0.0,55.80351457700471,51.0624602039033,18.415159810411556,79.48636640173014,1.6663919026973872,15.897273280346027,13.628255466535574,76.44603226694457,25.11619482712699,100.0,100.0,39.82295496025952,11.666391902697388
0,Test,ID1,BV01,24,0,4800,0,4800,Undified,Nan,faces\-5506049658686702421.png,,,,,18,24.020824298928627,5.049509756796391,28.0178514522438,4.549509756796391,21,16,270,155,88,7,270,155,400,20,5,329,155,100,0,0,250,21,173,-1,11,244,112,150,149,1.4732916328053034,69.26037828369117,47.01063709417264,0.0,0.0,0.0,0.0,28.0,0.0,72.0,50,0,0,0,0,14,14,0,0,0,0,0,14,0,14,25,0,25,0,0,0,0,39,0,0,25,Neutral,Neutral,80.0,0.0,0.0,-6,10,9,21,20,-7,-6,0.0,40.952380952380956,0.0,90.50289726142418,0.0,0.0,51.3417119032592,48.22491261799573,14.375679332912577,77.81950186839563,1.899420547715164,15.563900373679127,11.333592654559324,78.01507606319211,24.45638307341812,100.0,100.0,39.222925280259346,11.423230071524685
0,Test,ID1,BV01,25,0,5000,0,5000,Undified,Nan,faces\-3414883616868590651.png,,,,,16,23.08679276123039,4.123105625617661,28.0,4.549509756796391,17,16,272,156,86,6,272,156,111,10,9,329,156,500,1,0,305,20,172,-1,11,244,112,150,149,1.4400197379737194,69.18092222571191,48.04164859785725,0.0,0.0,0.0,0.0,9.0,0.0,91.0,50,0,0,0,0,4,4,0,0,0,0,0,4,0,4,25,0,25,0,0,0,0,30,0,0,25,Neutral,Neutral,80.0,0.0,0.0,0,8,7,12,11,-7,-6,0.0,41.81818181818182,10.0,90.50289726142418,0.0,0.0,55.80351457700471,51.607914749357846,5.022316311930424,78.83440250780427,1.899420547715164,15.766880501560856,6.05937286314901,82.33594196026122,25.14219482297719,100.0,100.0,39.37516037617064,10.990329638624253
0,Test,ID1,BV01,26,0,5200,0,5200,Undified,Nan,faces\7891596163713910966.png,,,,,19,24.0,5.0,27.0,5.049509756796391,20,18,274,153,87,7,274,153,400,8,2,333,154,100,0,0,250,19,175,0,12,244,112,150,149,1.4692202776065066,69.1158447825099,47.04253394535629,25.0,0.0,0.0,0.0,0.0,0.0,74.0,50,0,0,0,0,0,0,12,0,0,0,0,0,0,12,25,12,25,0,0,0,12,25,0,0,25,Neutral,Neutral,80.0,0.0,0.0,-6,4,3,19,14,-5,-9,0.0,42.608695652173914,20.0,89.16083923072189,0.0,0.0,60.653065971263345,55.23975487553651,15.163266492815838,78.98451392416627,22.16783215385562,15.796902784833254,17.59884186937931,73.31937789691318,25.078066270732883,97.5,75.0,35.09767708862494,10.863484327768665
0,Test,ID1,BV01,27,0,5400,0,5400,Undified,Nan,faces\-2237298723101326548.png,,,,,19,24.0,5.0,27.018512172212592,5.049509756796391,20,18,276,155,87,7,276,155,700,14,2,335,155,100,0,0,400,21,175,-1,10,244,112,150,149,1.4280701442170072,67.11929677819934,47.0,0.0,0.0,4.0,0.0,24.0,0.0,72.0,50,0,0,2,4,12,12,0,0,0,2,0,14,0,12,25,0,25,0,0,2,0,37,0,0,27,Neutral,Neutral,80.0,0.0,0.0,-4,13,1,13,14,-6,-9,0.0,43.333333333333336,0.0,91.66804048651306,0.0,0.0,51.3417119032592,48.93919833228144,12.322010856782208,78.84938784024358,1.6663919026973872,15.769877568048717,9.777023542039432,79.46331995039282,25.258678955100173,98.4,100.0,39.327408176036535,9.99972523603072
0,Test,ID1,BV01,28,0,5600,0,5600,Undified,Nan,faces\3396444989364006500.png,,,,,20,24.020824298928627,5.0,27.018512172212592,5.5,20,20,274,157,87,7,274,157,1300,13,1,333,157,500,3,0,900,20,175,-1,7,244,112,150,149,1.4280701442170072,67.11929677819934,47.0,0.0,0.0,1.0,0.0,0.0,0.0,99.0,50,0,0,0,1,0,0,0,0,0,0,0,0,0,0,25,0,25,0,0,0,0,25,0,0,26,Neutral,Neutral,80.0,0.0,0.0,0,2,3,23,19,-4,-8,0.0,44.0,10.0,95.40106416225649,0.0,0.0,55.80351457700471,52.2624602039033,0.5580351457700471,82.45948297475053,0.9197871675487023,16.491896594950106,2.9828554804381366,85.45966391312454,27.560837135000085,99.6,100.0,40.86892244621258,8.919787167548701
0,Test,ID1,BV01,29,0,5800,0,5800,Undified,Nan,faces\-4510900143566402726.png,,,,,19,24.0,5.049509756796391,27.018512172212592,5.049509756796391,21,18,272,157,87,7,272,157,271,19,7,331,157,100,0,0,185,19,175,-1,6,244,112,150,149,1.4915399284044295,67.11929677819934,45.0,0.0,0.0,1.0,0.0,27.0,0.0,72.0,50,0,0,0,1,14,14,0,0,0,0,0,14,0,14,25,0,25,0,0,0,0,38,0,0,26,Neutral,Neutral,80.0,0.0,0.0,-4,2,3,21,16,-5,-7,0.0,44.61538461538461,20.0,96.18104012833426,0.0,0.0,60.653065971263345,55.84176156449972,16.3763278122411,84.07925655918389,0.763791974333148,16.815851311836777,11.54381019672486,78.6728774985385,26.887101889649824,99.6,100.0,40.761888483877584,8.45609966664084
0,Test,ID1,BV01,30,0,6000,0,6000,Undified,Nan,faces\-5524336639830284736.png,,,,,20,24.020824298928627,5.5,26.019223662515373,5.0,22,19,271,156,86,7,271,156,200,16,8,330,156,100,0,0,150,20,176,-1,9,244,112,150,149,1.4804664203952107,68.11754546370561,46.01086828130936,0.0,0.0,0.0,0.0,32.0,0.0,68.0,50,0,0,0,0,16,16,0,0,0,0,0,16,0,16,25,0,25,0,0,0,0,41,0,0,25,Neutral,Neutral,80.0,0.0,0.0,-7,2,6,18,18,-4,-7,0.0,45.185185185185176,10.0,92.87098580467497,0.0,0.0,55.80351457700471,52.61801575945885,17.857124664641507,80.79509479111013,1.4258028390650055,16.159018958222028,12.471381639494554,77.70240416751537,26.36901411452907,100.0,100.0,40.71926421866652,8.833210246472417
0,Test,ID1,BV01,31,0,6200,0,6200,Undified,Nan,faces\6640975187294803886.png,,,,,19,24.0,5.0,26.019223662515373,5.0990195135927845,20,19,270,155,86,8,270,156,220,11,5,329,155,100,0,0,160,19,175,-1,8,244,112,150,149,1.5025183648371716,69.1158447825099,46.0,0.0,0.0,0.0,0.0,33.0,0.0,67.0,50,0,0,0,0,16,16,0,0,0,0,0,16,0,16,25,0,25,0,0,0,0,42,0,0,25,Neutral,Neutral,80.0,0.0,0.0,-7,5,0,22,20,-5,-8,0.0,45.71428571428571,20.0,94.29494830235252,0.0,0.0,60.653065971263345,56.171431894170055,20.015511770516905,82.85789337989779,1.1410103395294955,16.57157867597956,13.49369171850029,76.99083596318955,26.413556941293404,100.0,100.0,40.67868400698467,8.28386748238664
0,Test,ID1,BV01,32,0,6400,0,6400,Undified,Nan,faces\-470528082123112821.png,,,,,20,25.0,5.5,27.018512172212592,5.0990195135927845,22,18,268,154,87,8,268,155,287,23,8,327,154,500,1,0,393,20,175,-1,7,245,120,124,125,1.4796987891514466,68.06614430096654,46.0,0.0,0.0,0.0,0.0,25.0,0.0,75.0,50,0,0,0,0,12,12,0,0,0,0,0,12,0,12,25,0,25,0,0,0,0,38,0,0,25,Neutral,Neutral,80.0,0.0,0.0,0,13,5,22,12,-5,-9,0.0,46.206896551724135,10.0,95.40106416225649,0.0,0.0,55.80351457700471,52.92452916942054,13.95087864425118,82.6581036644057,0.9197871675487023,16.53162073288114,10.01788492184414,79.75150242896527,26.63967615899795,100.0,100.0,40.64871554966086,7.816338891686635
0,Test,ID1,BV01,33,0,6600,0,6600,Undified,Nan,faces\6358813157947459320.png,,,,,20,25.019992006393608,5.541381265149108,28.0178514522438,5.049509756796391,22,18,266,154,89,8,266,155,900,18,2,326,154,500,1,0,700,20,173,-2,7,245,120,124,125,1.447888148476165,68.06614430096654,47.01063709417264,0.0,0.0,0.0,0.0,32.0,0.0,68.0,50,0,0,0,0,16,16,0,0,0,0,0,16,0,16,25,0,25,0,0,0,0,41,0,0,25,Neutral,Neutral,80.0,0.0,0.0,0,6,7,18,21,-7,-6,0.0,46.666666666666664,10.0,95.40106416225649,0.0,0.0,55.80351457700471,53.0624602039033,17.857124664641507,82.69948297475052,0.9197871675487023,16.539896594950104,12.09735471581744,77.8920645248211,25.66407719616974,100.0,100.0,39.95492244621258,7.586453834215369
0,Test,ID1,BV01,34,0,6800,0,6800,Undified,Nan,faces\-1469704405101499524.png,,,,,19,25.019992006393608,5.049509756796391,27.018512172212592,5.049509756796391,20,18,268,154,88,8,268,155,600,18,3,328,154,100,0,0,350,20,173,-2,7,244,112,150,149,1.4396010534375725,69.1158447825099,48.01041553663122,0.0,0.0,0.0,0.0,33.0,0.0,67.0,50,0,0,0,0,16,16,0,0,0,0,0,16,0,16,25,0,25,0,0,0,0,42,0,0,25,Neutral,Neutral,55.0,0.0,0.0,-2,11,3,11,20,-5,-8,0.0,47.09677419354838,10.0,95.40106416225649,0.0,0.0,55.80351457700471,53.19149246196781,18.415159810411556,82.73819265216989,0.9197871675487023,16.54763853043398,12.339757916958712,77.90201293165002,26.474749456207473,100.0,100.0,40.66072889782548,7.371400070774514
0,Test,ID1,BV01,35,0,7000,0,7000,Undified,Nan,faces\-4338246762794637779.png,,,,,20,25.0,5.5,28.0178514522438,5.049509756796391,22,18,269,154,89,7,269,154,900,18,2,329,154,100,0,0,500,18,174,-1,8,244,112,150,149,1.4388580541526672,69.06518659932803,48.0,0.0,0.0,0.0,0.0,33.0,0.0,67.0,50,0,0,0,0,16,16,0,0,0,0,0,16,0,16,25,0,25,0,0,0,0,42,0,0,25,Neutral,Neutral,55.0,0.0,0.0,0,5,0,22,8,-4,-7,0.0,47.5,30.0,94.29494830235252,0.0,0.0,65.92406302004437,60.396844114031055,21.75494079661464,84.12551704585609,1.1410103395294955,16.825103409171216,14.1825205399969,76.66653527258809,27.09803278872283,100.0,100.0,41.218827556878416,7.391010339529495
0,Test,ID1,BV01,36,0,7200,0,7200,Undified,Nan,faces\-5183940834147076190.png,,,,,22,24.020824298928627,5.5,26.019223662515373,6.0827625302982185,22,23,272,154,88,7,272,154,700,7,1,333,154,100,0,0,400,19,174,-1,7,244,112,150,149,1.4388580541526672,69.06518659932803,48.0,8.0,0.0,0.0,0.0,11.0,0.0,81.0,50,0,0,0,0,6,6,4,0,0,0,0,6,0,10,25,4,25,0,0,0,4,30,0,0,25,Neutral,Neutral,55.0,0.0,0.0,1,8,9,14,16,-7,-6,0.0,47.878787878787875,20.0,95.40106416225649,0.0,0.0,60.653065971263345,56.8207825435207,6.671837256838968,83.82697967663574,7.319787167548703,16.76539593532715,7.683628459707862,81.53579519989728,26.310324439148665,99.2,92.0,38.524046951495365,6.980393228154765
0,Test,ID1,BV01,37,0,7400,0,7400,Undified,Nan,faces\5793281251717767968.png,,,,,18,25.0,4.5,27.018512172212592,5.049509756796391,18,18,273,155,88,7,273,156,300,12,4,333,155,500,2,0,400,20,174,-1,6,244,112,150,149,1.5006299874280276,69.02897942168927,46.0,0.0,0.0,0.0,0.0,30.0,0.0,70.0,50,0,0,0,0,15,15,0,0,0,0,0,15,0,15,25,0,25,0,0,0,0,40,0,0,25,Neutral,Neutral,55.0,0.0,0.0,-3,6,5,19,12,-7,-8,0.0,48.23529411764706,10.0,96.18104012833426,0.0,0.0,55.80351457700471,53.533048439197415,16.741054373101413,83.3866426215932,0.763791974333148,16.67732852431864,11.201423379858664,78.6775255582724,25.914413211225536,100.0,100.0,40.05799639323898,6.646144915509619
0,Test,ID1,BV01,38,0,7600,0,7600,Undified,Nan,faces\-7151634991419052026.png,,,,,16,24.020824298928627,4.5,26.019223662515373,4.0,18,15,273,156,87,6,273,156,187,15,8,333,156,100,0,0,143,20,173,-1,8,244,112,150,149,1.5231360048350746,70.06425622241342,46.0,0.0,0.0,5.0,0.0,0.0,0.0,95.0,50,0,0,2,5,0,0,0,0,0,2,0,2,0,0,25,0,25,0,0,2,0,25,0,0,28,Neutral,Neutral,55.0,0.0,0.0,-7,2,8,19,19,-5,-8,0.0,48.57142857142857,10.0,94.29494830235252,0.0,0.0,55.80351457700471,53.63388877533187,2.790175728850236,82.09663044424633,1.1410103395294955,16.419326088849267,3.591185467012193,84.83671467081489,27.00782907814307,98.0,100.0,40.06449456663695,6.855296053815211
0,Test,ID1,BV01,39,0,7800,0,7800,Undified,Nan,faces\-2170525432626193592.png,,,,,19,24.020824298928627,5.0,27.018512172212592,5.0,20,18,271,155,88,7,271,155,89,17,19,331,155,100,0,2,94,20,173,-1,8,244,112,150,149,1.5130337614945557,71.11258679024411,47.0,0.0,0.0,0.0,0.0,33.0,0.0,67.0,50,0,0,0,0,16,16,0,0,0,0,0,16,0,16,25,0,25,0,0,0,0,42,0,0,25,Neutral,Neutral,55.0,0.0,0.0,0,3,1,11,15,-6,-9,0.0,48.888888888888886,10.0,94.29494830235252,0.0,0.0,55.80351457700471,53.729126870569964,18.415159810411556,82.12520187281775,1.1410103395294955,16.42504037456355,12.137307664251873,77.90267405588028,25.921567873792466,100.0,100.0,40.218780280922665,6.696565895085052
0,Test,ID1,BV01,40,0,8000,0,8000,Undified,Nan,faces\3411799363842231207.png,,,,,18,24.020824298928627,5.049509756796391,27.018512172212592,4.561552812808832,21,16,269,155,86,8,269,156,158,19,12,327,155,100,0,0,129,19,174,-2,8,244,112,150,149,1.514036886045942,71.17583859709698,47.01063709417264,0.0,0.0,0.0,0.0,33.0,0.0,67.0,50,0,0,0,0,16,16,0,0,0,0,0,16,0,16,25,0,25,0,0,0,0,42,0,0,25,Neutral,Neutral,55.0,0.0,0.0,-7,12,3,14,18,-5,-8,0.0,49.189189189189186,20.0,94.29494830235252,0.0,0.0,60.653065971263345,57.21390293664109,20.015511770516905,83.1706346926391,1.1410103395294955,16.63412693852782,12.97245619726477,77.4390985114521,26.536568524304986,100.0,100.0,40.725595203895864,6.546415744934904
0,Test,ID1,BV01,41,0,8200,0,8200,Undified,Nan,faces\1221249261683298950.png,,,,,19,24.08318915758459,5.049509756796391,27.018512172212592,5.0990195135927845,20,18,267,156,86,8,267,157,186,28,15,325,156,500,3,0,343,18,172,-2,9,245,120,124,125,1.5039330918633025,69.18092222571191,46.0,0.0,0.0,0.0,0.0,26.0,0.0,74.0,50,0,0,0,0,13,13,0,0,0,0,0,13,0,13,25,0,25,0,0,0,0,38,0,0,25,Neutral,Neutral,55.0,0.0,0.0,-8,6,3,19,18,-6,-9,0.0,49.473684210526315,30.0,92.87098580467497,0.0,0.0,65.92406302004437,60.988949377188945,17.140256385211536,83.30637487642916,1.4258028390650055,16.66127497528583,11.4338292320069,78.5835741020374,26.28495112931103,100.0,100.0,40.395956231464375,6.6889607338018475
0,Test,ID1,BV01,42,0,8400,0,8400,Undified,Nan,faces\8620091737611713547.png,,,,,17,24.020824298928627,4.061552812808832,27.018512172212592,5.049509756796391,16,18,266,156,87,7,266,157,163,18,11,325,156,100,0,0,131,19,173,-2,7,245,120,124,125,1.5056603974715472,69.26037828369117,46.0,0.0,0.0,0.0,0.0,0.0,0.0,100.0,50,0,0,0,0,0,0,0,0,0,0,0,0,0,0,25,0,25,0,0,0,0,25,0,0,25,Neutral,Neutral,55.0,0.0,0.0,-3,2,2,16,13,-6,-9,0.0,49.743589743589745,20.0,95.40106416225649,0.0,0.0,60.653065971263345,57.38022310296127,0.0,83.99481184446792,0.9197871675487023,16.798962368893584,1.814397688726149,86.34796303346587,27.233499264463568,100.0,100.0,40.49922177667019,6.04799229575383
0,Test,ID1,BV01,43,0,8600,0,8600,Undified,Nan,faces\-5092885418296691117.png,,,,,20,24.08318915758459,5.0,27.018512172212592,5.549509756796391,20,20,265,155,86,9,265,157,210,21,10,323,155,100,0,1,155,19,173,-3,9,245,120,124,125,1.5293288988662224,70.34912934784622,46.0,0.0,0.0,0.0,0.0,0.0,0.0,100.0,50,0,0,0,0,0,0,0,0,0,0,0,0,0,0,25,0,25,0,0,0,0,25,0,0,25,Neutral,Neutral,55.0,0.0,0.0,-7,6,5,14,14,-7,-6,0.0,50.0,20.0,92.87098580467497,0.0,0.0,60.653065971263345,57.45714617988434,0.0,82.24683391723778,1.4258028390650055,16.449366783447555,1.9277408517195016,85.98249071034817,26.359957550344262,100.0,100.0,39.88702508758567,6.425802839065005
0,Test,ID1,BV01,44,0,8800,0,8800,Undified,Nan,faces\6681271342880626282.png,,,,,19,24.08318915758459,5.0990195135927845,27.0,5.0990195135927845,21,18,264,156,86,8,264,157,285,20,7,322,156,500,2,0,392,19,173,-2,7,228,112,149,149,1.4732916328053034,69.26037828369117,47.01063709417264,0.0,0.0,0.0,0.0,24.0,0.0,76.0,50,0,0,0,0,12,12,0,0,0,0,0,12,0,12,25,0,25,0,0,0,0,37,0,0,25,Neutral,Neutral,55.0,0.0,0.0,-4,5,0,14,18,-4,-6,0.0,50.24390243902439,20.0,95.40106416225649,0.0,0.0,60.653065971263345,57.530316911591655,14.556735833103202,84.03983998705704,0.9197871675487023,16.807967997411406,9.745555492617713,80.20753960461153,27.43071395722541,100.0,100.0,41.205975998058555,5.797835948036507
0,Test,ID1,BV01,45,0,9000,0,9000,Undified,Nan,faces\-8149099992057757457.png,,,,,16,24.020824298928627,4.123105625617661,27.018512172212592,4.123105625617661,17,15,267,155,87,7,267,156,90,10,11,326,155,100,0,2,95,21,175,-2,13,244,112,150,149,1.5201975045018086,71.449282711585,47.0,0.0,0.0,0.0,0.0,33.0,0.0,67.0,50,0,0,0,0,16,16,0,0,0,0,0,16,0,16,25,0,25,0,0,0,0,42,0,0,25,Neutral,Neutral,55.0,0.0,0.0,-1,12,3,15,19,-4,-8,0.0,50.47619047619047,0.0,86.54475225759381,0.0,0.0,51.3417119032592,51.08205547513858,16.942764928075537,75.90594322285725,2.6910495484812373,15.18118864457145,11.55440700355735,77.94706871943984,25.171192677658293,100.0,100.0,39.98589148342859,7.452954310386003
0,Test,ID1,BV01,46,0,9200,0,9200,Undified,Nan,faces\5641590057718794770.png,,,,,18,24.020824298928627,4.5,27.018512172212592,5.0,18,18,269,154,88,7,269,155,325,13,4,329,154,500,2,0,412,21,173,-2,11,244,112,150,149,1.5256306259843606,73.24616030891995,48.01041553663122,0.0,0.0,0.0,0.0,32.0,0.0,68.0,50,0,0,0,0,16,16,0,0,0,0,0,16,0,16,25,0,25,0,0,0,0,41,0,0,25,Neutral,Neutral,75.0,0.0,0.0,-2,2,4,17,17,-4,-8,0.0,50.697674418604656,0.0,90.50289726142418,0.0,0.0,51.3417119032592,51.14850065786284,16.429347809042945,78.69657828035578,1.899420547715164,15.739315656071156,11.00131629649747,78.6686047908376,25.941005049172706,100.0,100.0,40.404486742053365,6.550583338412836
0,Test,ID1,BV01,47,0,9400,0,9400,Undified,Nan,faces\-4053270083489229489.png,,,,,18,26.0768096208106,5.049509756796391,28.0,5.049509756796391,19,18,269,153,91,7,269,153,237,19,8,331,153,100,0,0,168,20,172,-1,9,244,112,150,149,1.5136474808807068,74.16872656315464,49.0,0.0,0.0,0.0,0.0,0.0,0.0,100.0,50,0,0,0,0,0,0,0,0,0,0,0,0,0,0,25,0,25,0,0,0,0,25,0,0,25,Neutral,Neutral,75.0,0.0,0.0,0,4,0,15,16,-4,-8,0.0,50.909090909090914,10.0,92.87098580467497,0.0,0.0,55.80351457700471,54.33518747663057,0.0,81.31024630626165,1.4258028390650055,16.26204926125233,1.7913772153558645,86.29792285834148,27.357353862399556,100.0,100.0,40.796536945939245,5.971257384519548
0,Test,ID1,BV01,48,0,9600,0,9600,Undified,Nan,faces\-4053270083489229489.png,,,,,18,26.0768096208106,5.049509756796391,28.0,5.049509756796391,19,18,269,153,91,7,269,153,237,19,8,331,153,100,0,0,168,20,172,-1,9,244,112,150,149,1.5136474808807068,74.16872656315464,49.0,0.0,0.0,0.0,0.0,0.0,0.0,100.0,50,0,0,0,0,0,0,0,0,0,0,0,0,0,0,25,0,25,0,0,0,0,25,0,0,25,Neutral,Neutral,75.0,0.0,0.0,0,5,7,23,13,-4,-7,0.0,51.111111111111114,10.0,92.87098580467497,0.0,0.0,55.80351457700471,54.395793537236635,0.0,81.32842812444346,1.4258028390650055,16.265685624888693,1.7610741850528344,86.32398346440209,27.364505377551076,100.0,100.0,40.79926421866652,5.870247283509448
0,Test,ID1,BV01,49,0,9800,0,9800,Undified,Nan,faces\-4232968908314972009.png,,,,,21,26.019223662515373,5.5,29.017236257093817,6.576915171081848,21,22,269,146,94,8,269,147,70,14,20,333,146,100,0,0,85,20,173,-1,10,244,112,150,149,1.4934175705356558,76.16429609731846,51.0,66.0,0.0,0.0,0.0,0.0,0.0,34.0,50,0,0,0,0,0,0,33,0,0,0,0,0,0,33,25,33,25,0,0,0,33,25,0,0,25,Anger,Neutral,75.0,13.157894736842104,86.8421052631579,-42,77,36,-54,99,-45,65,66.0,51.30434782608695,10.0,91.66804048651306,0.0,0.0,55.80351457700471,54.453764551729385,55.80351457700471,80.50375770607796,54.46639190269739,30.620751541215594,48.33619841424877,44.881417039208785,23.114081130440372,93.4,34.0,26.325563655911694,44.22474430544338
0,Test,ID1,BV01,50,0,10000,0,10000,Undified,Nan,faces\-5880899214805963440.png,,,,,22,26.019223662515373,6.0,29.017236257093817,6.5,23,22,272,146,93,9,272,147,76,16,21,335,146,100,0,0,88,19,172,-1,10,244,112,150,149,1.511839727545195,77.10382610480494,51.0,0.0,0.0,0.0,0.0,0.0,0.0,100.0,50,0,0,0,0,0,0,0,0,0,0,0,0,0,0,25,0,25,0,0,0,0,25,0,0,25,Neutral,Neutral,55.0,0.0,0.0,-7,5,1,13,17,-7,-7,0.0,51.48936170212765,20.0,91.66804048651306,0.0,0.0,60.653065971263345,57.90395469052264,0.0,81.53881474771595,1.6663919026973872,16.30776294954319,1.7765133154900683,86.03267082237954,26.187970769166938,100.0,100.0,39.78082221215739,5.92171105163356
0,Test,ID1,BV01,51,0,10200,0,10200,Undified,Nan,faces\-1583171905217412743.png,,,,,21,25.019992006393608,5.5,29.0,6.576915171081848,21,22,275,145,92,9,275,147,25,5,20,337,145,100,0,0,62,20,175,-1,10,244,112,150,149,1.5748807828688112,77.23341245859852,49.04079934095692,0.0,0.0,0.0,0.0,32.0,0.0,68.0,50,0,0,0,0,16,16,0,0,0,0,0,16,0,16,25,0,25,0,0,0,0,41,0,0,25,Neutral,Neutral,55.0,0.0,0.0,-5,10,7,14,20,-6,-7,0.0,51.666666666666664,10.0,91.66804048651306,0.0,0.0,55.80351457700471,54.5624602039033,17.857124664641507,80.53636640173013,1.6663919026973872,16.10727328034603,11.571336136362046,78.19656773108338,25.553748373540873,100.0,100.0,39.980454960259515,5.833058569364055
0,Test,ID1,BV01,52,0,10400,0,10400,Undified,Nan,faces\8314629172262234355.png,,,,,23,23.08679276123039,6.0,28.0178514522438,6.041381265149108,25,21,274,148,87,8,274,148,95,23,24,332,148,100,0,0,97,19,176,-2,16,244,95,150,149,1.4998267398203864,73.55270219373317,49.04079934095692,0.0,0.0,0.0,0.0,32.0,0.0,68.0,50,0,0,0,0,16,16,0,0,0,0,0,16,0,16,25,0,25,0,0,0,0,41,0,0,25,Neutral,Neutral,55.0,0.0,0.0,-3,12,6,21,9,-5,-9,0.0,51.836734693877546,20.0,76.82951645088069,0.0,0.0,60.653065971263345,58.0081665880476,19.40898111080427,71.18311149203076,4.634096709823862,14.236622298406154,13.289658419807875,75.98658441335678,23.39443631434337,100.0,100.0,38.92746672380461,8.715729362885089
0,Test,ID1,BV01,53,0,10600,0,10600,Undified,Nan,faces\-8520172457938592594.png,,,,,23,22.02271554554524,6.0,28.0178514522438,5.5908910219455015,27,19,272,147,83,8,272,147,48,18,37,326,147,125,5,4,86,17,177,-1,20,244,95,150,149,1.6033573266683667,73.824115301167,46.04345773288535,0.0,0.0,0.0,0.0,0.0,0.0,100.0,50,0,0,0,0,0,0,0,0,0,0,0,0,0,0,25,0,25,0,0,0,0,25,0,0,25,Neutral,Neutral,55.0,0.0,0.0,0,5,0,21,10,-7,-8,0.0,52.0,40.0,59.765591461083254,0.0,0.0,71.65313105737893,65.75719174016524,0.0,61.56307154480784,8.04688170778335,12.31261430896157,3.6140645123350046,82.56505554461279,20.847273440663237,100.0,100.0,36.78446073172118,12.04688170778335
0,Test,ID1,BV01,54,0,10800,0,10800,Undified,Nan,faces\-201064934023074328.png,,,,,20,21.095023109728988,5.0990195135927845,27.018512172212592,4.611062569605222,24,17,266,146,82,8,266,147,104,22,21,320,146,500,1,0,302,18,175,-3,20,228,95,149,149,1.6461194417060812,74.14849964766651,45.04442251822083,0.0,0.0,0.0,0.0,0.0,0.0,100.0,50,0,0,0,0,0,0,0,0,0,0,0,0,0,0,25,0,25,0,0,0,0,25,0,0,25,Neutral,Neutral,55.0,0.0,0.0,0,2,-1,16,12,-6,-6,0.0,52.15686274509804,30.0,59.765591461083254,0.0,0.0,65.92406302004437,61.79390293756047,0.0,60.37408490402642,8.04688170778335,12.074816980805284,3.590535100570299,82.56498040994641,20.950019267001245,100.0,100.0,36.95611273560396,11.96845033523433
0,Test,ID1,BV01,55,0,11000,0,11000,Undified,Nan,faces\8770934353894360045.png,,,,,24,21.02379604162864,6.041381265149108,27.018512172212592,5.5908910219455015,28,20,263,145,81,9,263,146,95,21,22,316,145,500,2,0,297,15,178,-2,22,228,95,149,149,1.6065722582246318,72.3671196055225,45.04442251822083,0.0,0.0,11.0,0.0,0.0,0.0,89.0,50,0,0,6,11,0,0,0,0,0,6,0,6,0,0,25,0,25,0,0,6,0,25,0,0,30,Neutral,Neutral,55.0,0.0,0.0,0,2,-1,15,19,-6,-9,0.0,52.30769230769231,40.0,49.420571417533075,0.0,0.0,84.64817248906141,74.94602843465067,9.311298973796756,57.078208522668355,10.115885716493386,11.415641704533671,9.309826304382387,77.65995980876093,19.63554811154318,95.6,100.0,35.36173127840025,13.962039562647233
0,Test,ID1,BV01,56,0,11200,0,11200,Undified,Nan,faces\7103993897518859422.png,,,,,20,22.02271554554524,5.0990195135927845,27.018512172212592,5.0990195135927845,23,18,263,147,83,7,263,147,37,10,27,318,147,500,1,0,268,17,177,-2,19,228,95,149,149,1.5676565854202,72.18032973047436,46.04345773288535,0.0,0.0,0.0,0.0,0.0,0.0,100.0,50,0,0,0,0,0,0,0,0,0,0,0,0,0,0,25,0,25,0,0,0,0,25,0,0,25,Neutral,Neutral,75.0,0.0,0.0,-6,8,4,14,9,-5,-8,0.0,52.45283018867925,26.666666666666668,65.0599776048236,0.0,0.0,71.65313105737893,65.89304079676901,0.0,65.30989656240722,6.98800447903528,13.061979312481444,3.228476815408696,83.44820820391377,22.67229496099318,100.0,100.0,38.04648448436108,10.761589384695654
0,Test,ID1,BV01,57,0,11400,0,11400,Undified,Nan,faces\-763229521922694241.png,,,,,23,22.09072203437452,6.041381265149108,27.0,5.5,27,20,266,147,83,8,266,147,55,21,38,321,147,100,0,2,77,18,177,-2,19,245,107,124,124,1.6278820596099708,71.7007670809734,44.04543109109048,0.0,0.0,26.0,0.0,0.0,3.0,72.0,50,0,0,13,28,2,0,0,0,0,13,2,13,2,0,25,0,25,2,0,13,2,25,0,0,38,Neutral,Neutral,75.0,0.0,0.0,-6,6,4,14,9,-5,-9,0.0,52.59259259259259,20.0,65.0599776048236,0.0,0.0,65.92406302004437,61.924621891808826,17.140256385211536,64.11937089091916,6.98800447903528,12.823874178183832,12.634653466688041,75.80421431574149,21.610264154303938,89.6,100.0,35.267905633637874,10.691708182738985
0,Test,ID1,BV01,58,0,11600,0,11600,Undified,Nan,faces\1049290458983595001.png,,,,,23,22.09072203437452,5.5908910219455015,27.07397274136177,6.041381265149108,25,22,271,146,83,9,271,148,65,13,20,326,146,500,2,0,282,17,174,-3,17,244,95,150,149,1.6181656342115711,72.83543093852056,45.01110973970761,0.0,0.0,0.0,0.0,32.0,0.0,68.0,50,0,0,0,0,16,16,0,0,0,0,0,16,0,16,25,0,25,0,0,0,0,41,0,0,25,Neutral,Neutral,75.0,0.0,0.0,-9,11,0,14,16,-6,-8,0.0,52.727272727272734,26.666666666666668,73.18138246970673,0.0,0.0,71.65313105737893,65.97537355834706,22.929001938361257,71.01957979629883,5.363723506058654,14.203915959259767,15.31097720882538,74.2531762125696,22.780212570331667,100.0,100.0,38.55293696944482,9.000087142422286
0,Test,ID1,BV01,59,0,11800,0,11800,Undified,Nan,faces\3081519956127825267.png,,,,,20,23.08679276123039,5.0990195135927845,26.0,5.0,22,19,279,145,83,9,279,147,1100,33,3,335,145,33,2,6,566,17,172,-2,15,259,107,124,124,1.6573146567431234,76.23647421018367,46.0,0.0,0.0,74.0,0.0,0.0,19.0,7.0,50,0,0,37,84,10,0,0,0,0,37,10,37,10,0,25,0,25,10,0,37,10,25,0,0,62,Awe,Fear,75.0,11.904761904761903,88.09523809523809,0,0,0,0,0,0,0,93.0,52.85714285714286,26.666666666666668,80.45760130176139,0.0,71.65313105737893,71.65313105737893,66.0143345973081,53.02331698246041,76.1246212904254,3.908479739647723,52.424924258085085,31.40679683367611,62.48702466210165,48.529857788816514,70.4,100.0,52.618693193563814,52.75371783488581
0,Test,ID1,BV01,60,0,12000,0,12000,Undified,Nan,faces\5760882899601176154.png,,,,,28,24.020824298928627,7.0,26.0,7.535533905932738,29,28,280,139,87,11,280,139,500,33,0,340,141,500,1,0,500,17,173,0,9,244,95,150,149,1.695808832284532,78.02563681252464,46.01086828130936,0.0,0.0,0.0,0.0,31.0,0.0,69.0,50,0,0,0,0,16,16,0,0,0,0,0,16,0,16,25,0,25,0,0,0,0,40,0,0,25,Neutral,Neutral,75.0,0.0,0.0,-2,5,5,17,12,-7,-9,0.0,52.98245614035088,26.666666666666668,92.87098580467497,0.0,0.0,71.65313105737893,66.0519285822705,22.212470627787464,84.82526863795363,1.4258028390650055,16.965053727590725,13.697231275949976,76.82474184303538,26.088791343791947,100.0,100.0,40.27379029569305,4.934574768889567
0,Test,ID1,BV01,61,0,12200,0,12200,Undified,Nan,faces\-6241651664162717799.png,,,,,29,25.079872407968914,8.0,26.0,7.5,31,28,274,139,87,11,274,139,1066,32,3,334,141,50,1,2,558,18,175,0,8,244,95,150,149,1.5741118303026131,74.0,47.01063709417264,80.0,0.0,0.0,0.0,0.0,0.0,20.0,50,0,0,0,0,0,0,40,0,0,0,0,0,0,40,25,40,25,0,0,0,40,25,0,0,25,Anger,Neutral,75.0,11.11111111111111,88.88888888888889,-45,74,33,-55,95,-43,63,80.0,53.10344827586208,20.0,94.29494830235252,0.0,0.0,65.92406302004437,62.077878596789674,65.92406302004437,84.62982739068367,65.1410103395295,35.16596547813674,56.83502052150395,38.69496632186521,27.826953479857437,92.0,20.0,27.64447410860255,46.811508423820676
0,Test,ID1,BV01,62,0,12400,0,12400,Undified,Nan,faces\-7611804187895186494.png,,,,,30,24.020824298928627,8.06225774829855,25.019992006393608,7.0,33,27,273,140,84,10,273,140,1550,31,2,331,142,500,1,0,1025,18,175,0,8,259,107,124,124,1.5213796786450902,70.0,46.01086828130936,57.0,0.0,7.0,0.0,0.0,0.0,36.0,50,0,0,4,7,0,0,28,0,0,4,0,4,0,28,25,28,25,0,0,4,28,25,0,0,28,Anger,Neutral,75.0,14.925373134328357,85.07462686567165,-47,81,33,-52,92,-44,63,64.0,53.22033898305086,20.0,94.29494830235252,0.0,0.0,65.92406302004437,62.11294580894631,65.92406302004437,84.64034755433066,46.741010339529495,31.264069510866136,51.29748691542563,43.02604522309257,23.862691410891923,91.5,43.0,27.9960521331496,41.799497564421976
0,Test,ID1,BV01,63,0,12600,0,12600,Undified,Nan,faces\-8945210596784483410.png,,,,,29,25.019992006393608,7.071067811865476,24.0,7.5,28,31,277,140,85,10,277,140,275,22,8,337,141,100,0,0,187,18,173,1,1,259,107,124,124,1.4797534047566467,71.02816342831905,48.0,84.0,0.0,0.0,0.0,0.0,0.0,16.0,50,0,0,0,0,0,0,42,0,0,0,0,0,0,42,25,42,25,0,0,0,42,25,0,0,25,Anger,Neutral,75.0,10.638297872340425,89.36170212765957,-37,76,29,-49,96,-43,64,84.0,53.333333333333336,20.0,98.33694897577686,0.0,0.0,65.92406302004437,62.146844114031055,65.92406302004437,87.47991751725311,67.53261020484463,36.647983503450625,57.51801772247779,38.43357757374308,29.51333713668759,91.6,16.0,28.071987627587973,47.00636907009285
0,Test,ID1,BV01,64,0,12800,0,12800,Undified,Nan,faces\3730367041877350769.png,,,,,31,25.079872407968914,8.06225774829855,26.0,8.0,32,30,278,137,87,11,278,137,204,41,20,338,139,500,10,0,352,17,171,2,0,244,95,150,149,1.5336904820034072,75.16648189186455,49.01020301937139,0.0,0.0,7.0,0.0,22.0,0.0,71.0,50,0,0,4,7,11,11,0,0,0,4,0,14,0,11,25,0,25,0,0,4,0,36,0,0,28,Neutral,Neutral,55.0,0.0,0.0,-2,10,8,18,19,-4,-9,0.0,53.442622950819676,26.666666666666668,98.33587956325762,0.0,0.0,71.65313105737893,66.18997862541114,15.763688832623364,88.69210928190367,0.33282408734847596,17.738421856380736,9.753482641524444,80.66642481497081,28.639669801973,97.2,100.0,41.203816392285546,3.6115126119386383
0,Test,ID1,BV01,65,0,13000,0,13000,Undified,Nan,faces\-1466259876426174832.png,,,,,26,27.07397274136177,7.035533905932738,27.018512172212592,7.531128874149275,25,27,276,134,92,12,276,134,471,33,7,340,137,25,1,4,248,19,172,3,-2,244,95,150,149,1.5352631863947128,78.31347265956222,51.0098029794274,0.0,0.0,22.0,0.0,7.0,0.0,71.0,50,0,0,11,22,4,4,0,0,0,11,0,14,0,4,25,0,25,0,0,11,0,28,0,0,36,Neutral,Neutral,55.0,0.0,0.0,-3,8,9,12,17,-4,-9,0.0,53.5483870967742,13.333333333333334,98.12826950307297,0.0,0.0,60.653065971263345,58.5216623089166,13.343674513677936,86.24628734482606,0.37434609938540575,17.24925746896521,8.419066747822358,81.48937533622473,28.110509369828986,91.2,100.0,39.33694310172392,3.600152550998306
0,Test,ID1,BV01,66,0,13200,0,13200,Undified,Nan,faces\7202101675732317502.png,,,,,28,27.018512172212592,8.031128874149275,27.018512172212592,7.5,29,27,272,129,94,12,272,129,520,26,5,338,132,500,1,0,510,17,171,2,0,244,95,150,149,1.5632091736289038,81.30190649671138,52.00961449578339,0.0,0.0,0.0,0.0,32.0,0.0,68.0,50,0,0,0,0,16,16,0,0,0,0,0,16,0,16,25,0,25,0,0,0,0,41,0,0,25,Neutral,Neutral,55.0,0.0,0.0,0,3,3,16,9,-4,-9,0.0,53.65079365079366,26.666666666666668,98.33587956325762,0.0,0.0,71.65313105737893,66.25242983540335,22.929001938361257,88.71084464490133,0.33282408734847596,17.742168928980266,13.663179244684187,77.54054106874278,28.33176526809961,100.0,100.0,41.9066266967352,3.507427261951646
0,Test,ID1,BV01,67,0,13400,0,13400,Undified,Nan,faces\4247075234660182708.png,,,,,25,28.0,7.035533905932738,27.0,7.035533905932738,25,26,268,130,93,9,268,130,471,33,7,333,130,25,1,4,248,20,170,0,-1,244,95,150,149,1.5771004536918756,82.02438661763951,52.00961449578339,19.0,0.0,0.0,0.0,0.0,0.0,81.0,50,0,0,0,0,0,0,10,0,0,0,0,0,0,10,25,10,25,0,0,0,10,25,0,0,25,Neutral,Neutral,55.0,0.0,0.0,-2,13,3,20,12,-7,-8,0.0,53.75,6.666666666666667,98.34398171348894,0.0,0.0,55.80351457700471,55.1874602039033,10.602667769630896,85.39702526061325,15.531203657302212,17.07940505212265,11.428328370487655,78.69703982967118,26.41896029812043,98.1,81.0,36.55955378909199,3.456203657302211
0,Test,ID1,BV01,68,0,13600,0,13600,Undified,Nan,faces\-4063769686350604667.png,,,,,21,27.07397274136177,5.549509756796391,26.0,6.0827625302982185,20,23,269,129,92,11,269,132,280,14,5,334,129,500,2,0,390,20,169,-2,0,244,95,150,149,1.515847656477081,79.05694150420948,52.153619241621186,0.0,0.0,0.0,0.0,0.0,0.0,100.0,50,0,0,0,0,0,0,0,0,0,0,0,0,0,0,25,0,25,0,0,0,0,25,0,0,25,Neutral,Neutral,55.0,0.0,0.0,-3,11,6,22,15,-6,-9,0.0,53.846153846153854,6.666666666666667,98.33587956325762,0.0,0.0,55.80351457700471,55.21630635774946,0.0,85.40000760160517,0.33282408734847596,17.080001520321034,1.0229241492814647,87.12166144073535,27.662168044474825,100.0,100.0,40.71000114024077,3.4097471642715487
0,Test,ID1,BV01,69,0,13800,0,13800,Undified,Nan,faces\5685416210882938903.png,,,,,24,26.1725046566048,6.0,26.0768096208106,7.071067811865476,22,27,271,124,89,17,271,132,56,9,16,333,124,300,9,3,178,17,168,-6,1,244,95,150,149,1.6084767246747065,79.40403012442127,49.36598018878993,0.0,0.0,0.0,0.0,0.0,0.0,100.0,50,0,0,0,0,0,0,0,0,0,0,0,0,0,0,25,0,25,0,0,0,0,25,0,0,25,Neutral,Neutral,55.0,0.0,0.0,-1,6,3,17,15,-7,-8,0.0,53.93939393939393,26.666666666666668,98.33694897577686,0.0,0.0,71.65313105737893,66.33900992198343,0.0,88.73756725963884,0.33261020484462733,17.74751345192777,1.0088739705442986,87.36665754952845,28.121057569862554,100.0,100.0,40.86063508894583,3.3629132351476616
0,Test,ID1,BV01,70,0,14000,0,14000,Undified,Nan,faces\-3250436518529625310.png,,,,,24,25.495097567963924,6.0827625302982185,26.1725046566048,6.681436209789369,23,25,274,124,87,17,274,132,13,2,15,334,124,600,6,1,306,16,168,-7,7,244,95,150,149,1.6269784336399211,78.5175139698144,48.25971404805462,0.0,0.0,0.0,0.0,0.0,0.0,100.0,50,0,0,0,0,0,0,0,0,0,0,0,0,0,0,25,0,25,0,0,0,0,25,0,0,25,Neutral,Neutral,55.0,0.0,0.0,0,8,0,21,11,-6,-8,0.0,54.02985074626866,33.333333333333336,95.40106416225649,0.0,0.0,77.8800783071405,70.72501003887893,0.0,87.99824792524322,0.9197871675487023,17.599649585048645,1.1714585383243121,87.26265796186487,28.325827777497295,100.0,100.0,41.099737188786484,3.9048617944143738
0,Test,ID1,BV01,71,0,14200,0,14200,Undified,Nan,faces\3996961354564117037.png,,,,,26,25.179356624028344,6.576915171081848,26.0768096208106,7.071067811865476,26,27,276,125,87,15,276,131,66,6,9,336,125,500,8,0,283,18,169,-5,3,259,93,124,124,1.6072304300169329,77.41446893184762,48.16637831516918,0.0,0.0,0.0,0.0,33.0,0.0,67.0,50,0,0,0,0,16,16,0,0,0,0,0,16,0,16,25,0,25,0,0,0,0,42,0,0,25,Neutral,Neutral,55.0,0.0,0.0,0,3,3,16,10,-6,-9,0.0,54.11764705882352,20.0,97.86759515267833,0.0,0.0,65.92406302004437,62.38213823167811,21.75494079661464,87.22195807637826,0.4264809694643333,17.444391615275652,12.975514670153824,77.74178407151477,27.179667926246044,100.0,100.0,40.98329371145674,3.367657440052572
0,Test,ID1,BV01,72,0,14400,0,14400,Undified,Nan,faces\2333844800590741656.png,,,,,28,25.079872407968914,7.071067811865476,25.079872407968914,7.071067811865476,28,28,276,126,87,15,276,132,177,16,9,337,126,166,5,3,171,18,170,-5,2,244,95,150,149,1.6417128006285149,77.31752712031083,47.095647357266465,0.0,0.0,0.0,0.0,20.0,0.0,80.0,50,0,0,0,0,10,10,0,0,0,0,0,10,0,10,25,0,25,0,0,0,0,35,0,0,25,Neutral,Neutral,55.0,0.0,0.0,-6,7,9,17,13,-6,-8,0.0,54.20289855072463,20.0,98.2404278726887,0.0,0.0,65.92406302004437,62.407713679248445,13.184812604008876,87.49061361465662,0.3519144254622603,17.498122722931324,8.226786477234866,81.56763217967777,27.629416621631933,100.0,100.0,41.023592042198494,3.2504651500999437
0,Test,ID1,BV01,73,0,14600,0,14600,Undified,Nan,faces\6221925848606689422.png,,,,,26,25.179356624028344,6.0827625302982185,25.079872407968914,7.071067811865476,24,28,275,127,87,14,275,133,266,8,3,336,127,500,3,0,383,18,170,-5,3,244,95,150,149,1.6411834589915342,77.41446893184762,47.16990566028302,0.0,0.0,0.0,0.0,0.0,0.0,100.0,50,0,0,0,0,0,0,0,0,0,0,0,0,0,0,25,0,25,0,0,0,0,25,0,0,25,Neutral,Neutral,55.0,0.0,0.0,-5,4,-1,13,21,-6,-7,0.0,54.28571428571429,20.0,97.86759515267833,0.0,0.0,65.92406302004437,62.432558399745346,0.0,87.23708412679842,0.4264809694643333,17.447416825359685,0.9850871479821561,87.33563869429413,28.142834901129017,100.0,100.0,40.98556261901976,3.283623826607188
0,Test,ID1,BV01,74,0,14800,0,14800,Undified,Nan,faces\3815082544289739710.png,,,,,28,24.186773244895647,7.035533905932738,25.179356624028344,7.071067811865476,29,28,276,127,86,15,276,132,1500,15,1,336,127,500,6,0,1000,19,170,-5,4,244,95,150,149,1.5886567143279264,76.32168761236873,48.04164859785725,0.0,0.0,0.0,0.0,29.0,0.0,71.0,50,0,0,0,0,14,14,0,0,0,0,0,14,0,14,25,0,25,0,0,0,0,40,0,0,25,Neutral,Neutral,55.0,0.0,0.0,-5,6,5,16,13,-4,-9,0.0,54.36619718309859,13.333333333333334,97.36189547074287,0.0,0.0,60.653065971263345,58.767005334813916,17.589389131666373,85.78342842996418,0.5276209058514268,17.156685685992837,10.677520716707145,79.6363262696307,27.80948973445411,100.0,100.0,41.467514264494625,3.3445223143021305
0,Test,ID1,BV01,75,0,15000,0,15000,Undified,Nan,faces\-511879283285903056.png,,,,,23,25.179356624028344,6.041381265149108,25.079872407968914,6.0827625302982185,23,24,274,129,87,13,274,134,142,10,7,335,129,500,1,0,321,17,171,-5,7,244,95,150,149,1.6180165413523704,76.32168761236873,47.16990566028302,0.0,0.0,0.0,0.0,3.0,0.0,97.0,50,0,0,0,0,2,2,0,0,0,0,0,2,0,2,25,0,25,0,0,0,0,26,0,0,25,Neutral,Neutral,55.0,0.0,0.0,-4,4,4,17,11,-4,-9,0.0,54.44444444444444,26.666666666666668,95.40106416225649,0.0,0.0,71.65313105737893,66.49052507349857,2.149593931721368,86.72790243562912,0.9197871675487023,17.345580487125826,2.2915461460446966,86.43955332672716,28.725930941579996,100.0,100.0,41.609185365344366,3.6975649453264805
0,Test,ID1,BV01,76,0,15200,0,15200,Undified,Nan,faces\-7087421957335092462.png,,,,,20,25.179356624028344,5.549509756796391,26.0768096208106,5.0990195135927845,22,19,274,132,87,12,274,136,16,1,6,334,132,500,9,0,258,18,170,-5,4,244,95,150,149,1.588980644891571,76.41989269817121,48.09365862564421,0.0,0.0,0.0,0.0,0.0,0.0,100.0,50,0,0,0,0,0,0,0,0,0,0,0,0,0,0,25,0,25,0,0,0,0,25,0,0,25,Neutral,Neutral,55.0,0.0,0.0,-6,4,0,17,10,-6,-9,0.0,54.520547945205486,20.0,97.36189547074287,0.0,0.0,65.92406302004437,62.5030084975927,0.0,86.90422937879781,0.5276209058514268,17.38084587575956,0.9802040799746051,87.30625967390012,28.05668331208946,100.0,100.0,40.935634406819666,3.2673469332486835
0,Test,ID1,BV01,77,0,15400,0,15400,Undified,Nan,faces\-8693460985295008687.png,,,,,22,25.179356624028344,5.5908910219455015,26.0768096208106,6.0827625302982185,22,23,275,132,87,13,275,137,100,0,10,335,132,500,8,0,300,15,170,-5,6,244,95,150,149,1.681735797953307,77.52418977325722,46.09772228646443,0.0,0.0,0.0,0.0,0.0,0.0,100.0,50,0,0,0,0,0,0,0,0,0,0,0,0,0,0,25,0,25,0,0,0,0,25,0,0,25,Neutral,Neutral,55.0,0.0,0.0,-1,9,4,15,15,-6,-8,0.0,54.59459459459459,40.0,96.18104012833426,0.0,0.0,84.64817248906141,75.63209912072136,0.0,90.01635782605038,0.763791974333148,18.003271565210078,1.039948403110756,87.56967706011645,28.86105716252424,100.0,100.0,41.40245367390755,3.466494677035853
0,Test,ID1,BV01,78,0,15600,0,15600,Undified,Nan,faces\6987428954762696808.png,,,,,17,25.179356624028344,4.754135216376082,26.019223662515373,4.561552812808832,18,17,275,133,87,11,275,137,100,1,1,335,133,500,5,0,300,18,169,-5,3,244,95,150,149,1.6793556187173841,77.41446893184762,46.09772228646443,0.0,0.0,0.0,0.0,5.0,0.0,95.0,50,0,0,0,0,2,2,0,0,0,0,0,2,0,2,25,0,25,0,0,0,0,28,0,0,25,Neutral,Neutral,55.0,0.0,0.0,-8,2,-1,21,9,-6,-7,0.0,54.666666666666664,20.0,97.86759515267833,0.0,0.0,65.92406302004437,62.54684411403105,3.296203151002219,87.27136984108414,0.4264809694643333,17.454273968216828,2.740856023890521,85.93445216499602,28.011287676770635,100.0,100.0,40.99070547616262,3.0931476361310013
0,Test,ID1,BV01,79,0,15800,0,15800,Undified,Nan,faces\5611885260509045172.png,,,,,20,25.179356624028344,5.0990195135927845,26.0,5.5,20,21,276,133,87,12,276,137,200,4,2,336,133,500,3,0,350,16,168,-4,3,244,95,150,149,1.6754279523540876,77.23341245859852,46.09772228646443,0.0,0.0,0.0,0.0,32.0,0.0,68.0,50,0,0,0,0,16,16,0,0,0,0,0,16,0,16,25,0,25,0,0,0,0,41,0,0,25,Neutral,Neutral,55.0,0.0,0.0,-6,2,-1,12,10,-4,-9,0.0,54.73684210526316,33.333333333333336,97.86759515267833,0.0,0.0,77.8800783071405,70.93710744657729,24.92162505828496,89.788448840848,0.4264809694643333,17.9576897681696,14.624311757106556,76.87939547839954,28.535051758051956,100.0,100.0,42.068267326127206,3.0580599168327547
0,Test,ID1,BV01,80,0,16000,0,16000,Undified,Nan,faces\788370551024777476.png,,,,,20,25.179356624028344,5.5908910219455015,26.019223662515373,5.049509756796391,22,19,277,134,87,11,277,137,6,1,15,337,134,300,3,1,153,18,169,-4,6,244,95,150,149,1.5950766949966226,75.23961722390672,47.16990566028302,0.0,0.0,0.0,0.0,33.0,0.0,67.0,50,0,0,0,0,16,16,0,0,0,0,0,16,0,16,25,0,25,0,0,0,0,42,0,0,25,Neutral,Neutral,55.0,0.0,0.0,-1,10,1,20,19,-6,-8,0.0,54.80519480519481,20.0,96.18104012833426,0.0,0.0,65.92406302004437,62.5884025555895,21.75494079661464,86.10324885651083,0.763791974333148,17.220649771302167,12.973575809658776,77.63146423792408,26.888958637920112,100.0,100.0,40.81548732847662,3.3611945717357434
0,Test,ID1,BV01,81,0,16200,0,16200,Undified,Nan,faces\1873045881532658136.png,,,,,18,24.08318915758459,4.611062569605222,26.019223662515373,4.561552812808832,19,17,278,133,86,11,278,137,200,4,2,337,133,500,4,0,350,17,170,-4,5,259,107,124,124,1.647530184241333,74.43117626371358,45.17742799230607,0.0,0.0,0.0,0.0,32.0,0.0,68.0,50,0,0,0,0,16,16,0,0,0,0,0,16,0,16,25,0,25,0,0,0,0,41,0,0,25,Neutral,Neutral,55.0,0.0,0.0,-2,8,1,23,17,-4,-9,0.0,54.87179487179487,26.666666666666668,96.83621206325527,0.0,0.0,71.65313105737893,66.6187302017037,22.929001938361257,87.7709675047898,0.6327575873489452,17.55419350095796,13.570009111534146,77.52108946125165,28.094850822322613,100.0,100.0,41.76564512571847,3.196860151451511
0,Test,ID1,BV01,82,0,16400,0,16400,Undified,Nan,faces\5183082278310612426.png,,,,,21,24.08318915758459,5.549509756796391,26.019223662515373,5.0990195135927845,23,19,278,134,87,10,278,136,100,1,1,338,134,266,8,3,183,17,169,-3,4,244,95,150,149,1.5978408386584035,75.16648189186455,47.04253394535629,0.0,0.0,0.0,0.0,33.0,0.0,67.0,50,0,0,0,0,16,16,0,0,0,0,0,16,0,16,25,0,25,0,0,0,0,42,0,0,25,Neutral,Neutral,55.0,0.0,0.0,-5,8,5,20,19,-6,-9,0.0,54.936708860759495,26.666666666666668,97.36189547074287,0.0,0.0,71.65313105737893,66.6382043983931,23.64553324893505,88.14478814903792,0.5276209058514268,17.628957629807584,13.922823229555782,77.07622023125919,27.343819060385396,100.0,100.0,41.12171822235569,3.0592664754716794
0,Test,ID1,BV01,83,0,16600,0,16600,Undified,Nan,faces\1103187546862699459.png,,,,,28,24.020824298928627,7.0,25.079872407968914,7.071067811865476,29,28,278,131,86,12,278,134,333,20,6,338,131,500,2,0,416,17,173,-3,6,244,95,150,149,1.6305899329419902,75.16648189186455,46.09772228646443,0.0,0.0,0.0,0.0,33.0,0.0,67.0,50,0,0,0,0,16,16,0,0,0,0,0,16,0,16,25,0,25,0,0,0,0,42,0,0,25,Neutral,Neutral,55.0,0.0,0.0,0,9,3,21,13,-5,-8,0.0,55.0,26.666666666666668,96.18104012833426,0.0,0.0,71.65313105737893,66.65719174016525,23.64553324893505,87.32388561188355,0.763791974333148,17.464777122376713,13.984180879214222,77.04504385781698,27.535475788752585,100.0,100.0,41.34858284178253,3.263791974333148
0,Test,ID1,BV01,84,0,16800,0,16800,Undified,Nan,faces\3229403311642568611.png,,,,,29,24.020824298928627,7.072510139298384,25.079872407968914,7.566662780082012,29,30,278,129,86,12,278,132,266,8,3,338,129,500,1,0,383,17,173,-3,7,244,95,150,149,1.632511665998942,75.16648189186455,46.04345773288535,0.0,0.0,0.0,0.0,32.0,0.0,68.0,50,0,0,0,0,16,16,0,0,0,0,0,16,0,16,25,0,25,0,0,0,0,41,0,0,25,Neutral,Neutral,55.0,0.0,0.0,-6,3,4,15,11,-5,-8,0.0,55.06172839506173,26.666666666666668,95.40106416225649,0.0,0.0,71.65313105737893,66.67571025868376,22.929001938361257,86.78345799118466,0.9197871675487023,17.35669159823693,13.627627957104044,77.27624343343523,27.423488841139687,100.0,100.0,41.2675186986777,3.3889229700178385
0,Test,ID1,BV01,85,0,17000,0,17000,Undified,Nan,faces\-5082956641771319051.png,,,,,31,24.020824298928627,8.0,26.0768096208106,8.06225774829855,33,30,278,129,86,13,278,132,500,31,0,337,129,500,1,0,500,17,174,-4,6,244,95,150,149,1.597591740339415,75.23961722390672,47.095647357266465,0.0,0.0,0.0,0.0,32.0,0.0,68.0,50,0,0,0,0,16,16,0,0,0,0,0,16,0,16,25,0,25,0,0,0,0,41,0,0,25,Neutral,Neutral,55.0,0.0,0.0,-4,2,-1,19,10,-5,-9,0.0,55.1219512195122,26.666666666666668,96.18104012833426,0.0,0.0,71.65313105737893,66.6937771060189,22.929001938361257,87.33486122163964,0.763791974333148,17.46697224432793,13.571795975471806,77.37604934178653,27.571320239588562,100.0,100.0,41.35022918324594,3.202816364577049
0,Test,ID1,BV01,86,0,17200,0,17200,Undified,Nan,faces\2509454436905495688.png,,,,,30,25.019992006393608,7.566662780082012,25.079872407968914,7.566662780082012,30,30,277,129,86,13,277,132,2700,27,1,337,129,100,1,1,1400,17,174,-3,5,244,95,150,149,1.689558575891979,76.1051903617618,45.04442251822083,0.0,0.0,0.0,0.0,33.0,0.0,67.0,50,0,0,0,0,16,16,0,0,0,0,0,16,0,16,25,0,25,0,0,0,0,42,0,0,25,Neutral,Neutral,55.0,0.0,0.0,-5,11,8,11,20,-4,-8,0.0,55.18072289156627,26.666666666666668,96.83621206325527,0.0,0.0,71.65313105737893,66.71140860763512,23.64553324893505,87.79877102656921,0.6327575873489452,17.559754205313844,13.917762129384021,77.24566739914971,28.074259496557275,100.0,100.0,41.76981565398538,3.0423961415658107
0,Test,ID1,BV01,87,0,17400,0,17400,Undified,Nan,faces\5699264691231366372.png,,,,,17,24.186773244895647,4.611062569605222,24.0,4.061552812808832,19,16,278,136,83,9,278,138,118,13,11,336,136,500,1,0,309,17,172,-3,5,244,95,150,149,1.7065670610968144,75.16648189186455,44.04543109109048,0.0,0.0,0.0,0.0,33.0,0.0,67.0,50,0,0,0,0,16,16,0,0,0,0,0,16,0,16,25,0,25,0,0,0,0,42,0,0,25,Neutral,Neutral,55.0,0.0,0.0,-4,5,0,17,10,-5,-6,0.0,55.23809523809524,26.666666666666668,96.83621206325527,0.0,0.0,71.65313105737893,66.72862031159382,23.64553324893505,87.80393453775683,0.6327575873489452,17.560786907551368,13.909156277404675,77.15306843185195,27.666290477624404,100.0,100.0,41.420590180663524,3.013709968301325
0,Test,ID1,BV01,88,0,17600,0,17600,Undified,Nan,faces\-8912923127349918479.png,,,,,28,24.020824298928627,7.0,25.079872407968914,7.071067811865476,29,28,276,131,86,12,276,134,500,13,0,336,131,100,0,2,300,17,172,-3,6,244,95,150,149,1.574853106923288,74.16872656315464,47.095647357266465,0.0,0.0,0.0,0.0,1.0,0.0,99.0,50,0,0,0,0,0,0,0,0,0,0,0,0,0,0,25,0,25,0,0,0,0,26,0,0,25,Neutral,Neutral,55.0,0.0,0.0,-7,2,-1,16,15,-7,-9,0.0,55.29411764705882,26.666666666666668,96.18104012833426,0.0,0.0,71.65313105737893,66.7454270342829,0.7165313105737893,87.35035620011885,0.763791974333148,17.47007124002377,1.3291121660567056,86.97174588716652,27.734763638746365,100.0,100.0,40.65255343001783,3.1167331508037384
0,Test,ID1,BV01,89,0,17800,0,17800,Undified,Nan,faces\1540682981904794072.png,,,,,30,24.020824298928627,7.0,25.079872407968914,8.06225774829855,29,32,276,131,86,12,276,134,500,15,0,336,131,100,0,1,300,18,173,-3,5,244,95,150,149,1.5513454412503902,73.0616178304313,47.095647357266465,0.0,0.0,0.0,0.0,33.0,0.0,67.0,50,0,0,0,0,16,16,0,0,0,0,0,16,0,16,25,0,25,0,0,0,0,42,0,0,25,Neutral,Neutral,55.0,0.0,0.0,-1,8,7,21,12,-5,-9,0.0,55.348837209302324,20.0,96.83621206325527,0.0,0.0,65.92406302004437,62.75149527682175,21.75494079661464,86.6107970273252,0.6327575873489452,17.32215940546504,12.852719132947387,77.87890439637462,27.440589696468763,100.0,100.0,41.24161955409878,2.9583389826977826
