Problem,NameTest,User,Module,Image,Timestamp,TimeBlock,TimeVideo,TimeDetection,URL_Media,Codigo_Media,URL,XEyeTracking,YEyeTracking,Distance,Velocity,Blinks,B_left_horizontal,B_left_vertical,B_right_horizontal,B_right_vertical,PLeftEAR,PRightEAR,XFrame,YFrame,WFrame,HFrame,XEyeLeft,YEyeLeft,GazeRatioLeft,LWLeft,RWLeft,XEyeRight,YEyeRight,GazeRatioRight,LWRight,RWRight,GazeRatioAvg,FrownT,Pitch,Roll,Yaw,XPose,YPose,WidthPose,HeightPose,MouthRatio,VMouth,HMouth,Anger,Disgust,Fear,Joy,Sadness,Surprise,Neutral,Anticipation,Trust,Love,Submission,Awe,Disapproval,Remorse,Contempt,Agressiveness,Optimism,Guilt,Curiosity,Despair,Unbelief,Envy,Cynicism,Pride,Hope,Delight,Sentimentality,Shame,Outrage,Pessimism,Morbidness,Dominance,Anxiety,Predominant,Trend,Veracity,Positive valence,Negative valence,Jvalence,Jarousal,Jdominance,Evalence,Earousal,Dvalence,Darousal,Intensity,eng_blinks,eng_frownt,FOCUS,Stress,Variant2,Stress_intens,Cognitive effort,Frustration,Interest,Rejection,Commitment,Confusion,Comprehension,Performance,Confidence 1,Confidence 2,PerformancePolit,Variant
0,Test,ID1,BV01,8,0,1600,0,1600,Undified,Nan,faces\5610337291756064841.png,,,,,34,38.05259518088089,13.038404810405297,37.05401462729781,13.017834423809099,34,35,230,150,126,16,230,150,513,190,37,318,151,93,185,197,303,32,169,0,-6,185,90,215,215,1.6438926930730302,120.00416659433121,73.0,13.0,78.0,1.0,8.0,0.0,0.0,0.0,50,0.0,4,0,1,0,39,46,0,0,4,0,0,39,6,64,10,25,4,0,40,6,25,43,0,26,Disgust,Neutral,100.0,11.363636363636363,88.63636363636364,-30,58,42,-2,-27,-69,37,100.0,30,20.0,96.08269550779448,0.0,0.0,70.83424709523612,58.583972966665286,9.208452122380697,84.83307874545572,73.5834608984411,29.366615749091146,31.639686936841716,56.271558325072206,24.235425518871153,59.300000000000004,9.0,20.274961811818358,62.94255180753201
0,Test,ID1,BV01,9,0,1800,0,1800,Undified,Nan,faces\5552711315335243562.png,,,,,35,38.05259518088089,14.035668847618199,38.05259518088089,13.537036829011749,36,35,229,150,127,16,229,150,429,202,47,317,151,148,200,135,288,32,168,0,-5,185,90,215,215,1.7083897912983284,123.00406497347963,72.0,0.0,44.0,0.0,0.0,0.0,0.0,56.0,50,0.0,0,0,0,0,22,22,0,0,0,0,0,22,0,47,0,25,0,0,22,0,25,22,0,25,Neutral,Neutral,80.0,0.0,0.0,-2,2,7,17,16,-7,-7,0.0,30,20.0,96.78189149123358,0.0,0.0,70.83424709523612,58.583972966665286,0.0,85.32251593386309,35.843621701753285,17.06450318677262,15.253086510525986,75.62978238496551,26.093607221962323,78.0,56.0,31.548377390079462,15.643621701753284
0,Test,ID1,BV01,10,0,2000,0,2000,Undified,Nan,faces\-365130519297229569.png,,,,,34,39.11521443121589,13.038404810405297,38.05259518088089,13.537036829011749,33,35,228,150,128,15,228,150,332,186,56,317,150,134,197,146,233,32,169,0,-5,185,90,215,215,1.6574353478968,121.00413216084812,73.00684899377592,29.0,2.0,0.0,0.0,0.0,0.0,69.0,50,0.0,0,0,0,0,1,16,0,0,0,0,0,1,14,26,14,25,0,0,1,14,25,1,0,25,Neutral,Neutral,80.0,0.0,0.0,-3,11,5,15,21,-6,-6,0.0,30,20.0,96.78189149123358,0.0,0.0,70.83424709523612,58.583972966665286,20.541931657618473,85.32251593386309,25.443621701753283,17.06450318677262,23.431148922216146,69.1873324556134,25.849362229027115,96.1,69.0,34.49837739007946,15.643621701753284
0,Test,ID1,BV01,11,0,2200,0,2200,Undified,Nan,faces\4554674542383740624.png,,,,,35,37.12142238654117,13.519202405202648,36.013886210738214,12.539999694598796,36,34,229,150,125,16,229,150,394,154,39,317,152,100,99,99,247,33,166,1,-9,185,90,215,215,1.7463624573971204,124.00403219250576,71.00704190430693,37.0,0.0,0.0,0.0,0.0,0.0,63.0,50,0.0,0,0,0,0,0,18,0,0,0,0,0,0,18,25,18,25,0,0,0,18,25,0,0,25,Neutral,Neutral,80.0,0.0,0.0,-5,9,2,20,14,-6,-9,0.0,30,0.0,93.61136712239826,0.0,0.0,68.43332004383635,56.90332403068544,25.32032841621945,82.59895419488441,30.87772657552035,16.519790838976885,27.6894986015768,65.50829653822701,24.800568202543808,96.3,63.0,32.88984312923266,16.277726575520347
0,Test,ID1,BV01,12,0,2400,0,2400,Undified,Nan,faces\-742137808713626428.png,,,,,33,39.05124837953327,13.537036829011749,38.01315561749642,12.5,34,32,227,150,128,16,227,150,400,164,41,316,152,85,96,112,242,33,166,1,-9,185,90,215,215,1.7714861741786536,124.00403219250576,70.0,44.0,0.0,0.0,0.0,0.0,0.0,56.0,50,0.0,0,0,0,0,0,22,0,0,0,0,0,0,22,25,22,25,0,0,0,22,25,0,0,25,Neutral,Neutral,80.0,0.0,0.0,-9,5,7,20,10,-5,-8,0.0,30,0.0,93.61136712239826,0.0,0.0,68.43332004383635,56.90332403068544,30.11066081928799,82.59895419488441,36.47772657552035,16.519790838976885,32.0041814232645,62.15655028087685,24.86539357680879,95.6,56.0,31.839843129232662,16.277726575520347
0,Test,ID1,BV01,13,0,2600,0,2600,Undified,Nan,faces\5078353623483652593.png,,,,,35,38.11823710509184,13.537036829011749,37.013511046643494,13.019202405202648,35,35,228,150,127,16,228,150,444,169,38,317,152,76,100,131,260,33,166,0,-7,185,90,215,215,1.7463056715854937,124.0,71.00704190430693,42.0,0.0,0.0,0.0,0.0,0.0,58.0,50,0.0,0,0,0,0,0,21,0,0,0,0,0,0,21,25,21,25,0,0,0,21,25,0,0,25,Neutral,Neutral,80.0,0.0,0.0,-5,2,7,20,19,-7,-7,0.0,30,0.0,95.19608139876723,0.0,0.0,68.43332004383635,56.90332403068544,28.741994418411263,83.70825418834269,34.560783720246555,16.74165083766854,30.676332046200166,63.129759781874135,24.440039525273086,95.8,58.0,31.706238128251403,15.960783720246553
0,Test,ID1,BV01,14,0,2800,0,2800,Undified,Nan,faces\3363427114787954451.png,,,,,33,38.05259518088089,13.0,37.013511046643494,12.539999694598796,34,33,228,151,126,15,228,151,216,156,72,316,152,69,105,151,142,33,165,1,-9,185,90,215,215,1.7857606313395864,125.01599897613104,70.00714249274857,42.0,0.0,0.0,0.0,0.0,0.0,58.0,50,0.0,0,0,0,0,0,21,0,0,0,0,0,0,21,25,21,25,0,0,0,21,25,0,0,25,Neutral,Neutral,100.0,0.0,0.0,-6,10,2,15,12,-7,-6,0.0,30,0.0,93.61136712239826,0.0,0.0,68.43332004383635,56.90332403068544,28.741994418411263,82.59895419488441,34.87772657552035,16.519790838976885,30.771414902782304,62.9427634972626,24.144014898447363,95.8,58.0,31.53984312923266,16.277726575520347
0,Test,ID1,BV01,15,0,3000,0,3000,Undified,Nan,faces\1855871994877960007.png,,,,,35,37.05401462729781,13.517834423809099,37.013511046643494,13.019202405202648,36,35,228,150,125,15,228,150,125,161,128,315,151,47,90,188,86,34,167,0,-10,185,90,215,215,1.7714285714285714,124.0,70.0,34.0,0.0,0.0,0.0,0.0,0.0,66.0,50,0.0,0,0,0,0,0,17,0,0,0,0,0,0,17,25,17,25,0,0,0,17,25,0,0,25,Neutral,Neutral,100.0,0.0,0.0,-6,7,0,14,17,-5,-10,0.0,30,0.0,91.90457695670509,0.0,0.0,66.11377242318554,55.279640696229876,22.47868262388308,80.91709607856252,28.819084608658986,16.183419215712505,25.50900082573339,67.18450894726953,24.947724914367583,96.6,66.0,33.58756441178438,16.619084608658984
0,Test,ID1,BV01,16,0,3200,0,3200,Undified,Nan,faces\4094248850956951768.png,,,,,33,38.05259518088089,13.019202405202648,37.0,12.020797289396148,34,32,228,151,125,15,228,151,93,150,161,315,152,42,82,192,67,33,166,0,-7,185,90,215,215,1.7605633802816902,125.0,71.0,21.0,1.0,0.0,0.0,0.0,0.0,78.0,50,0.0,0,0,0,0,0,11,0,0,0,0,0,0,10,26,10,25,0,0,0,10,25,0,0,25,Neutral,Neutral,100.0,0.0,0.0,-4,2,-1,12,14,-5,-9,0.0,30,20.0,95.19608139876723,0.0,0.0,68.43332004383635,56.90332403068544,14.370997209205632,83.70825418834269,18.560783720246555,16.74165083766854,17.972283581137063,73.49299855392462,26.276363402478136,97.4,78.0,36.4062381282514,15.960783720246553
0,Test,ID1,BV01,17,0,3400,0,3400,Undified,Nan,faces\567483088110134364.png,,,,,27,36.0,10.024937810560443,36.013886210738214,10.024937810560443,27,27,231,149,123,12,231,149,149,145,97,317,149,91,149,163,120,32,165,0,-7,185,90,215,215,1.7714861741786536,124.00403219250576,70.0,0.0,0.0,0.0,66.0,0.0,0.0,34.0,50,0.0,33,0,0,0,0,0,0,0,33,0,0,0,0,25,33,25,33,0,0,0,25,33,0,25,Joy,Neutral,100.0,100.0,0.0,95,21,82,97,25,77,7,66.0,30,40.0,95.19608139876723,0.0,0.0,70.83424709523612,58.583972966665286,0.0,84.21244886913665,0.9607837202465532,63.57048977382733,4.788235116073966,92.2906567940545,77.58217789668961,100.0,100.0,82.7818673303705,32.46078372024655
0,Test,ID1,BV01,18,0,3600,0,3600,Undified,Nan,faces\4220410606135405971.png,,,,,24,37.0,9.0,35.014282800023196,8.531128874149275,24,24,230,149,124,11,230,149,132,140,106,318,150,85,117,137,108,30,165,0,-6,185,90,215,215,1.7464788732394363,124.0,71.0,0.0,0.0,0.0,71.0,0.0,0.0,29.0,50,0.0,36,0,0,0,0,0,0,0,36,0,0,0,0,25,36,25,36,0,0,0,25,36,0,25,Joy,Neutral,100.0,100.0,0.0,93,14,85,91,20,78,7,71.0,30,40.0,96.08269550779448,0.0,0.0,75.89176018322888,62.12423212826022,0.0,85.8951564939342,0.7834608984411034,67.73103129878683,4.735038269532331,92.60148503376756,79.6839376268603,100.0,100.0,84.38427347409012,33.533460898441106
0,Test,ID1,BV01,19,0,3800,0,3800,Undified,Nan,faces\8323778945747883705.png,,,,,24,32.062439083762804,8.06225774829855,36.0,8.5,25,23,242,137,115,14,242,141,100,109,108,320,137,98,133,135,99,27,167,-5,20,185,66,215,215,1.9430142804184745,134.08206442324789,69.00724599634447,0.0,0.0,0.0,40.0,11.0,0.0,49.0,50,0.0,20,0,0,6,6,0,0,0,20,0,6,0,6,25,20,25,20,0,0,0,30,20,0,25,Anticipation,Neutral,100.0,78.43137254901961,21.568627450980394,0,0,0,0,0,0,0,51.0,30,40.0,59.765591461083254,0.0,0.0,84.16308400672835,67.91415880470984,9.25793924074012,62.210161664171224,8.04688170778335,32.84203233283425,12.00593109474207,76.61627129062347,35.964167545105155,100.0,100.0,49.53152424962568,41.189038570528446
0,Test,ID1,BV01,20,0,4000,0,4000,Undified,Nan,faces\-4316850538741560746.png,,,,,30,34.132096331752024,11.04536101718726,36.05551275463989,10.61510775430992,32,29,243,130,119,19,243,135,116,108,93,325,130,101,163,161,108,28,165,-5,11,185,66,215,215,1.9637173652861544,135.72398461583714,69.1158447825099,0.0,0.0,0.0,0.0,88.0,0.0,12.0,50,0.0,0,0,0,44,44,0,0,0,0,0,44,0,44,25,0,25,0,0,0,0,69,0,0,25,Sadness,Neutral,100.0,10.204081632653061,89.79591836734694,-27,49,47,-57,-53,-82,-46,88.0,30,34.285714285714285,90.50289726142418,81.31037598190377,81.31037598190377,81.31037598190377,65.91726318733264,81.31037598190377,83.12720703919672,1.899420547715164,22.961441407839345,49.79053295436163,40.280294340430366,14.009831193842214,100.0,100.0,31.36908105587951,61.3484001395519
0,Test,ID1,BV01,21,0,4200,0,4200,Undified,Nan,faces\-1867028019925572541.png,,,,,30,34.058772731852805,11.02268050859363,36.05551275463989,10.61510775430992,32,29,243,131,119,18,243,136,185,113,61,325,131,99,163,164,142,28,165,-6,13,185,66,215,215,1.9183855310352191,134.6291201783626,70.178344238091,0.0,0.0,0.0,0.0,88.0,0.0,12.0,50,0.0,0,0,0,44,44,0,0,0,0,0,44,0,44,25,0,25,0,0,0,0,69,0,0,25,Sadness,Neutral,100.0,10.204081632653061,89.79591836734694,-24,48,42,-57,-55,-81,-44,88.0,30,34.285714285714285,86.54475225759381,81.31037598190377,81.31037598190377,81.31037598190377,65.91726318733264,81.31037598190377,80.35650553651546,2.6910495484812373,22.75930110730309,50.028021654591456,39.91323322997838,13.6804497071267,100.0,100.0,31.30347583047732,62.14002914031797
0,Test,ID1,BV01,22,0,4400,0,4400,Undified,Nan,faces\6307794787949470808.png,,,,,37,34.132096331752024,13.537036829011749,37.21558813185679,13.095675624185604,39,35,236,130,119,24,236,138,112,145,129,317,130,87,196,223,99,29,165,-7,14,185,66,215,215,1.9811586389944935,137.05838172107534,69.18092222571191,0.0,0.0,0.0,0.0,88.0,0.0,12.0,50,0.0,0,0,0,44,44,0,0,0,0,0,44,0,44,25,0,25,0,0,0,0,69,0,0,25,Sadness,Neutral,100.0,10.204081632653061,89.79591836734694,-27,56,45,-59,-56,-83,-43,88.0,30,28.571428571428573,83.54863070807225,78.55436050549208,78.55436050549208,78.55436050549208,63.98805235384446,78.55436050549208,77.6804572018039,3.2902738583855498,21.520091440360783,48.691980435536315,40.51446137175134,12.271560437626107,100.0,100.0,30.20206858027059,62.73925345022228
0,Test,ID1,BV01,23,0,4600,0,4600,Undified,Nan,faces\2460493672713733166.png,,,,,37,34.132096331752024,13.519202405202648,37.12142238654117,13.095675624185604,39,35,230,133,119,23,230,140,122,135,110,311,133,88,188,212,105,26,165,-7,13,185,66,215,215,2.0049692172613605,137.05838172107534,68.3593446428504,0.0,64.0,19.0,0.0,0.0,1.0,15.0,50,0.0,0,10,20,0,32,32,0,0,10,0,10,32,0,57,0,25,0,0,42,0,25,32,0,34,Disgust,Neutral,100.0,13.513513513513514,86.48648648648648,-26,66,31,4,-32,-67,35,84.0,30,40.0,86.54475225759381,0.0,0.0,87.11587695892689,69.98111387124882,16.55201662219611,81.57566074169031,53.89104954848124,27.403132148338063,29.770924006752235,57.640826868767235,20.3579978722993,60.4,36.0,20.886349111253544,60.31267117010286
0,Test,ID1,BV01,24,0,4800,0,4800,Undified,Nan,faces\-1328835110205234436.png,,,,,35,35.05709628591621,13.019202405202648,38.11823710509184,12.601964935500867,37,33,228,133,120,22,228,140,116,133,114,309,133,92,184,199,104,29,166,-7,16,185,66,215,215,1.992334980175068,136.194713553794,68.3593446428504,0.0,82.0,0.0,0.0,0.0,1.0,17.0,50,0.0,0,0,0,0,41,41,0,0,0,0,0,42,0,66,0,25,0,0,41,0,25,41,0,25,Disgust,Cynicism,100.0,10.869565217391305,89.13043478260869,-27,60,39,-2,-31,-68,35,83.0,30,25.0,76.82951645088069,0.0,0.0,78.55436050549208,63.98805235384446,0.0,72.97707722176982,70.23409670982387,25.219415444353963,25.570229012947163,60.04152451181926,17.798421756624382,59.0,18.0,17.346561583265476,62.66670540547604
0,Test,ID1,BV01,25,0,5000,0,5000,Undified,Nan,faces\-923096681432749598.png,,,,,34,33.13608305156178,12.539999694598796,36.124783736376884,11.605443038891847,37,32,225,135,118,22,225,142,125,99,79,306,135,94,166,175,109,31,167,-8,18,185,90,215,215,2.0839367268461624,138.31124321616085,66.37017402418047,0.0,0.0,0.0,0.0,0.0,0.0,100.0,50,0.0,0,0,0,0,0,0,0,0,0,0,0,0,0,25,0,25,0,0,0,0,25,0,0,25,Neutral,Neutral,80.0,0.0,0.0,-7,8,8,23,17,-5,-8,0.0,30,15.0,69.0246058772074,0.0,0.0,73.31940870813973,60.32358609569781,0.0,66.41429994275452,6.195078824558519,13.282859988550905,6.358523647367555,81.05461107638142,22.709036093326773,100.0,100.0,38.212144991413176,21.195078824558518
0,Test,ID1,BV01,26,0,5200,0,5200,Undified,Nan,faces\-9093413896467737667.png,,,,,35,33.06055050963308,12.519202405202648,37.12142238654117,12.597270508379099,37,33,225,134,118,23,225,142,130,120,92,305,134,82,170,206,106,31,168,-8,19,185,90,215,215,2.090703150150963,136.4734406395618,65.27633568147036,0.0,0.0,0.0,0.0,0.0,0.0,100.0,50,0.0,0,0,0,0,0,0,0,0,0,0,0,0,0,25,0,25,0,0,0,0,25,0,0,25,Neutral,Neutral,100.0,0.0,0.0,-5,10,1,17,9,-5,-7,0.0,30,15.0,65.0599776048236,0.0,0.0,73.31940870813973,60.32358609569781,0.0,63.63906015208586,6.98800447903528,12.727812030417173,6.596401343710584,80.58678494024012,21.968443532045477,100.0,100.0,37.79585902281288,21.98800447903528
0,Test,ID1,BV01,27,0,5400,0,5400,Undified,Nan,faces\-9093413896467737667.png,,,,,35,33.06055050963308,12.519202405202648,37.12142238654117,12.597270508379099,37,33,225,134,118,23,225,142,130,120,92,305,134,82,170,206,106,31,168,-8,19,185,90,215,215,2.090703150150963,136.4734406395618,65.27633568147036,0.0,0.0,0.0,0.0,0.0,0.0,100.0,50,0.0,0,0,0,0,0,0,0,0,0,0,0,0,0,25,0,25,0,0,0,0,25,0,0,25,Neutral,Neutral,100.0,0.0,0.0,0,11,5,17,19,-6,-7,0.0,30,15.0,65.0599776048236,0.0,0.0,73.31940870813973,60.32358609569781,0.0,63.63906015208586,6.98800447903528,12.727812030417173,6.596401343710584,80.48678494024013,21.55844353204548,100.0,100.0,37.445859022812876,21.98800447903528
0,Test,ID1,BV01,28,0,5600,0,5600,Undified,Nan,faces\-6969016239721744536.png,,,,,35,33.06055050963308,12.519202405202648,37.12142238654117,12.539999694598796,37,33,226,134,117,22,226,141,95,93,97,305,134,84,165,195,89,27,167,-8,19,185,90,215,215,2.101619272665184,137.18600511714013,65.27633568147036,0.0,0.0,0.0,0.0,0.0,0.0,100.0,50,0.0,0,0,0,0,0,0,0,0,0,0,0,0,0,25,0,25,0,0,0,0,25,0,0,25,Neutral,Neutral,100.0,0.0,0.0,-5,6,7,19,18,-6,-9,0.0,30,35.0,65.0599776048236,0.0,0.0,84.16308400672835,67.91415880470984,0.0,65.91623196478947,6.98800447903528,13.183246392957896,6.596401343710584,80.71450212151049,22.150508203348416,100.0,100.0,37.78743479471842,21.98800447903528
0,Test,ID1,BV01,29,0,5800,0,5800,Undified,Nan,faces\-7118285277418398398.png,,,,,37,34.058772731852805,13.5,37.12142238654117,13.095675624185604,39,35,225,134,118,23,225,141,105,125,119,305,134,83,170,204,94,28,166,-7,16,185,66,215,215,2.0513112781650524,135.94484175576503,66.27216610312357,0.0,4.0,0.0,59.0,0.0,0.0,37.0,50,0.0,30,0,0,0,2,2,0,0,30,0,0,2,0,27,30,25,30,0,2,0,25,32,0,25,Joy,Neutral,100.0,93.65079365079364,6.349206349206349,96,17,77,89,25,80,5,63.0,30,30.0,76.82951645088069,0.0,0.0,81.31037598190377,65.91726318733264,0.0,73.55584047181627,7.8340967098238625,60.07116809436326,6.850229012947159,89.8754008368239,75.12650020163646,98.0,96.0,80.83337607077245,36.971398297125454
0,Test,ID1,BV01,30,0,6000,0,6000,Undified,Nan,faces\6251940927678277537.png,,,,,36,33.015148038438355,13.019202405202648,36.124783736376884,12.539999694598796,39,34,226,134,117,21,226,140,99,120,121,306,134,88,162,183,93,29,167,-7,18,185,90,215,215,2.040125714902083,135.20355024924456,66.27216610312357,4.0,0.0,0.0,0.0,0.0,0.0,96.0,50,0.0,0,0,0,0,0,2,0,0,0,0,0,0,2,25,2,25,0,0,0,2,25,0,0,25,Neutral,Neutral,100.0,0.0,0.0,-7,8,0,10,12,-5,-9,0.0,30,25.0,69.0246058772074,0.0,0.0,78.55436050549208,63.98805235384446,3.1421744202196833,67.51363982019852,9.395078824558519,13.502727964039705,9.046719578488382,79.01398831922916,22.779808786972545,99.6,96.0,37.57704597302978,21.195078824558518
0,Test,ID1,BV01,31,0,6200,0,6200,Undified,Nan,faces\4415899128356211689.png,,,,,35,34.132096331752024,13.038404810405297,37.12142238654117,12.041594578792296,38,32,226,134,118,21,226,140,102,127,124,306,134,93,161,172,97,27,166,-7,15,185,66,215,215,2.0257416687171843,134.08206442324789,66.18912297349165,0.0,87.0,0.0,0.0,0.0,0.0,13.0,50,0.0,0,0,0,0,44,44,0,0,0,0,0,44,0,68,0,25,0,0,44,0,25,44,0,25,Disgust,Neutral,100.0,10.309278350515463,89.69072164948454,-23,56,32,2,-28,-67,35,87.0,30,35.0,80.45760130176139,0.0,0.0,84.16308400672835,67.91415880470984,0.0,76.69456855264592,73.50847973964773,26.822913710529185,26.552543921894316,59.72742171774915,20.096384309936397,56.5,13.0,18.054185282896892,63.08116015201886
0,Test,ID1,BV01,32,0,6400,0,6400,Undified,Nan,faces\4415899128356211689.png,,,,,35,34.132096331752024,13.038404810405297,37.12142238654117,12.041594578792296,38,32,226,134,118,21,226,140,102,127,124,306,134,93,161,172,97,27,166,-7,15,185,66,215,215,2.0257416687171843,134.08206442324789,66.18912297349165,0.0,87.0,0.0,0.0,0.0,0.0,13.0,50,0.0,0,0,0,0,44,44,0,0,0,0,0,44,0,68,0,25,0,0,44,0,25,44,0,25,Disgust,Neutral,100.0,10.309278350515463,89.69072164948454,-21,56,41,-1,-31,-67,38,87.0,30,35.0,80.45760130176139,0.0,0.0,84.16308400672835,67.91415880470984,0.0,76.69456855264592,73.50847973964773,26.822913710529185,26.552543921894316,59.72742171774915,20.096384309936397,56.5,13.0,18.054185282896892,63.08116015201886
0,Test,ID1,BV01,33,0,6600,0,6600,Undified,Nan,faces\888201100103665825.png,,,,,34,35.05709628591621,12.520797289396148,35.05709628591621,12.103559819694366,35,34,240,135,119,19,240,139,97,168,172,323,135,87,164,187,92,29,166,-5,5,185,90,215,215,2.017260476893084,135.5322839769182,67.1863081289633,0.0,0.0,0.0,0.0,88.0,0.0,12.0,50,0.0,0,0,0,44,44,0,0,0,0,0,44,0,44,25,0,25,0,0,0,0,69,0,0,25,Sadness,Neutral,100.0,10.204081632653061,89.79591836734694,-24,46,43,-56,-52,-81,-43,88.0,30,25.0,96.83621206325527,78.55436050549208,78.55436050549208,78.55436050549208,63.98805235384446,78.55436050549208,86.98176415043201,0.6327575873489452,24.084352830086402,47.89472555422533,42.282395971662936,15.573680634774298,100.0,100.0,32.29726462256481,60.08173717918568
0,Test,ID1,BV01,34,0,6800,0,6800,Undified,Nan,faces\-3072963803266238329.png,,,,,28,35.014282800023196,11.02268050859363,36.0,9.524937810560443,31,26,240,137,123,16,240,140,232,137,59,326,137,95,142,149,163,31,165,-3,0,185,90,215,215,2.015808774821701,135.29966740535616,67.11929677819934,0.0,0.0,0.0,0.0,88.0,0.0,12.0,50,0.0,0,0,0,44,44,0,0,0,0,0,44,0,44,25,0,25,0,0,0,0,69,0,0,25,Sadness,Neutral,100.0,10.204081632653061,89.79591836734694,-24,51,46,-59,-53,-81,-45,88.0,30,15.0,98.33587956325762,73.31940870813973,73.31940870813973,73.31940870813973,60.32358609569781,73.31940870813973,86.93219152298968,0.33282408734847596,24.074438304597937,44.9255220156814,44.652801539753845,15.798328034722807,100.0,100.0,32.289828728448455,59.78180367918521
0,Test,ID1,BV01,35,0,7000,0,7000,Undified,Nan,faces\7870472310671800490.png,,,,,22,35.05709628591621,8.06225774829855,34.058772731852805,8.0,22,23,256,141,119,11,256,142,114,123,107,340,141,92,121,131,103,29,163,0,-7,209,90,215,215,2.001730625840056,138.1774221788784,69.02897942168927,0.0,0.0,0.0,0.0,6.0,0.0,94.0,50,0.0,0,0,0,3,3,0,0,0,0,0,3,0,3,25,0,25,0,0,0,0,28,0,0,25,Neutral,Neutral,100.0,0.0,0.0,-4,4,7,23,10,-7,-10,0.0,30,25.0,95.19608139876723,0.0,0.0,78.55436050549208,63.98805235384446,4.713261630329526,85.8336726852904,0.9607837202465532,17.16673453705808,7.380529012755205,81.97894405832488,26.856312577155087,100.0,100.0,40.42505090279356,15.960783720246553
0,Test,ID1,BV01,36,0,7200,0,7200,Undified,Nan,faces\656864809831278240.png,,,,,23,36.013886210738214,9.0,34.058772731852805,8.0,24,23,259,141,121,11,259,141,116,114,98,345,142,103,125,121,109,27,164,1,-6,209,90,215,215,1.9264705882352944,131.0,68.0,0.0,0.0,0.0,0.0,69.0,0.0,31.0,50,0.0,0,0,0,34,34,0,0,0,0,0,34,0,34,25,0,25,0,0,0,0,60,0,0,25,Sadness,Neutral,100.0,12.658227848101266,87.34177215189874,-24,55,46,-61,-54,-83,-43,69.0,30,35.0,96.08269550779448,84.16308400672835,84.16308400672835,84.16308400672835,67.91415880470984,84.16308400672835,87.63213449686909,0.7834608984411034,22.218426899373817,51.02473447323293,39.64342587110056,9.922376211327322,100.0,100.0,27.894820174530366,54.86890393641579
0,Test,ID1,BV01,37,0,7400,0,7400,Undified,Nan,faces\3865497024313052541.png,,,,,22,35.014282800023196,8.0,34.058772731852805,7.5,22,22,259,143,120,11,259,143,455,82,18,344,144,99,121,122,277,28,165,0,-4,209,90,215,215,1.9400824265546759,130.0,67.00746227100382,0.0,0.0,1.0,17.0,4.0,0.0,78.0,50,0.0,8,0,1,2,2,0,0,0,9,0,2,0,2,25,8,25,8,0,0,0,27,8,0,26,Neutral,Neutral,100.0,0.0,0.0,-8,4,8,20,9,-5,-9,0.0,30,30.0,97.31410088943862,0.0,0.0,81.31037598190377,65.91726318733264,3.252415039276151,87.89504957880682,0.537179822112276,17.579009915761365,6.449982218235566,83.12951918329223,28.286714313030927,99.6,100.0,41.33425743682102,15.537179822112275
0,Test,ID1,BV01,38,0,7600,0,7600,Undified,Nan,faces\-6343243543163677766.png,,,,,23,35.0,8.5,34.058772731852805,8.031128874149275,24,23,259,142,120,13,259,142,251,93,37,344,145,92,121,131,171,27,163,2,-7,209,90,215,215,1.883489873302524,130.01538370516005,69.02897942168927,0.0,0.0,3.0,35.0,13.0,0.0,48.0,50,0.0,18,2,3,6,6,0,0,0,19,0,8,0,6,25,18,25,18,0,2,0,32,18,0,26,Anticipation,Neutral,100.0,72.91666666666666,27.083333333333332,0,0,0,0,0,0,0,51.0,30,35.0,95.19608139876723,0.0,0.0,84.16308400672835,67.91415880470984,10.941200920874685,87.01150462055001,0.9607837202465532,37.80230092411001,10.805895622555045,80.05643396401096,42.5085195515386,98.8,100.0,52.95172569308251,35.48161705357988
0,Test,ID1,BV01,39,0,7800,0,7800,Undified,Nan,faces\6394294744670042833.png,,,,,25,35.014282800023196,9.055385138137416,35.05709628591621,9.0,25,25,257,144,122,13,257,144,321,119,37,343,146,96,135,140,208,30,166,1,-3,209,90,215,215,1.895546298135228,127.0157470552372,67.00746227100382,48.0,0.0,0.0,0.0,0.0,0.0,52.0,50,0.0,0,0,0,0,0,24,0,0,0,0,0,0,24,25,24,25,0,0,0,24,25,0,0,25,Neutral,Neutral,100.0,0.0,0.0,1,7,7,18,9,-4,-8,0.0,30,20.0,97.81548750430306,0.0,0.0,75.89176018322888,62.12423212826022,36.428044887949866,87.1081108914902,38.83690249913939,17.42162217829804,36.18649543811424,59.36161473865763,26.11318919673831,95.2,52.0,32.06621663372353,15.436902499139388
0,Test,ID1,BV01,40,0,8000,0,8000,Undified,Nan,faces\6217689446938775766.png,,,,,25,36.013886210738214,9.524937810560443,35.05709628591621,9.027692569068707,26,25,256,144,120,14,256,144,359,133,37,340,147,86,131,151,222,29,166,2,-6,209,90,215,215,1.8973665961010275,129.0348790056394,68.00735254367721,0.0,0.0,0.0,34.0,0.0,0.0,66.0,50,0.0,17,0,0,0,0,0,0,0,17,0,0,0,0,25,17,25,17,0,0,0,25,17,0,25,Neutral,Neutral,100.0,0.0,0.0,-6,3,4,11,20,-6,-8,0.0,30,25.0,96.08269550779448,0.0,0.0,78.55436050549208,63.98805235384446,0.0,86.45430256160947,0.7834608984411034,17.290860512321895,4.735038269532331,84.2573996405351,27.63931560445588,100.0,100.0,40.868145384241416,15.783460898441103
0,Test,ID1,BV01,41,0,8200,0,8200,Undified,Nan,faces\-5425532253204885542.png,,,,,23,35.0,9.027692569068707,35.128336140500586,8.06225774829855,25,22,254,143,121,14,254,143,238,124,52,339,147,88,121,136,163,28,165,3,-5,209,90,215,215,1.8563297460090848,128.14054783713078,69.02897942168927,53.0,0.0,0.0,0.0,0.0,0.0,47.0,50,0.0,0,0,0,0,0,26,0,0,0,0,0,0,26,25,26,25,0,0,0,26,25,0,0,25,Anger,Neutral,80.0,15.873015873015872,84.12698412698413,-39,73,28,-50,99,-44,62,53.0,30,30.0,96.78189149123358,0.0,0.0,81.31037598190377,65.91726318733264,81.31037598190377,87.5225030000633,43.04362170175329,29.37650060001266,62.13379330057307,34.64521565954788,20.995147315970613,94.7,47.0,27.7283754500095,49.925367733499314
0,Test,ID1,BV01,42,0,8400,0,8400,Undified,Nan,faces\-113195557298014902.png,,,,,24,36.013886210738214,9.027692569068707,35.128336140500586,8.558821443217981,25,24,254,143,121,15,254,143,289,133,46,339,147,84,127,150,186,27,165,3,-6,209,90,215,215,1.911053512751552,128.09761902549164,67.02984409947557,52.0,0.0,0.0,0.0,0.0,0.0,48.0,50,0.0,0,0,0,0,0,26,0,0,0,0,0,0,26,25,26,25,0,0,0,26,25,0,0,25,Anger,Neutral,80.0,16.129032258064516,83.87096774193549,-47,74,31,-58,90,-45,62,52.0,30,35.0,96.08269550779448,0.0,0.0,84.16308400672835,67.91415880470984,84.16308400672835,87.63213449686909,42.38346089844111,28.96642689937382,63.50473447323293,33.459425871100564,20.253976211327323,94.8,48.0,27.394820174530366,49.75120283392498
0,Test,ID1,BV01,43,0,8600,0,8600,Undified,Nan,faces\-113195557298014902.png,,,,,24,36.013886210738214,9.027692569068707,35.128336140500586,8.558821443217981,25,24,254,143,121,15,254,143,289,133,46,339,147,84,127,150,186,27,165,3,-6,209,90,215,215,1.911053512751552,128.09761902549164,67.02984409947557,52.0,0.0,0.0,0.0,0.0,0.0,48.0,50,0.0,0,0,0,0,0,26,0,0,0,0,0,0,26,25,26,25,0,0,0,26,25,0,0,25,Anger,Neutral,80.0,16.129032258064516,83.87096774193549,-45,75,34,-62,88,-45,65,52.0,30,35.0,96.08269550779448,0.0,0.0,84.16308400672835,67.91415880470984,84.16308400672835,87.63213449686909,42.38346089844111,28.96642689937382,63.50473447323293,33.459425871100564,20.253976211327323,94.8,48.0,27.394820174530366,49.75120283392498
0,Test,ID1,BV01,44,0,8800,0,8800,Undified,Nan,faces\-7551101131964984603.png,,,,,28,36.05551275463989,10.524937810560443,36.22154055254967,10.024937810560443,29,27,245,143,125,18,245,143,88,132,150,333,148,89,156,175,88,32,163,3,-8,209,90,215,215,1.8987472423012888,131.13733259449805,69.06518659932803,54.0,0.0,0.0,0.0,0.0,0.0,46.0,50,0.0,0,0,0,0,0,27,0,0,0,0,0,0,27,25,27,25,0,0,0,27,25,0,0,25,Anger,Neutral,80.0,15.625,84.375,-41,81,35,-56,98,-45,63,54.0,30,10.0,94.5886552942058,0.0,0.0,70.83424709523612,58.583972966665286,70.83424709523612,83.78725059594363,44.28226894115885,28.637450119188728,56.74351658472752,38.483911791812346,20.295203828167146,94.6,46.0,26.818087589391546,50.676018941158844
0,Test,ID1,BV01,45,0,9000,0,9000,Undified,Nan,faces\315757222052265174.png,,,,,27,37.013511046643494,10.524937810560443,36.22154055254967,10.04987562112089,28,27,244,143,126,18,244,143,126,145,115,333,148,89,157,175,107,32,163,4,-9,209,90,215,215,1.8703393390738552,131.13733259449805,70.11419257183242,54.0,0.0,0.0,0.0,0.0,0.0,46.0,50,0.0,0,0,0,0,0,27,0,0,0,0,0,0,27,25,27,25,0,0,0,27,25,0,0,25,Anger,Neutral,100.0,15.625,84.375,-43,79,37,-60,95,-46,65,54.0,30,10.0,93.61136712239826,0.0,0.0,70.83424709523612,58.583972966665286,70.83424709523612,83.10314887567837,44.47772657552035,28.284629775135677,56.80215387503597,38.26859178753906,19.702646397673494,94.6,46.0,26.365472331351764,50.87147657552035
0,Test,ID1,BV01,46,0,9200,0,9200,Undified,Nan,faces\-2693585188334242779.png,,,,,28,38.05259518088089,11.02268050859363,36.124783736376884,10.52268050859363,28,29,238,143,126,17,238,143,159,140,88,327,147,91,161,176,125,34,163,3,-8,185,90,215,215,1.9119400579611137,130.13838787997952,68.06614430096654,54.0,0.0,0.0,0.0,0.0,0.0,46.0,50,0.0,0,0,0,0,0,27,0,0,0,0,0,0,27,25,27,25,0,0,0,27,25,0,0,25,Anger,Neutral,100.0,15.625,84.375,-37,83,34,-61,88,-43,65,54.0,30,0.0,94.5886552942058,0.0,0.0,66.11377242318554,55.279640696229876,66.11377242318554,82.795950914813,44.28226894115885,28.871190182962604,54.1472555150997,40.66179067940155,21.065166796643407,94.6,46.0,27.36939263722195,50.676018941158844
0,Test,ID1,BV01,47,0,9400,0,9400,Undified,Nan,faces\-9082471229536347248.png,,,,,27,38.01315561749642,10.52268050859363,37.05401462729781,10.5,27,28,237,143,128,17,237,143,130,145,111,327,147,90,162,179,110,34,163,2,-6,185,90,215,215,1.9113190507359104,130.09611831257686,68.06614430096654,50.0,0.0,4.0,0.0,0.0,0.0,47.0,50,0.0,0,2,4,0,0,25,0,0,2,0,2,0,25,25,25,25,0,0,2,25,25,0,0,27,Anger,Neutral,100.0,16.666666666666664,83.33333333333334,-43,72,27,-56,93,-44,64,54.0,30,0.0,96.08269550779448,0.0,0.0,66.11377242318554,55.279640696229876,66.11377242318554,83.8417790643251,40.783460898441106,28.86435581286502,53.09761310228438,41.50608742460501,21.011053508541774,93.4,50.0,27.57626685964877,50.11679423177444
0,Test,ID1,BV01,48,0,9600,0,9600,Undified,Nan,faces\-65059171717231460.png,,,,,26,37.013511046643494,10.04987562112089,36.124783736376884,9.524937810560443,27,26,238,144,125,16,238,144,126,133,105,326,148,84,143,170,105,33,163,2,-6,185,90,215,215,1.8583614667082844,130.13838787997952,70.02856560004639,36.0,0.0,0.0,0.0,0.0,0.0,64.0,50,0.0,0,0,0,0,0,18,0,0,0,0,0,0,18,25,18,25,0,0,0,18,25,0,0,25,Neutral,Neutral,100.0,0.0,0.0,-5,2,3,14,21,-7,-6,0.0,30,5.0,96.08269550779448,0.0,0.0,68.43332004383635,56.90332403068544,24.635995215781087,84.32888406466176,29.583460898441103,16.865776812932353,26.92483563821193,66.19301989589663,24.901523005755102,96.4,64.0,32.999332609699266,15.783460898441103
0,Test,ID1,BV01,49,0,9800,0,9800,Undified,Nan,faces\4996315653094870448.png,,,,,28,38.01315561749642,11.02268050859363,36.124783736376884,10.5,28,29,237,144,125,16,237,144,141,149,105,325,147,89,158,176,115,32,163,2,-6,185,90,215,215,1.884158291093709,130.06152390311286,69.02897942168927,54.0,0.0,0.0,0.0,0.0,0.0,46.0,50,0.0,0,0,0,0,0,27,0,0,0,0,0,0,27,25,27,25,0,0,0,27,25,0,0,25,Anger,Neutral,100.0,15.625,84.375,-47,83,31,-50,89,-46,64,54.0,30,10.0,96.08269550779448,0.0,0.0,70.83424709523612,58.583972966665286,70.83424709523612,84.83307874545572,43.98346089844111,28.630615749091145,56.6538741719122,38.56020853701581,20.164290540065515,94.6,46.0,26.624961811818363,50.377210898441106
0,Test,ID1,BV01,50,0,10000,0,10000,Undified,Nan,faces\-921213120518437760.png,,,,,27,37.013511046643494,10.024937810560443,35.128336140500586,9.524937810560443,27,27,237,144,125,15,237,144,137,147,107,326,147,87,136,156,112,33,164,3,-7,185,90,215,215,1.872626284300348,131.13733259449805,70.02856560004639,54.0,0.0,0.0,0.0,0.0,0.0,46.0,50,0.0,0,0,0,0,0,27,0,0,0,0,0,0,27,25,27,25,0,0,0,27,25,0,0,25,Anger,Neutral,100.0,15.625,84.375,-43,81,29,-52,91,-45,66,54.0,30,5.0,95.19608139876723,0.0,0.0,68.43332004383635,56.90332403068544,68.43332004383635,83.70825418834269,44.160783720246556,28.62165083766854,55.38656114018396,39.56157650668711,20.383221197754384,94.6,46.0,26.806238128251408,50.55453372024655
0,Test,ID1,BV01,51,0,10200,0,10200,Undified,Nan,faces\-7882662723384949412.png,,,,,27,37.05401462729781,10.0,35.05709628591621,10.024937810560443,26,28,237,144,125,16,237,144,140,147,105,326,148,82,136,164,111,32,164,2,-6,185,90,215,215,1.872027279119712,131.0953851209111,70.02856560004639,54.0,0.0,0.0,0.0,0.0,0.0,46.0,50,0.0,0,0,0,0,0,27,0,0,0,0,0,0,27,25,27,25,0,0,0,27,25,0,0,25,Anger,Neutral,100.0,15.625,84.375,-44,79,34,-49,98,-44,62,54.0,30,10.0,96.08269550779448,0.0,0.0,70.83424709523612,58.583972966665286,70.83424709523612,84.83307874545572,43.98346089844111,29.062615749091144,56.6538741719122,38.760208537015814,20.984290540065516,94.6,46.0,27.324961811818362,50.377210898441106
0,Test,ID1,BV01,52,0,10400,0,10400,Undified,Nan,faces\-7571968971283276155.png,,,,,28,37.013511046643494,11.02268050859363,36.124783736376884,10.024937810560443,29,27,237,144,125,16,237,144,148,160,108,325,148,86,147,170,117,34,164,2,-5,185,90,215,215,1.8868913298601664,132.13629327327143,70.02856560004639,46.0,0.0,0.0,0.0,0.0,0.0,54.0,50,0.0,0,0,0,0,0,23,0,0,0,0,0,0,23,25,23,25,0,0,0,23,25,0,0,25,Neutral,Neutral,100.0,0.0,0.0,-6,5,1,13,10,-4,-7,0.0,30,0.0,96.78189149123358,0.0,0.0,66.11377242318554,55.279640696229876,30.41233531466535,84.33121625273246,37.44362170175329,16.866243250546493,32.45987093359193,62.065224878399704,25.689326551023086,95.4,54.0,32.04968243790987,15.643621701753284
0,Test,ID1,BV01,53,0,10600,0,10600,Undified,Nan,faces\-8502372267974142205.png,,,,,25,37.013511046643494,9.5,36.124783736376884,9.527692569068707,25,26,238,144,124,15,238,144,122,137,112,325,147,94,146,155,108,32,165,3,-8,185,90,215,215,1.886296854638021,132.09466302617986,70.02856560004639,51.0,0.0,0.0,0.0,0.0,0.0,49.0,50,0.0,0,0,0,0,0,26,0,0,0,0,0,0,26,25,26,25,0,0,0,26,25,0,0,25,Anger,Neutral,80.0,16.39344262295082,83.60655737704919,-38,79,27,-55,87,-45,65,51.0,30,10.0,94.5886552942058,0.0,0.0,70.83424709523612,58.583972966665286,70.83424709523612,83.78725059594363,41.88226894115885,27.97745011918873,56.023516584727524,39.05991179181235,19.602803828167147,94.9,49.0,26.818087589391546,49.73390828542114
0,Test,ID1,BV01,54,0,10800,0,10800,Undified,Nan,faces\-8502372267974142205.png,,,,,25,37.013511046643494,9.5,36.124783736376884,9.527692569068707,25,26,238,144,124,15,238,144,122,137,112,325,147,94,146,155,108,32,165,3,-8,185,90,215,215,1.886296854638021,132.09466302617986,70.02856560004639,51.0,0.0,0.0,0.0,0.0,0.0,49.0,50,0.0,0,0,0,0,0,26,0,0,0,0,0,0,26,25,26,25,0,0,0,26,25,0,0,25,Anger,Neutral,80.0,16.39344262295082,83.60655737704919,-44,73,31,-57,96,-43,63,51.0,30,10.0,94.5886552942058,0.0,0.0,70.83424709523612,58.583972966665286,70.83424709523612,83.78725059594363,41.88226894115885,28.38545011918873,56.023516584727524,39.25991179181235,20.422803828167147,94.9,49.0,27.51808758939155,49.73390828542114
0,Test,ID1,BV01,55,0,11000,0,11000,Undified,Nan,faces\-8502372267974142205.png,,,,,25,37.013511046643494,9.5,36.124783736376884,9.527692569068707,25,26,238,144,124,15,238,144,122,137,112,325,147,94,146,155,108,32,165,3,-8,185,90,215,215,1.886296854638021,132.09466302617986,70.02856560004639,51.0,0.0,0.0,0.0,0.0,0.0,49.0,50,0.0,0,0,0,0,0,26,0,0,0,0,0,0,26,25,26,25,0,0,0,26,25,0,0,25,Anger,Neutral,80.0,16.39344262295082,83.60655737704919,-39,74,33,-55,88,-42,64,51.0,30,10.0,94.5886552942058,0.0,0.0,70.83424709523612,58.583972966665286,70.83424709523612,83.78725059594363,41.88226894115885,28.58945011918873,56.023516584727524,39.359911791812344,20.832803828167144,94.9,49.0,27.868087589391546,49.73390828542114
0,Test,ID1,BV01,56,0,11200,0,11200,Undified,Nan,faces\-8502372267974142205.png,,,,,25,37.013511046643494,9.5,36.124783736376884,9.527692569068707,25,26,238,144,124,15,238,144,122,137,112,325,147,94,146,155,108,32,165,3,-8,185,90,215,215,1.886296854638021,132.09466302617986,70.02856560004639,51.0,0.0,0.0,0.0,0.0,0.0,49.0,50,0.0,0,0,0,0,0,26,0,0,0,0,0,0,26,25,26,25,0,0,0,26,25,0,0,25,Anger,Neutral,80.0,16.39344262295082,83.60655737704919,-38,75,36,-51,91,-42,63,51.0,30,10.0,94.5886552942058,0.0,0.0,70.83424709523612,58.583972966665286,70.83424709523612,83.78725059594363,41.88226894115885,28.58945011918873,56.023516584727524,39.359911791812344,20.832803828167144,94.9,49.0,27.868087589391546,49.73390828542114
0,Test,ID1,BV01,57,0,11400,0,11400,Undified,Nan,faces\-8502372267974142205.png,,,,,25,37.013511046643494,9.5,36.124783736376884,9.527692569068707,25,26,238,144,124,15,238,144,122,137,112,325,147,94,146,155,108,32,165,3,-8,185,90,215,215,1.886296854638021,132.09466302617986,70.02856560004639,51.0,0.0,0.0,0.0,0.0,0.0,49.0,50,0.0,0,0,0,0,0,26,0,0,0,0,0,0,26,25,26,25,0,0,0,26,25,0,0,25,Anger,Neutral,80.0,16.39344262295082,83.60655737704919,-47,76,30,-49,97,-43,65,51.0,30,10.0,94.5886552942058,0.0,0.0,70.83424709523612,58.583972966665286,70.83424709523612,83.78725059594363,41.88226894115885,28.38545011918873,56.023516584727524,39.25991179181235,20.422803828167147,94.9,49.0,27.51808758939155,49.73390828542114
0,Test,ID1,BV01,58,0,11600,0,11600,Undified,Nan,faces\-8502372267974142205.png,,,,,25,37.013511046643494,9.5,36.124783736376884,9.527692569068707,25,26,238,144,124,15,238,144,122,137,112,325,147,94,146,155,108,32,165,3,-8,185,90,215,215,1.886296854638021,132.09466302617986,70.02856560004639,51.0,0.0,0.0,0.0,0.0,0.0,49.0,50,0.0,0,0,0,0,0,26,0,0,0,0,0,0,26,25,26,25,0,0,0,26,25,0,0,25,Anger,Neutral,80.0,16.39344262295082,83.60655737704919,-45,80,32,-55,93,-44,66,51.0,30,10.0,94.5886552942058,0.0,0.0,70.83424709523612,58.583972966665286,70.83424709523612,83.78725059594363,41.88226894115885,28.181450119188728,56.023516584727524,39.15991179181235,20.012803828167144,94.9,49.0,27.168087589391547,49.73390828542114
0,Test,ID1,BV01,59,0,11800,0,11800,Undified,Nan,faces\-8502372267974142205.png,,,,,25,37.013511046643494,9.5,36.124783736376884,9.527692569068707,25,26,238,144,124,15,238,144,122,137,112,325,147,94,146,155,108,32,165,3,-8,185,90,215,215,1.886296854638021,132.09466302617986,70.02856560004639,51.0,0.0,0.0,0.0,0.0,0.0,49.0,50,0.0,0,0,0,0,0,26,0,0,0,0,0,0,26,25,26,25,0,0,0,26,25,0,0,25,Anger,Neutral,100.0,16.39344262295082,83.60655737704919,-46,74,30,-57,87,-44,64,51.0,30,10.0,94.5886552942058,0.0,0.0,70.83424709523612,58.583972966665286,70.83424709523612,83.78725059594363,41.88226894115885,28.181450119188728,56.023516584727524,39.15991179181235,20.012803828167144,94.9,49.0,27.168087589391547,49.73390828542114
0,Test,ID1,BV01,60,0,12000,0,12000,Undified,Nan,faces\-8502372267974142205.png,,,,,25,37.013511046643494,9.5,36.124783736376884,9.527692569068707,25,26,238,144,124,15,238,144,122,137,112,325,147,94,146,155,108,32,165,3,-8,185,90,215,215,1.886296854638021,132.09466302617986,70.02856560004639,51.0,0.0,0.0,0.0,0.0,0.0,49.0,50,0.0,0,0,0,0,0,26,0,0,0,0,0,0,26,25,26,25,0,0,0,26,25,0,0,25,Anger,Neutral,100.0,16.39344262295082,83.60655737704919,-47,83,27,-54,89,-44,63,51.0,30,10.0,94.5886552942058,0.0,0.0,70.83424709523612,58.583972966665286,70.83424709523612,83.78725059594363,41.88226894115885,28.181450119188728,56.023516584727524,39.15991179181235,20.012803828167144,94.9,49.0,27.168087589391547,49.73390828542114
0,Test,ID1,BV01,61,0,12200,0,12200,Undified,Nan,faces\-2073420025094008399.png,,,,,27,37.013511046643494,10.050373077662341,35.128336140500586,9.524937810560443,27,27,236,143,124,16,236,143,152,140,92,324,147,89,140,156,120,32,165,2,-7,185,90,215,215,1.916008228885382,134.13426109685773,70.00714249274857,54.0,0.0,0.0,0.0,0.0,0.0,46.0,50,0.0,0,0,0,0,0,27,0,0,0,0,0,0,27,25,27,25,0,0,0,27,25,0,0,25,Anger,Neutral,100.0,15.625,84.375,-38,80,27,-49,96,-42,66,54.0,30,10.0,95.19608139876723,0.0,0.0,70.83424709523612,58.583972966665286,70.83424709523612,84.21244886913665,44.160783720246556,29.37048977382733,56.70707101845383,38.855588072150596,21.638671024499224,94.6,46.0,27.931867330370498,50.55453372024655
0,Test,ID1,BV01,62,0,12400,0,12400,Undified,Nan,faces\829868329637373306.png,,,,,28,36.013886210738214,10.5,35.05709628591621,10.0,29,28,237,144,123,15,237,144,184,142,77,324,147,81,139,171,132,31,165,2,-7,185,90,215,215,1.957041259958367,135.09256086106294,69.02897942168927,0.0,0.0,0.0,49.0,0.0,0.0,51.0,50,0.0,24,0,0,0,0,0,0,0,24,0,0,0,0,25,24,25,24,0,0,0,25,24,0,25,Neutral,Neutral,80.0,0.0,0.0,0,12,5,20,16,-6,-6,0.0,30,15.0,95.19608139876723,0.0,0.0,73.31940870813973,60.32358609569781,0.0,84.73433280784641,0.9607837202465532,16.946866561569284,4.788235116073966,84.04284518792548,27.187867720754156,100.0,100.0,40.61014992117696,15.960783720246553
0,Test,ID1,BV01,63,0,12600,0,12600,Undified,Nan,faces\829868329637373306.png,,,,,28,36.013886210738214,10.5,35.05709628591621,10.0,29,28,237,144,123,15,237,144,184,142,77,324,147,81,139,171,132,31,165,2,-7,185,90,215,215,1.957041259958367,135.09256086106294,69.02897942168927,0.0,0.0,0.0,49.0,0.0,0.0,51.0,50,0.0,24,0,0,0,0,0,0,0,24,0,0,0,0,25,24,25,24,0,0,0,25,24,0,25,Neutral,Neutral,80.0,0.0,0.0,-1,5,0,16,13,-4,-9,0.0,30,15.0,95.19608139876723,0.0,0.0,73.31940870813973,60.32358609569781,0.0,84.73433280784641,0.9607837202465532,16.946866561569284,4.788235116073966,84.24284518792547,28.00786772075415,100.0,100.0,41.310149921176965,15.960783720246553
0,Test,ID1,BV01,64,0,12800,0,12800,Undified,Nan,faces\829868329637373306.png,,,,,28,36.013886210738214,10.5,35.05709628591621,10.0,29,28,237,144,123,15,237,144,184,142,77,324,147,81,139,171,132,31,165,2,-7,185,90,215,215,1.957041259958367,135.09256086106294,69.02897942168927,0.0,0.0,0.0,49.0,0.0,0.0,51.0,50,0.0,24,0,0,0,0,0,0,0,24,0,0,0,0,25,24,25,24,0,0,0,25,24,0,25,Neutral,Neutral,100.0,0.0,0.0,-9,4,3,23,18,-6,-8,0.0,30,15.0,95.19608139876723,0.0,0.0,73.31940870813973,60.32358609569781,0.0,84.73433280784641,0.9607837202465532,16.946866561569284,4.788235116073966,84.04284518792548,27.187867720754156,100.0,100.0,40.61014992117696,15.960783720246553
0,Test,ID1,BV01,65,0,13000,0,13000,Undified,Nan,faces\-822284984105808034.png,,,,,31,37.013511046643494,12.041594578792296,36.05551275463989,11.0,32,30,232,143,125,16,232,143,172,159,92,320,146,92,164,177,132,33,163,1,-4,185,90,215,215,1.913720657114024,132.06059215375342,69.00724599634447,33.0,0.0,0.0,0.0,0.0,0.0,67.0,50,0.0,0,0,0,0,0,16,0,0,0,0,0,0,16,25,16,25,0,0,0,16,25,0,0,25,Neutral,Neutral,100.0,0.0,0.0,-5,4,3,18,13,-5,-8,0.0,30,5.0,97.31410088943862,0.0,0.0,68.43332004383635,56.90332403068544,22.582995614465993,85.19086783181265,26.937179822112277,17.03817356636253,25.00180153458998,68.01764555550928,26.09948151350409,96.7,67.0,34.4286301747719,15.537179822112275
0,Test,ID1,BV01,66,0,13200,0,13200,Undified,Nan,faces\-3550376064245831462.png,,,,,29,36.013886210738214,10.524937810560443,34.132096331752024,10.5,29,30,233,143,122,15,233,143,149,157,105,320,145,92,152,164,120,33,165,2,-4,185,90,215,215,1.8721097563466205,131.06105447462264,70.00714249274857,21.0,0.0,0.0,8.0,0.0,0.0,71.0,50,0.0,4,0,0,0,0,10,0,0,4,0,0,0,10,25,14,25,4,0,0,10,25,4,0,25,Neutral,Neutral,100.0,0.0,0.0,-5,2,7,12,12,-5,-7,0.0,30,5.0,97.31410088943862,0.0,0.0,68.43332004383635,56.90332403068544,14.370997209205632,85.19086783181265,17.337179822112276,17.03817356636253,17.60520241169678,73.93492485382384,26.69120944333555,97.9,79.0,36.8286301747719,15.537179822112275
0,Test,ID1,BV01,67,0,13400,0,13400,Undified,Nan,faces\7317442539049593497.png,,,,,28,36.0,10.524937810560443,35.05709628591621,9.527692569068707,29,27,232,143,123,14,232,143,139,152,109,319,145,92,143,155,115,32,165,1,-2,185,90,215,215,1.8719192377485363,131.03434664239757,70.0,0.0,0.0,0.0,51.0,0.0,0.0,49.0,50,0.0,26,0,0,0,0,0,0,0,26,0,0,0,0,25,26,25,26,0,0,0,25,26,0,25,Joy,Neutral,80.0,100.0,0.0,90,18,86,93,24,77,6,51.0,30,10.0,98.12826950307297,0.0,0.0,70.83424709523612,58.583972966665286,0.0,86.26498054215067,0.37434609938540575,53.36099610843013,4.612303829815621,92.63665499036257,74.37991063457392,100.0,100.0,80.0897470813226,28.124346099385406
0,Test,ID1,BV01,68,0,13600,0,13600,Undified,Nan,faces\5228568245811398932.png,,,,,29,36.05551275463989,11.02268050859363,37.013511046643494,11.0,30,29,232,143,124,15,232,143,131,145,110,318,145,85,162,189,108,32,164,1,0,185,90,215,215,1.8735300994958095,133.0338302838793,71.00704190430693,0.0,0.0,0.0,71.0,0.0,0.0,29.0,50,0.0,36,0,0,0,0,0,0,0,36,0,0,0,0,25,36,25,36,0,0,0,25,36,0,25,Joy,Neutral,80.0,100.0,0.0,97,12,76,95,25,77,5,71.0,30,10.0,98.33587956325762,0.0,0.0,70.83424709523612,58.583972966665286,0.0,86.41030758427992,0.33282408734847596,67.55006151685599,4.599847226204543,92.66115297746435,79.41869219381641,100.0,100.0,84.111546137642,33.08282408734848
0,Test,ID1,BV01,69,0,13800,0,13800,Undified,Nan,faces\8335703061607430509.png,,,,,28,36.013886210738214,10.52268050859363,35.05709628591621,10.0,29,28,232,143,123,14,232,143,130,151,116,319,145,83,143,171,106,31,165,1,-2,185,90,215,215,1.8570083204069932,130.00384609695206,70.00714249274857,0.0,0.0,0.0,74.0,0.0,0.0,26.0,50,0.0,37,0,0,0,0,0,0,0,37,0,0,0,0,25,37,25,37,0,0,0,25,37,0,25,Joy,Neutral,80.0,100.0,0.0,94,17,77,99,22,77,7,74.0,30,15.0,98.12826950307297,0.0,0.0,73.31940870813973,60.32358609569781,0.0,86.78686448086043,0.37434609938540575,69.74937289617208,4.612303829815621,92.68884338423355,80.26560045863846,100.0,100.0,84.76802967212906,33.874346099385406
0,Test,ID1,BV01,70,0,14000,0,14000,Undified,Nan,faces\-7806083747538671114.png,,,,,29,37.013511046643494,11.04536101718726,36.013886210738214,10.52268050859363,29,29,231,143,124,14,231,143,114,136,119,318,145,95,155,163,104,31,165,1,-4,185,90,215,215,1.8594505976735216,132.0340865079923,71.00704190430693,0.0,0.0,0.0,76.0,0.0,0.0,24.0,50,0.0,38,0,0,0,0,0,0,0,38,0,0,0,0,25,38,25,38,0,0,0,25,38,0,25,Joy,Neutral,80.0,100.0,0.0,92,20,80,92,20,80,5,76.0,30,15.0,97.31410088943862,0.0,0.0,73.31940870813973,60.32358609569781,0.0,86.21694645131637,0.537179822112276,71.96338929026328,4.661153946633683,92.89277148782469,81.84351376161158,100.0,100.0,86.13254196769745,34.53717982211228
0,Test,ID1,BV01,71,0,14200,0,14200,Undified,Nan,faces\-5475464351348788169.png,,,,,29,37.013511046643494,11.02268050859363,36.05551275463989,11.0,29,30,231,143,124,15,231,143,118,154,130,318,145,88,162,183,103,28,165,1,-1,185,90,215,215,1.8879773696194453,134.05968819895114,71.00704190430693,0.0,0.0,0.0,75.0,0.0,0.0,25.0,50,0.0,38,0,0,0,0,0,0,0,38,0,0,0,0,25,38,25,38,0,0,0,25,38,0,25,Joy,Neutral,100.0,100.0,0.0,92,22,76,99,26,78,7,75.0,30,30.0,98.34398171348894,0.0,0.0,81.31037598190377,65.91726318733264,0.0,88.61596615564206,0.33120365730221124,71.12319323112843,4.5993610971906635,92.98210773781167,81.40220231269168,100.0,100.0,85.5923949233463,34.08120365730221
0,Test,ID1,BV01,72,0,14400,0,14400,Undified,Nan,faces\-2334591933316821111.png,,,,,29,37.013511046643494,11.04536101718726,36.013886210738214,11.0,29,30,230,143,125,15,230,143,95,127,133,318,145,93,164,176,94,29,164,0,-1,185,90,215,215,1.8857383110494519,132.015150645674,70.00714249274857,0.0,0.0,0.0,72.0,0.0,0.0,28.0,50,0.0,36,0,0,0,0,0,0,0,36,0,0,0,0,25,36,25,36,0,0,0,25,36,0,25,Joy,Neutral,100.0,100.0,0.0,89,17,84,95,17,76,6,72.0,30,25.0,98.34398171348894,0.0,0.0,78.55436050549208,63.98805235384446,0.0,88.03720290559559,0.33120365730221124,68.29544058111912,4.5993610971906635,92.72423141280701,79.6817238676796,100.0,100.0,84.20558043583934,33.33120365730221
0,Test,ID1,BV01,73,0,14600,0,14600,Undified,Nan,faces\2511723182757183519.png,,,,,29,37.013511046643494,11.02268050859363,36.05551275463989,10.524937810560443,29,29,230,143,124,15,230,143,122,138,113,317,145,97,162,167,109,30,164,1,-4,185,90,215,215,1.928260675655383,135.03332921912278,70.02856560004639,0.0,0.0,0.0,75.0,0.0,0.0,25.0,50,0.0,38,0,0,0,0,0,0,0,38,0,0,0,0,25,38,25,38,0,0,0,25,38,0,25,Joy,Neutral,100.0,100.0,0.0,92,20,79,89,26,76,5,75.0,30,20.0,97.31410088943862,0.0,0.0,75.89176018322888,62.12423212826022,0.0,86.75714026108508,0.537179822112276,70.15142805221703,4.661153946633683,92.54679086880155,80.09396415215143,100.0,100.0,84.61357103916276,34.28717982211228
0,Test,ID1,BV01,74,0,14800,0,14800,Undified,Nan,faces\-1659003468330170362.png,,,,,29,37.013511046643494,11.5,36.05551275463989,10.0,31,27,230,141,125,15,230,141,244,132,54,318,144,95,154,162,169,31,165,1,-1,185,90,215,215,1.857173126565296,130.01538370516005,70.00714249274857,54.0,0.0,0.0,0.0,0.0,0.0,46.0,50,0.0,0,0,0,0,0,27,0,0,0,0,0,0,27,25,27,25,0,0,0,27,25,0,0,25,Anger,Neutral,100.0,15.625,84.375,-46,77,32,-59,99,-44,64,54.0,30,15.0,98.34398171348894,0.0,0.0,73.31940870813973,60.32358609569781,73.31940870813973,86.93786302815161,43.531203657302214,29.48357260563032,57.885035886667524,37.985757593481146,21.433041516386016,94.6,46.0,27.64067945422274,49.92495365730221
0,Test,ID1,BV01,75,0,15000,0,15000,Undified,Nan,faces\5804433187210169395.png,,,,,21,36.013886210738214,8.0,35.128336140500586,7.5,22,21,230,140,124,11,230,140,145,86,59,318,141,96,121,126,120,29,162,0,-2,185,90,215,215,2.1126543046668496,150.0133327407934,71.00704190430693,43.0,0.0,0.0,0.0,0.0,0.0,57.0,50,0.0,0,0,0,0,0,22,0,0,0,0,0,0,22,25,22,25,0,0,0,22,25,0,0,25,Neutral,Neutral,100.0,0.0,0.0,-7,8,9,18,10,-7,-8,0.0,30,25.0,98.12826950307297,0.0,0.0,78.55436050549208,63.98805235384446,33.7783750173616,87.88620435830441,34.774346099385404,17.577240871660884,33.5104100893645,61.28029236433885,25.299580326009988,95.7,57.0,32.13293065374566,15.374346099385406
0,Test,ID1,BV01,76,0,15200,0,15200,Undified,Nan,faces\5183270224719846741.png,,,,,17,36.013886210738214,6.5,36.22154055254967,6.5,18,17,231,144,123,10,231,144,100,103,103,317,145,100,114,114,100,30,163,0,-1,185,90,215,215,2.0144607400712307,145.0551619212498,72.00694410957877,0.0,0.0,0.0,75.0,0.0,0.0,25.0,50,0.0,38,0,0,0,0,0,0,0,38,0,0,0,0,25,38,25,38,0,0,0,25,38,0,25,Joy,Neutral,100.0,100.0,0.0,96,13,84,89,22,77,6,75.0,30,20.0,98.34398171348894,0.0,0.0,75.89176018322888,62.12423212826022,0.0,87.47805683792032,0.33120365730221124,70.59561136758407,4.5993610971906635,92.76831680603951,80.69634589008403,100.0,100.0,85.07170852568805,34.08120365730221
0,Test,ID1,BV01,77,0,15400,0,15400,Undified,Nan,faces\7360235154993182063.png,,,,,18,36.013886210738214,7.035533905932738,35.22782990761707,6.0827625302982185,19,17,234,146,123,12,234,146,75,59,78,321,149,88,103,116,81,28,163,2,-8,185,90,215,215,2.0291690504487097,142.0563268566381,70.00714249274857,54.0,0.0,0.0,0.0,0.0,0.0,46.0,50,0.0,0,0,0,0,0,27,0,0,0,0,0,0,27,25,27,25,0,0,0,27,25,0,0,25,Anger,Neutral,100.0,15.625,84.375,-43,83,29,-53,98,-43,62,54.0,30,30.0,94.5886552942058,0.0,0.0,81.31037598190377,65.91726318733264,81.31037598190377,85.98723766214384,44.28226894115885,29.50944753242877,62.50538747239474,34.2944137882986,21.226250794365825,94.6,46.0,27.848085649321575,50.676018941158844
0,Test,ID1,BV01,78,0,15600,0,15600,Undified,Nan,faces\7102953767463261159.png,,,,,21,36.013886210738214,8.031128874149275,35.22782990761707,7.071067811865476,22,20,236,142,123,14,236,142,58,43,74,323,146,86,113,131,72,30,162,3,-7,185,90,215,215,1.8429711834588292,140.1748907615055,76.05918747922567,48.0,0.0,0.0,0.0,0.0,0.0,52.0,50,0.0,0,0,0,0,0,24,0,0,0,0,0,0,24,25,24,25,0,0,0,24,25,0,0,25,Neutral,Neutral,100.0,0.0,0.0,-2,13,7,20,15,-7,-8,0.0,30,20.0,95.19608139876723,0.0,0.0,75.89176018322888,62.12423212826022,36.428044887949866,85.27452661761512,39.36078372024656,17.054905323523027,36.343659804446396,58.7525248182044,24.39388413622422,95.2,52.0,30.74117899264227,15.960783720246553
0,Test,ID1,BV01,79,0,15800,0,15800,Undified,Nan,faces\9152996792475925964.png,,,,,27,37.05401462729781,10.04987562112089,35.128336140500586,9.5,27,27,237,144,125,16,237,144,264,74,28,326,148,89,140,156,176,33,164,3,-7,185,90,215,215,1.773963420410729,131.38112497615478,74.06078584514209,54.0,0.0,0.0,0.0,0.0,0.0,46.0,50,0.0,0,0,0,0,0,27,0,0,0,0,0,0,27,25,27,25,0,0,0,27,25,0,0,25,Anger,Neutral,100.0,15.625,84.375,-38,75,32,-52,98,-44,64,54.0,30,5.0,95.19608139876723,0.0,0.0,68.43332004383635,56.90332403068544,68.43332004383635,83.70825418834269,44.160783720246556,28.83765083766854,55.38656114018396,39.66157650668711,20.793221197754384,94.6,46.0,27.15623812825141,50.55453372024655
0,Test,ID1,BV01,80,0,16000,0,16000,Undified,Nan,faces\-7759166865315871846.png,,,,,26,37.05401462729781,10.0,36.05551275463989,10.024937810560443,26,27,236,145,127,15,236,145,142,118,83,326,148,87,149,171,114,36,165,3,-9,185,90,215,215,1.7368647719666532,130.31116606031887,75.02666192761077,54.0,0.0,0.0,0.0,0.0,0.0,46.0,50,0.0,0,0,0,0,0,27,0,0,0,0,0,0,27,25,27,25,0,0,0,27,25,0,0,25,Anger,Neutral,100.0,15.625,84.375,-45,83,34,-52,92,-46,63,54.0,30,0.0,93.61136712239826,0.0,0.0,61.70787554426814,52.1955128809877,61.70787554426814,81.1866108499751,44.47772657552035,27.901322169995023,51.78264952200358,42.092541467394646,19.605906859233237,94.6,46.0,26.07799162749627,50.87147657552035
0,Test,ID1,BV01,81,0,16200,0,16200,Undified,Nan,faces\5618126096666483110.png,,,,,29,37.05401462729781,11.04536101718726,36.124783736376884,10.52268050859363,29,29,233,141,126,17,233,141,131,139,106,322,145,80,149,184,105,33,165,3,-10,185,90,215,215,1.8017169265908768,135.2368293032634,75.05997601918081,0.0,0.0,0.0,63.0,0.0,0.0,37.0,50,0.0,32,0,0,0,0,0,0,0,32,0,0,0,0,25,32,25,32,0,0,0,25,32,0,25,Joy,Neutral,80.0,100.0,0.0,97,17,86,95,22,78,6,63.0,30,12.0,91.90457695670509,0.0,0.0,68.43332004383635,56.90332403068544,0.0,81.40420107889919,1.619084608658983,61.13684021577984,4.985725382597695,91.95183980181177,76.49623424990597,100.0,100.0,82.11063016183488,32.36908460865898
0,Test,ID1,BV01,82,0,16400,0,16400,Undified,Nan,faces\-5533704370564957103.png,,,,,32,38.05259518088089,12.539999694598796,35.014282800023196,11.5,32,32,229,144,126,17,229,144,113,138,122,319,148,78,146,185,95,33,166,2,-10,185,90,215,215,1.7856381631324518,132.1854757528224,74.02702209328699,0.0,0.0,0.0,76.0,0.0,0.0,24.0,50,0.0,38,0,0,0,0,0,0,0,38,0,0,0,0,25,38,25,38,0,0,0,25,38,0,25,Joy,Neutral,80.0,100.0,0.0,98,14,86,92,19,78,7,76.0,30,12.0,91.90457695670509,0.0,0.0,68.43332004383635,56.90332403068544,0.0,81.40420107889919,1.619084608658983,70.39284021577984,4.985725382597695,91.95183980181177,79.74623424990597,100.0,100.0,84.71063016183487,35.61908460865898
0,Test,ID1,BV01,83,0,16600,0,16600,Undified,Nan,faces\-5985537956211574488.png,,,,,27,38.01315561749642,10.524937810560443,36.05551275463989,10.04987562112089,27,27,228,146,128,16,228,146,133,131,98,319,149,93,158,169,113,33,165,2,-8,185,90,215,215,1.7255458992791328,131.18688958886096,76.02631123499285,0.0,0.0,0.0,76.0,0.0,0.0,24.0,50,0.0,38,0,0,0,0,0,0,0,38,0,0,0,0,25,38,25,38,0,0,0,25,38,0,25,Joy,Neutral,80.0,100.0,0.0,94,17,83,88,18,76,7,76.0,30,12.0,94.5886552942058,0.0,0.0,68.43332004383635,56.90332403068544,0.0,83.28305591514967,1.0822689411588413,70.16061118302993,4.824680682347652,92.06856104563684,79.4276200833511,100.0,100.0,84.29245838727245,35.082268941158844
0,Test,ID1,BV01,84,0,16800,0,16800,Undified,Nan,faces\-5872544444036569306.png,,,,,26,38.05259518088089,10.024937810560443,36.05551275463989,9.524937810560443,26,26,228,148,127,14,228,148,115,117,101,318,151,94,143,151,104,33,165,2,-7,185,90,215,215,1.6860469161214615,133.24038426843418,79.02531240052139,0.0,0.0,0.0,76.0,0.0,0.0,24.0,50,0.0,38,0,0,0,0,0,0,0,38,0,0,0,0,25,38,25,38,0,0,0,25,38,0,25,Joy,Neutral,80.0,100.0,0.0,94,22,85,98,16,80,6,76.0,30,12.0,95.19608139876723,0.0,0.0,68.43332004383635,56.90332403068544,0.0,83.70825418834269,0.9607837202465532,71.46165083766854,4.788235116073966,92.5402373259751,81.1810872796832,100.0,100.0,85.7562381282514,34.96078372024655
0,Test,ID1,BV01,85,0,17000,0,17000,Undified,Nan,faces\8179282367439923452.png,,,,,31,38.05259518088089,12.020797289396148,36.013886210738214,11.5,31,31,228,146,127,17,228,146,115,135,117,318,150,82,155,188,98,33,166,2,-10,185,90,215,215,1.6329605016656097,129.0968628588627,79.05694150420948,0.0,0.0,0.0,75.0,0.0,0.0,25.0,50,0.0,38,0,0,0,0,0,0,0,38,0,0,0,0,25,38,25,38,0,0,0,25,38,0,25,Joy,Neutral,80.0,100.0,0.0,98,17,84,94,21,79,5,75.0,30,12.0,91.90457695670509,0.0,0.0,68.43332004383635,56.90332403068544,0.0,81.40420107889919,1.619084608658983,69.98084021577984,4.985725382597695,92.05183980181178,79.90623424990596,100.0,100.0,84.86063016183488,35.36908460865898
0,Test,ID1,BV01,86,0,17200,0,17200,Undified,Nan,faces\-6558463937899701157.png,,,,,33,37.05401462729781,12.103559819694366,35.014282800023196,12.0,32,34,228,146,125,17,228,146,241,128,53,317,149,78,155,198,159,32,166,2,-10,185,90,215,215,1.7019634510590818,131.0953851209111,77.02596964660684,0.0,0.0,0.0,76.0,0.0,0.0,24.0,50,0.0,38,0,0,0,0,0,0,0,38,0,0,0,0,25,38,25,38,0,0,0,25,38,0,25,Joy,Neutral,80.0,100.0,0.0,97,16,86,95,20,77,4,76.0,30,16.0,91.90457695670509,0.0,0.0,70.83424709523612,58.583972966665286,0.0,81.90839575969315,1.619084608658983,70.18967915193863,4.985725382597695,91.90225926989118,79.4673248669124,100.0,100.0,84.43625936395398,35.61908460865898
0,Test,ID1,BV01,87,0,17400,0,17400,Undified,Nan,faces\-416597072792708243.png,,,,,32,38.05259518088089,12.041594578792296,36.013886210738214,12.0,31,33,228,146,126,17,228,146,278,114,41,317,149,79,158,198,178,31,166,2,-8,185,90,215,215,1.7069272174361092,133.18408313308313,78.02563681252464,0.0,0.0,0.0,76.0,0.0,0.0,24.0,50,0.0,38,0,0,0,0,0,0,0,38,0,0,0,0,25,38,25,38,0,0,0,25,38,0,25,Joy,Neutral,100.0,100.0,0.0,91,12,83,87,16,77,6,76.0,30,20.0,94.5886552942058,0.0,0.0,73.31940870813973,60.32358609569781,0.0,84.3091345346534,1.0822689411588413,70.6698269069307,4.824680682347652,92.27116890758722,80.10440052442208,100.0,100.0,84.79637018019801,35.082268941158844
0,Test,ID1,BV01,88,0,17600,0,17600,Undified,Nan,faces\-8894076052769468474.png,,,,,30,38.05259518088089,12.020797289396148,37.013511046643494,11.0,31,29,227,146,127,16,227,146,378,106,28,316,149,73,141,193,225,30,166,2,-9,185,90,215,215,1.7247899777568882,131.0953851209111,76.00657866263946,0.0,0.0,0.0,76.0,0.0,0.0,24.0,50,0.0,38,0,0,0,0,0,0,0,38,0,0,0,0,25,38,25,38,0,0,0,25,38,0,25,Joy,Neutral,100.0,100.0,0.0,92,17,83,89,15,78,6,76.0,30,24.0,93.61136712239826,0.0,0.0,75.89176018322888,62.12423212826022,0.0,84.16522662415684,1.2777265755203473,70.94504532483137,4.883317972656104,92.3098682842908,80.4722934844683,100.0,100.0,85.12478399362352,35.27772657552035
0,Test,ID1,BV01,89,0,17800,0,17800,Undified,Nan,faces\-6721360077137019365.png,,,,,23,37.05401462729781,9.027692569068707,36.05551275463989,8.06225774829855,24,22,228,151,125,13,228,151,164,87,53,316,154,97,130,134,130,30,164,2,-7,185,90,215,215,1.6794683144187967,131.0953851209111,78.05767098754613,0.0,0.0,0.0,53.0,0.0,0.0,47.0,50,0.0,26,0,0,0,0,0,0,0,26,0,0,0,0,25,26,25,26,0,0,0,25,26,0,25,Joy,Neutral,100.0,100.0,0.0,97,17,86,90,17,77,6,53.0,30,24.0,95.19608139876723,0.0,0.0,75.89176018322888,62.12423212826022,0.0,85.27452661761512,0.9607837202465532,54.57890532352303,4.788235116073966,92.39686456890234,74.60831811129403,100.0,100.0,80.34117899264227,29.210783720246553
0,Test,ID1,BV01,90,0,18000,0,18000,Undified,Nan,faces\-4889969826446538636.png,,,,,18,36.0,6.5,36.124783736376884,6.576915171081848,18,18,228,154,125,11,228,154,1300,65,5,316,156,99,114,115,699,29,164,2,-6,185,90,215,215,1.7025080397709074,131.13733259449805,77.02596964660684,38.0,0.0,0.0,0.0,0.0,0.0,62.0,50,0.0,0,0,0,0,0,19,0,0,0,0,0,0,19,25,19,25,0,0,0,19,25,0,0,25,Neutral,Neutral,80.0,0.0,0.0,0,5,0,15,19,-7,-9,0.0,30,28.0,96.08269550779448,0.0,0.0,78.55436050549208,63.98805235384446,29.850656992086993,86.45430256160947,31.183460898441105,17.290860512321895,30.27289961518018,63.7271105640168,25.186286696804046,96.2,62.0,32.91814538424142,15.783460898441103
0,Test,ID1,BV01,91,0,18200,0,18200,Undified,Nan,faces\-4889969826446538636.png,,,,,18,36.0,6.5,36.124783736376884,6.576915171081848,18,18,228,154,125,11,228,154,1300,65,5,316,156,99,114,115,699,29,164,2,-6,185,90,215,215,1.7025080397709074,131.13733259449805,77.02596964660684,38.0,0.0,0.0,0.0,0.0,0.0,62.0,50,0.0,0,0,0,0,0,19,0,0,0,0,0,0,19,25,19,25,0,0,0,19,25,0,0,25,Neutral,Neutral,80.0,0.0,0.0,-8,12,2,12,20,-6,-8,0.0,30,28.0,96.08269550779448,0.0,0.0,78.55436050549208,63.98805235384446,29.850656992086993,86.45430256160947,31.183460898441105,17.290860512321895,30.27289961518018,63.8271105640168,25.59628669680405,96.2,62.0,33.26814538424142,15.783460898441103
0,Test,ID1,BV01,92,0,18400,0,18400,Undified,Nan,faces\-4889969826446538636.png,,,,,18,36.0,6.5,36.124783736376884,6.576915171081848,18,18,228,154,125,11,228,154,1300,65,5,316,156,99,114,115,699,29,164,2,-6,185,90,215,215,1.7025080397709074,131.13733259449805,77.02596964660684,38.0,0.0,0.0,0.0,0.0,0.0,62.0,50,0.0,0,0,0,0,0,19,0,0,0,0,0,0,19,25,19,25,0,0,0,19,25,0,0,25,Neutral,Neutral,80.0,0.0,0.0,-4,2,4,19,9,-6,-9,0.0,30,28.0,96.08269550779448,0.0,0.0,78.55436050549208,63.98805235384446,29.850656992086993,86.45430256160947,31.183460898441105,17.290860512321895,30.27289961518018,63.8271105640168,25.59628669680405,96.2,62.0,33.26814538424142,15.783460898441103
