Problem,NameTest,User,Module,Image,Timestamp,TimeBlock,TimeVideo,TimeDetection,URL_Media,Codigo_Media,URL,XEyeTracking,YEyeTracking,Distance,Velocity,Blinks,B_left_horizontal,B_left_vertical,B_right_horizontal,B_right_vertical,PLeftEAR,PRightEAR,XFrame,YFrame,WFrame,HFrame,XEyeLeft,YEyeLeft,GazeRatioLeft,LWLeft,RWLeft,XEyeRight,YEyeRight,GazeRatioRight,LWRight,RWRight,GazeRatioAvg,FrownT,Pitch,Roll,Yaw,XPose,YPose,WidthPose,HeightPose,MouthRatio,VMouth,HMouth,Anger,Disgust,Fear,Joy,Sadness,Surprise,Neutral,Anticipation,Trust,Love,Submission,Awe,Disapproval,Remorse,Contempt,Agressiveness,Optimism,Guilt,Curiosity,Despair,Unbelief,Envy,Cynicism,Pride,Hope,Delight,Sentimentality,Shame,Outrage,Pessimism,Morbidness,Dominance,Anxiety,Predominant,Trend,Veracity,Positive valence,Negative valence,Jvalence,Jarousal,Jdominance,Evalence,Earousal,Dvalence,Darousal,Intensity,eng_blinks,eng_frownt,FOCUS,Stress,Variant2,Stress_intens,Cognitive effort,Frustration,Interest,Rejection,Commitment,Confusion,Comprehension,Performance,Confidence 1,Confidence 2,PerformancePolit,Variant
0,Test,ID1,BV01,6,0,1200,0,1200,Undified,Nan,faces\-1701378023843617024.png,,,,,37,34.0147027033899,13.0,36.22154055254967,13.095675624185604,38,36,272,136,123,22,272,143,93,178,190,358,136,91,196,214,92,35,167,-5,12,233,90,215,215,1.8038898870515792,135.72398461583714,75.23961722390672,4.0,1.0,0.0,0.0,2.0,0.0,93.0,50,0.0,0,0,0,1,2,2,0,0,0,0,1,0,3,26,2,25,0,0,0,2,26,0,0,25,Neutral,Neutral,100.0,0.0,0.0,0,7,2,20,13,-7,-7,0.0,30,20.0,89.16083923072189,0.0,0.0,51.3417119032592,44.93919833228144,2.053668476130368,75.89434696118975,6.167832153855622,15.178869392237951,7.479867308028389,80.90554084969627,24.264140825267063,99.1,95.0,37.93415204417846,17.16783215385562
0,Test,ID1,BV01,7,0,1400,0,1400,Undified,Nan,faces\2710991325490008612.png,,,,,36,36.013886210738214,13.019202405202648,36.124783736376884,13.095675624185604,36,36,280,136,124,19,280,140,102,207,201,367,136,89,184,205,95,34,168,-2,2,233,90,215,215,1.7332334985961175,135.36986370680884,78.10249675906654,0.0,0.0,18.0,0.0,0.0,0.0,82.0,50,0.0,0,9,18,0,0,0,0,0,9,0,9,0,0,25,0,25,0,0,9,0,25,0,0,34,Neutral,Neutral,100.0,0.0,0.0,-1,3,5,18,19,-5,-9,0.0,30,40.0,98.2404278726887,0.0,0.0,53.0819450562014,46.157361539340975,9.554750110116252,82.61550797268438,0.3519144254622603,16.52310159453688,9.860686888202617,79.87300128670634,26.64117712184173,92.8,100.0,38.84232619590266,15.35191442546226
0,Test,ID1,BV01,8,0,1600,0,1600,Undified,Nan,faces\-2255237032608586412.png,,,,,34,36.0,13.019202405202648,36.124783736376884,12.041594578792296,36,33,281,137,124,18,281,141,95,178,187,368,137,94,176,187,94,34,168,-2,1,233,90,215,215,1.7549909583029653,135.2368293032634,77.05841939723393,0.0,0.0,0.0,0.0,0.0,0.0,100.0,50,0.0,0,0,0,0,0,0,0,0,0,0,0,0,0,25,0,25,0,0,0,0,25,0,0,25,Neutral,Neutral,100.0,0.0,0.0,-5,12,0,11,10,-7,-8,0.0,30,40.0,98.33694897577686,0.0,0.0,53.0819450562014,46.157361539340975,0.0,82.6830727448461,0.33261020484462733,16.536614548969222,4.5997830614533886,83.88848082532189,26.259616268743713,100.0,100.0,39.95246091172692,15.332610204844627
0,Test,ID1,BV01,9,0,1800,0,1800,Undified,Nan,faces\4506148343473082423.png,,,,,34,35.0,12.519202405202648,36.22154055254967,12.601964935500867,35,34,280,139,124,18,280,143,89,172,192,367,139,96,188,194,92,35,169,-2,4,233,90,215,215,1.6949834750809925,132.30646242719968,78.05767098754613,0.0,0.0,54.0,0.0,0.0,0.0,46.0,50,0.0,0,27,54,0,0,0,0,0,27,0,27,0,0,25,0,25,0,0,27,0,25,0,0,52,Fear,Neutral,100.0,15.625,84.375,-36,92,5,-36,73,0,0,54.0,30,0.0,97.36189547074287,51.3417119032592,51.3417119032592,51.3417119032592,44.93919833228144,51.3417119032592,81.63508632920443,0.5276209058514268,37.92701726584089,32.89622781854799,61.84652637808205,40.09342422010931,78.4,100.0,47.64526294938066,50.12137090585143
0,Test,ID1,BV01,10,0,2000,0,2000,Undified,Nan,faces\2637951901467346005.png,,,,,32,35.014282800023196,12.539999694598796,36.05551275463989,11.112850452343103,35,30,278,142,123,16,278,144,94,158,168,364,142,93,161,172,93,32,166,-1,4,233,90,215,215,1.6979712851482949,134.18271125595876,79.02531240052139,0.0,0.0,0.0,0.0,0.0,0.0,100.0,50,0.0,0,0,0,0,0,0,0,0,0,0,0,0,0,25,0,25,0,0,0,0,25,0,0,25,Neutral,Neutral,80.0,0.0,0.0,-8,4,-1,13,13,-5,-6,0.0,30,40.0,97.36189547074287,0.0,0.0,56.74136687970039,48.71895681579027,0.0,82.76901387425708,0.5276209058514268,16.553802774851416,4.658286271755428,84.05027237002137,27.09728070556641,100.0,100.0,40.665352081138565,15.527620905851427
0,Test,ID1,BV01,12,0,2400,0,2400,Undified,Nan,faces\7104001393079819331.png,,,,,31,37.12142238654117,11.543477797989778,34.0147027033899,11.04536101718726,31,32,299,147,123,14,299,147,88,167,189,387,149,90,147,163,89,32,169,2,-17,257,90,215,215,1.6806954476973643,131.13733259449805,78.02563681252464,0.0,0.0,25.0,0.0,0.0,29.0,46.0,0,0.0,0,12,40,14,0,0,0,0,12,14,12,14,0,0,0,0,14,0,12,14,0,0,0,12,Neutral,Neutral,80.0,0.0,0.0,-6,5,6,13,19,-4,-7,0.0,30,40.0,72.75814480059823,0.0,0.0,56.74136687970039,48.71895681579027,14.185341719925098,65.54638840515584,5.448371039880354,13.109277681031168,13.936449257922911,75.00547943417725,22.287145044706683,90.0,100.0,35.93195826077338,20.448371039880353
0,Test,ID1,BV01,13,0,2600,0,2600,Undified,Nan,faces\2703415694187581238.png,,,,,31,37.12142238654117,11.02268050859363,33.015148038438355,11.02268050859363,29,33,299,148,123,14,299,148,95,172,180,388,150,87,141,162,91,32,170,2,-17,257,90,215,215,1.6545050671592234,129.0620006043607,78.00640999302556,0.0,0.0,0.0,0.0,0.0,0.0,100.0,50,0.0,0,0,0,0,0,0,0,0,0,0,0,0,0,25,0,25,0,0,0,0,25,0,0,25,Neutral,Neutral,80.0,0.0,0.0,-4,9,6,22,13,-5,-6,0.0,30,40.0,72.75814480059823,0.0,0.0,56.74136687970039,48.71895681579027,0.0,65.54638840515584,5.448371039880354,13.109277681031168,6.134511311964106,81.1470297909443,22.501300080383388,100.0,100.0,38.081958260773376,20.448371039880353
0,Test,ID1,BV01,14,0,2800,0,2800,Undified,Nan,faces\-5166579809478294747.png,,,,,31,37.21558813185679,11.543477797989778,35.014282800023196,11.02268050859363,31,31,299,155,125,14,299,155,87,161,184,388,157,84,146,173,85,34,172,2,-16,257,113,215,215,1.5794746919253282,123.1990259701756,78.0,0.0,0.0,0.0,0.0,0.0,0.0,100.0,50,0.0,0,0,0,0,0,0,0,0,0,0,0,0,0,25,0,25,0,0,0,0,25,0,0,25,Neutral,Neutral,80.0,0.0,0.0,-7,2,8,12,15,-5,-8,0.0,30,13.333333333333334,76.45884557226697,0.0,0.0,53.0819450562014,46.157361539340975,0.0,67.36840036238917,4.708230885546607,13.473680072477833,5.912469265663982,81.50686462370773,22.992786552968063,100.0,100.0,38.355260054358375,19.708230885546605
0,Test,ID1,BV01,15,0,3000,0,3000,Undified,Nan,faces\2019569381232016975.png,,,,,32,37.21558813185679,12.041594578792296,34.058772731852805,11.543477797989778,32,33,300,155,124,15,300,155,93,185,198,389,157,89,160,178,91,33,174,1,-17,257,113,215,215,1.5263662335185924,122.14745187681976,80.02499609497022,0.0,0.0,0.0,0.0,0.0,0.0,100.0,50,0.0,0,0,0,0,0,0,0,0,0,0,0,0,0,25,0,25,0,0,0,0,25,0,0,25,Neutral,Neutral,80.0,0.0,0.0,-3,4,4,22,21,-5,-9,0.0,30,26.666666666666668,72.75814480059823,0.0,0.0,54.88116360940265,47.41681452658185,0.0,65.15574571839332,5.448371039880354,13.031149143678665,6.134511311964106,81.10796552226806,22.39973298182514,100.0,100.0,38.023361857759,20.448371039880353
0,Test,ID1,BV01,16,0,3200,0,3200,Undified,Nan,faces\1047244476962348092.png,,,,,31,38.209946349085605,12.041594578792296,35.05709628591621,11.520797289396148,31,32,299,155,125,15,299,155,95,189,197,388,157,79,151,191,87,32,174,1,-16,257,113,215,215,1.5386495985427504,123.10158406779337,80.00624975587844,0.0,0.0,0.0,0.0,0.0,0.0,100.0,50,0.0,0,0,0,0,0,0,0,0,0,0,0,0,0,25,0,25,0,0,0,0,25,0,0,25,Neutral,Neutral,80.0,0.0,0.0,-1,12,4,18,11,-6,-7,0.0,30,40.0,76.45884557226697,0.0,0.0,56.74136687970039,48.71895681579027,0.0,68.13687894532396,4.708230885546607,13.627375789064793,5.912469265663982,81.48371248200121,22.78259098453111,100.0,100.0,38.120531841798595,19.708230885546605
0,Test,ID1,BV01,17,0,3400,0,3400,Undified,Nan,faces\502598446724639709.png,,,,,30,39.204591567825325,12.041594578792296,35.05709628591621,11.02268050859363,30,31,301,155,126,16,301,155,89,189,211,391,159,82,146,178,85,35,173,2,-16,257,113,215,215,1.5339299776947408,124.25779653607252,81.00617260431454,0.0,0.0,0.0,0.0,0.0,0.0,100.0,50,0.0,0,0,0,0,0,0,0,0,0,0,0,0,0,25,0,25,0,0,0,0,25,0,0,25,Neutral,Neutral,80.0,0.0,0.0,0,2,0,12,13,-7,-9,0.0,30,0.0,76.45884557226697,0.0,0.0,51.3417119032592,44.93919833228144,0.0,67.0029514002713,4.708230885546607,13.40059028005426,5.912469265663982,81.27031972749593,22.077769822817416,100.0,100.0,37.600442710040696,19.708230885546605
0,Test,ID1,BV01,18,0,3600,0,3600,Undified,Nan,faces\-8536051712652274537.png,,,,,29,39.11521443121589,11.543477797989778,35.05709628591621,10.5,29,29,301,155,127,16,301,155,91,179,196,392,159,81,145,178,86,33,173,2,-16,257,113,215,215,1.5532224567009068,124.25779653607252,80.0,0.0,0.0,0.0,0.0,0.0,0.0,100.0,50,0.0,0,0,0,0,0,0,0,0,0,0,0,0,0,25,0,25,0,0,0,0,25,0,0,25,Neutral,Neutral,80.0,0.0,0.0,-6,3,1,14,15,-4,-8,0.0,30,26.666666666666668,76.45884557226697,0.0,0.0,54.88116360940265,47.41681452658185,0.0,67.74623625856142,4.708230885546607,13.549247251712286,5.912469265663982,81.64464821332494,23.50102388597285,100.0,100.0,38.761935438784214,19.708230885546605
0,Test,ID1,BV01,19,0,3800,0,3800,Undified,Nan,faces\-8219528607290415448.png,,,,,33,37.21558813185679,12.520797289396148,34.058772731852805,11.543477797989778,33,33,300,155,123,14,300,155,96,191,197,388,156,93,164,175,94,34,174,1,-17,273,114,180,179,1.5274535067502004,119.15116449284079,78.00640999302556,1.0,0.0,46.0,0.0,3.0,0.0,50.0,50,0.0,0,23,46,2,2,0,0,0,23,0,24,0,2,25,0,25,0,0,23,0,26,0,0,48,Neutral,Neutral,80.0,0.0,0.0,-3,2,5,18,19,-7,-6,0.0,30,13.333333333333334,72.75814480059823,0.0,0.0,53.0819450562014,46.157361539340975,24.417694725852645,64.77790982222105,6.248371039880354,12.95558196444421,19.804243411183062,69.93439625327565,20.387917080882826,81.5,99.0,32.46668647333316,20.448371039880353
0,Test,ID1,BV01,20,0,4000,0,4000,Undified,Nan,faces\7273247730551903581.png,,,,,32,37.013511046643494,12.520797289396148,36.124783736376884,11.543477797989778,33,31,287,153,126,15,287,154,94,187,198,376,153,91,173,189,92,35,172,0,-7,254,114,179,179,1.5449880365347701,119.00420160649792,77.02596964660684,1.0,0.0,10.0,0.0,0.0,0.0,89.0,50,0.0,0,5,10,0,0,0,0,0,5,0,5,0,0,25,0,25,0,0,5,0,25,0,0,30,Neutral,Neutral,100.0,0.0,0.0,-7,8,5,20,14,-6,-8,0.0,30,0.0,95.19608139876723,0.0,0.0,51.3417119032592,44.93919833228144,5.134171190325921,80.1190164788215,1.7607837202465533,16.0238032957643,7.852029270753222,81.13027823127959,25.742781942833332,95.9,99.0,38.71785247182322,15.960783720246553
0,Test,ID1,BV01,21,0,4200,0,4200,Undified,Nan,faces\-1252322430861703145.png,,,,,28,36.0,10.5,35.014282800023196,9.552630379629154,29,27,283,154,125,14,283,156,97,155,159,372,154,77,125,161,87,37,170,0,-2,233,113,215,215,1.6331076322077671,129.01550294441358,79.0,0.0,0.0,0.0,0.0,0.0,0.0,100.0,50,0.0,0,0,0,0,0,0,0,0,0,0,0,0,0,25,0,25,0,0,0,0,25,0,0,25,Neutral,Neutral,100.0,0.0,0.0,-1,4,5,23,11,-7,-9,0.0,30,0.0,98.12826950307297,0.0,0.0,48.03053010897994,42.62137107628595,0.0,81.47619997503686,0.37434609938540575,16.295239995007375,4.612303829815621,83.75777693365119,25.944827687124334,100.0,100.0,39.771429996255534,15.374346099385406
0,Test,ID1,BV01,22,0,4400,0,4400,Undified,Nan,faces\-6030149433270891346.png,,,,,19,34.058772731852805,7.035533905932738,33.06055050963308,6.576915171081848,20,19,281,159,122,13,281,163,100,110,110,369,159,90,97,107,95,38,169,-2,0,254,114,179,179,1.577631678637842,123.14625451064276,78.05767098754613,11.0,0.0,21.0,4.0,22.0,0.0,42.0,50,0.0,2,10,21,11,11,6,0,0,12,0,22,0,16,25,8,25,2,0,10,6,36,2,0,36,Neutral,Neutral,100.0,0.0,0.0,-6,11,4,21,17,-6,-9,0.0,30,0.0,98.33587956325762,0.0,0.0,46.455902036091146,41.5191314252638,10.220298447940051,81.29085512185947,9.132824087348476,16.258171024371894,12.861011372571571,77.2402764141287,25.64674142187774,90.5,89.0,35.793628268278916,15.332824087348476
0,Test,ID1,BV01,24,0,4800,0,4800,Undified,Nan,faces\2813436555019650291.png,,,,,32,34.0,11.5,36.124783736376884,11.543477797989778,33,31,271,152,126,18,271,157,92,142,153,360,152,98,176,178,95,38,169,-4,14,233,113,215,215,1.6848439334720848,131.46102083887828,78.02563681252464,0.0,0.0,0.0,0.0,0.0,86.0,14.0,0,0.0,0,0,43,43,0,0,0,0,0,43,0,43,0,0,0,0,43,0,0,43,0,0,0,0,Surprise,Neutral,100.0,100.0,0.0,53,25,76,78,77,0,0,86.0,30,0.0,83.54863070807225,0.0,0.0,46.455902036091146,41.5191314252638,0.0,70.9397809232297,3.2902738583855498,48.58795618464594,5.4870821575156645,82.70431236631045,47.505376467438474,100.0,100.0,57.84096713848446,39.79027385838555
0,Test,ID1,BV01,26,0,5200,0,5200,Undified,Nan,faces\-8226747375978974748.png,,,,,33,35.014282800023196,12.5,38.209946349085605,12.601964935500867,35,32,273,157,128,17,273,160,110,143,129,362,157,97,197,202,103,38,170,-3,12,233,113,215,215,1.6492422502470638,130.38404810405294,79.05694150420948,0.0,0.0,0.0,29.0,0.0,0.0,71.0,50,0.0,14,0,0,0,0,0,0,0,14,0,0,0,0,25,14,25,14,0,0,0,25,14,0,25,Neutral,Neutral,100.0,0.0,0.0,-7,6,2,19,17,-7,-8,0.0,30,0.0,89.16083923072189,0.0,0.0,46.455902036091146,41.5191314252638,0.0,74.86832688908446,2.167832153855622,14.973665377816893,5.150349646156687,82.66655297198311,24.183737019469426,100.0,100.0,38.780249033362665,17.16783215385562
0,Test,ID1,BV01,27,0,5400,0,5400,Undified,Nan,faces\-1615350035937425166.png,,,,,24,34.0147027033899,9.055385138137416,34.058772731852805,7.566662780082012,26,22,277,166,124,15,277,170,98,136,138,366,166,89,108,121,93,37,169,-3,9,233,113,215,215,1.6292913072665756,127.251719045363,78.10249675906654,0.0,0.0,0.0,0.0,59.0,0.0,41.0,50,0.0,0,0,0,30,30,0,0,0,0,0,30,0,30,25,0,25,0,0,0,0,54,0,0,25,Sadness,Neutral,100.0,14.492753623188406,85.5072463768116,-20,55,44,-50,-52,-83,-45,59.0,30,6.666666666666667,92.87098580467497,48.03053010897994,48.03053010897994,48.03053010897994,42.62137107628595,48.03053010897994,77.79610138615826,1.4258028390650055,19.571220277231653,31.34453241165847,54.403984209289064,6.439423767468468,100.0,100.0,24.41941520792374,52.552614433267905
0,Test,ID1,BV01,28,0,5600,0,5600,Undified,Nan,faces\7565081746010895172.png,,,,,29,35.014282800023196,11.0,36.124783736376884,10.024937810560443,31,27,277,162,127,15,277,165,100,134,133,367,162,106,146,137,103,38,170,-2,4,233,113,215,215,1.6208639671483849,128.14054783713078,79.05694150420948,0.0,0.0,20.0,0.0,0.0,0.0,80.0,50,0.0,0,10,20,0,0,0,0,0,10,0,10,0,0,25,0,25,0,0,10,0,25,0,0,35,Neutral,Neutral,80.0,0.0,0.0,-5,5,3,18,18,-5,-6,0.0,30,0.0,97.36189547074287,0.0,0.0,46.455902036091146,41.5191314252638,9.29118040721823,80.60906625709913,0.5276209058514268,16.121813251419827,9.768435495725454,79.74615822912956,26.126882387187738,92.0,100.0,38.34135993856487,15.527620905851427
0,Test,ID1,BV01,29,0,5800,0,5800,Undified,Nan,faces\-6380005991511833240.png,,,,,29,36.013886210738214,11.02268050859363,36.124783736376884,10.61510775430992,30,29,276,161,127,15,276,164,103,138,133,366,161,100,163,163,101,38,171,-2,2,233,113,215,215,1.5962455951387933,126.19429464123962,79.05694150420948,0.0,0.0,9.0,0.0,0.0,0.0,91.0,50,0.0,0,4,9,0,0,0,0,0,4,0,4,0,0,25,0,25,0,0,4,0,25,0,0,30,Neutral,Neutral,80.0,0.0,0.0,-4,2,8,16,20,-6,-9,0.0,30,0.0,98.2404278726887,0.0,0.0,46.455902036091146,41.5191314252638,4.181031183248203,81.22403893846123,0.3519144254622603,16.24480778769225,6.90514147842519,81.99829071110598,26.10583880572591,96.4,100.0,39.18360584076918,15.35191442546226
0,Test,ID1,BV01,30,0,6000,0,6000,Undified,Nan,faces\2608022365502174476.png,,,,,31,36.05551275463989,12.020797289396148,37.21558813185679,11.112850452343103,33,29,277,160,129,16,277,163,111,152,136,368,160,84,165,195,97,38,171,-2,3,233,113,215,215,1.5763207218886572,126.19429464123962,80.05623023850173,0.0,0.0,0.0,0.0,18.0,0.0,82.0,50,0.0,0,0,0,9,9,0,0,0,0,0,9,0,9,25,0,25,0,0,0,0,34,0,0,25,Neutral,Neutral,100.0,0.0,0.0,-2,3,3,22,15,-6,-7,0.0,30,0.0,97.86759515267833,0.0,0.0,46.455902036091146,41.5191314252638,8.362062366496406,80.96305603445396,0.4264809694643333,16.192611206890792,9.227078592412324,80.11464272951555,25.852228281565047,100.0,100.0,40.04445840516809,15.426480969464333
0,Test,ID1,BV01,31,0,6200,0,6200,Undified,Nan,faces\6435846257717714396.png,,,,,32,36.013886210738214,12.0,37.12142238654117,12.103559819694366,33,32,278,161,128,16,278,164,109,151,138,368,161,83,166,198,96,38,171,-2,5,233,113,215,215,1.6203209558602885,128.09761902549164,79.05694150420948,0.0,0.0,0.0,0.0,0.0,0.0,100.0,50,0.0,0,0,0,0,0,0,0,0,0,0,0,0,0,25,0,25,0,0,0,0,25,0,0,25,Neutral,Neutral,100.0,0.0,0.0,-2,8,5,11,20,-5,-6,0.0,30,0.0,96.83621206325527,0.0,0.0,46.455902036091146,41.5191314252638,0.0,80.24108787185781,0.6327575873489452,16.048217574371563,4.689827276204683,83.77224696622204,26.43749666458666,100.0,100.0,40.28616318077867,15.632757587348944
0,Test,ID1,BV01,32,0,6400,0,6400,Undified,Nan,faces\7853274705280894145.png,,,,,32,36.05551275463989,12.020797289396148,37.12142238654117,12.103559819694366,33,32,278,160,128,16,278,163,124,173,139,368,160,89,173,194,106,37,171,-1,0,233,113,215,215,1.5962455951387933,126.19429464123962,79.05694150420948,0.0,0.0,23.0,0.0,14.0,0.0,63.0,50,0.0,0,12,23,7,7,0,0,0,12,0,18,0,7,25,0,25,0,0,12,0,32,0,0,36,Neutral,Neutral,100.0,0.0,0.0,-6,2,-2,15,15,-7,-8,0.0,30,6.666666666666667,98.33587956325762,0.0,0.0,48.03053010897994,42.62137107628595,11.047021925065385,81.62152701716612,0.33282408734847596,16.324305403433225,10.675709284990505,78.9215852737242,25.497540281663948,90.8,100.0,37.49322905257492,15.332824087348476
0,Test,ID1,BV01,33,0,6600,0,6600,Undified,Nan,faces\5557404347092730343.png,,,,,30,36.013886210738214,11.04536101718726,37.12142238654117,11.180339887498945,30,30,279,161,127,15,279,164,108,141,130,368,161,82,144,175,95,37,171,-2,4,233,113,215,215,1.5962455951387933,126.19429464123962,79.05694150420948,0.0,0.0,71.0,0.0,0.0,0.0,29.0,50,0.0,0,36,71,0,0,0,0,0,36,0,36,0,0,25,0,25,0,0,36,0,25,0,0,60,Fear,Neutral,100.0,12.345679012345679,87.65432098765432,-39,89,1,-44,82,0,0,71.0,30,6.666666666666667,97.36189547074287,48.03053010897994,48.03053010897994,48.03053010897994,42.62137107628595,48.03053010897994,80.93973815240578,0.5276209058514268,44.58794763048116,31.075077831694397,63.233911549885065,44.30832569308995,71.6,100.0,49.24096072286087,55.19120115276501
0,Test,ID1,BV01,34,0,6800,0,6800,Undified,Nan,faces\5413147157245878605.png,,,,,31,37.013511046643494,12.0,36.124783736376884,11.04536101718726,32,30,278,163,127,16,278,165,101,155,152,368,163,91,149,163,96,37,171,-2,1,233,113,215,215,1.5415098628135773,125.09996003196804,81.15417426109394,0.0,0.0,0.0,0.0,0.0,0.0,100.0,50,0.0,0,0,0,0,0,0,0,0,0,0,0,0,0,25,0,25,0,0,0,0,25,0,0,25,Neutral,Neutral,80.0,0.0,0.0,-6,7,7,11,14,-6,-8,0.0,30,6.666666666666667,98.33694897577686,0.0,0.0,48.03053010897994,42.62137107628595,0.0,81.62227560592959,0.33261020484462733,16.324455121185917,4.5997830614533886,83.88240111143024,26.393809012625425,100.0,100.0,40.143341340889435,15.332610204844627
0,Test,ID1,BV01,35,0,7000,0,7000,Undified,Nan,faces\6278060239075309425.png,,,,,30,36.013886210738214,11.5,36.22154055254967,11.04536101718726,31,30,277,160,127,16,277,163,100,143,142,367,160,92,158,171,96,34,171,-2,0,233,113,215,215,1.6278820596099706,127.1416532848303,78.10249675906654,0.0,0.0,3.0,0.0,30.0,0.0,67.0,50,0.0,0,2,3,15,15,0,0,0,2,0,16,0,15,25,0,25,0,0,2,0,40,0,0,26,Neutral,Neutral,100.0,0.0,0.0,-3,2,5,19,19,-7,-8,0.0,30,26.666666666666668,98.33587956325762,0.0,0.0,53.0819450562014,46.157361539340975,15.924583516860418,82.68232415608263,0.33282408734847596,16.536464831216527,13.358368160477774,76.88153788722606,25.55873482774326,98.8,100.0,39.652348623412394,15.332824087348476
0,Test,ID1,BV01,36,0,7200,0,7200,Undified,Nan,faces\-554489017697508321.png,,,,,30,36.013886210738214,11.520797289396148,36.124783736376884,10.621700022186417,31,29,277,161,128,16,277,164,102,142,139,368,161,94,158,168,98,35,171,-2,2,233,113,215,215,1.61509274970942,126.14277624977184,78.10249675906654,0.0,0.0,0.0,0.0,0.0,0.0,100.0,50,0.0,0,0,0,0,0,0,0,0,0,0,0,0,0,25,0,25,0,0,0,0,25,0,0,25,Neutral,Neutral,100.0,0.0,0.0,-6,11,1,14,9,-6,-8,0.0,30,20.0,98.2404278726887,0.0,0.0,51.3417119032592,44.93919833228144,0.0,82.25005901056652,0.3519144254622603,16.450011802113305,4.605574327638678,83.94054643894572,26.556569396536197,100.0,100.0,40.23750885158498,15.35191442546226
0,Test,ID1,BV01,37,0,7400,0,7400,Undified,Nan,faces\7404110440763304559.png,,,,,30,37.0,11.52268050859363,36.124783736376884,11.04536101718726,31,30,277,161,128,16,277,164,102,146,142,368,161,91,158,173,96,36,171,-2,1,233,113,215,215,1.5867476421285454,127.09838708654017,80.09993757800316,0.0,0.0,0.0,0.0,0.0,0.0,100.0,50,0.0,0,0,0,0,0,0,0,0,0,0,0,0,0,25,0,25,0,0,0,0,25,0,0,25,Neutral,Neutral,100.0,0.0,0.0,-5,3,8,11,15,-6,-7,0.0,30,13.333333333333334,98.33694897577686,0.0,0.0,49.658530379140956,43.760971265398666,0.0,81.9641556626634,0.33261020484462733,16.39283113253268,4.5997830614533886,83.91658911710363,26.482697827376214,100.0,100.0,40.19462334939951,15.332610204844627
0,Test,ID1,BV01,38,0,7600,0,7600,Undified,Nan,faces\-7208919532214991824.png,,,,,33,37.05401462729781,12.5,36.124783736376884,12.103559819694366,33,33,278,159,128,16,278,161,98,169,172,369,159,94,176,187,96,37,170,-1,1,233,113,215,215,1.5803685291651586,128.09761902549164,81.05553651663776,0.0,0.0,77.0,0.0,0.0,0.0,23.0,50,0.0,0,38,77,0,0,0,0,0,38,0,38,0,0,25,0,25,0,0,38,0,25,0,0,64,Fear,Neutral,100.0,11.494252873563218,88.50574712643679,-36,96,8,-42,73,0,0,77.0,30,6.666666666666667,98.33694897577686,48.03053010897994,48.03053010897994,48.03053010897994,42.62137107628595,48.03053010897994,81.62227560592959,0.33261020484462733,47.12445512118592,31.016574621392355,63.34896786347908,45.99046568783031,69.2,100.0,49.94334134088943,56.70904698645383
0,Test,ID1,BV01,39,0,7800,0,7800,Undified,Nan,faces\-1481344508551716192.png,,,,,32,36.013886210738214,12.0,36.124783736376884,11.605443038891847,33,32,278,157,128,16,278,160,103,161,155,369,157,97,176,180,100,37,171,-1,-1,233,113,215,215,1.5756771943166703,126.14277624977184,80.05623023850173,0.0,0.0,51.0,0.0,0.0,0.0,49.0,50,0.0,0,26,51,0,0,0,0,0,26,0,26,0,0,25,0,25,0,0,26,0,25,0,0,50,Fear,Neutral,100.0,16.39344262295082,83.60655737704919,-38,95,3,-37,75,0,0,51.0,30,6.666666666666667,98.34398171348894,48.03053010897994,48.03053010897994,48.03053010897994,42.62137107628595,48.03053010897994,81.62719852232804,0.33120365730221124,36.725439704465614,31.01615265712963,63.34979772652911,39.49177940323493,79.6,100.0,47.344079778349204,48.982843001564504
0,Test,ID1,BV01,40,0,8000,0,8000,Undified,Nan,faces\7198937955218894689.png,,,,,31,36.013886210738214,12.0,36.22154055254967,11.04536101718726,33,30,278,159,127,16,278,162,110,172,156,368,159,91,158,173,100,36,171,-2,0,233,113,215,215,1.601265297790646,128.191263352851,80.05623023850173,0.0,0.0,77.0,0.0,0.0,0.0,23.0,50,0.0,0,38,77,0,0,0,0,0,38,0,38,0,0,25,0,25,0,0,38,0,25,0,0,64,Fear,Neutral,100.0,11.494252873563218,88.50574712643679,-41,90,0,-39,84,0,0,77.0,30,13.333333333333334,98.33587956325762,49.658530379140956,49.658530379140956,49.658530379140956,43.760971265398666,49.658530379140956,81.96340707389993,0.33282408734847596,47.19268141477998,31.91203893473207,62.66670955960434,46.00752272443542,69.2,100.0,49.994511061084985,56.70926086895768
0,Test,ID1,BV01,41,0,8200,0,8200,Undified,Nan,faces\-246049880539226298.png,,,,,30,36.05551275463989,11.520797289396148,36.124783736376884,11.180339887498945,31,30,277,160,127,17,277,164,87,136,156,367,160,97,171,175,92,36,172,-2,0,233,113,215,215,1.556790732509,126.25371281669304,81.09870529176159,0.0,0.0,0.0,0.0,0.0,0.0,100.0,50,0.0,0,0,0,0,0,0,0,0,0,0,0,0,0,25,0,25,0,0,0,0,25,0,0,25,Neutral,Neutral,80.0,0.0,0.0,-2,9,2,11,18,-4,-9,0.0,30,13.333333333333334,98.33587956325762,0.0,0.0,49.658530379140956,43.760971265398666,0.0,81.96340707389993,0.33282408734847596,16.392681414779986,4.599847226204543,84.11646292642635,27.302498061117618,100.0,100.0,40.89451106108499,15.332824087348476
0,Test,ID1,BV01,42,0,8400,0,8400,Undified,Nan,faces\4288224072145711809.png,,,,,29,36.0,10.5,35.128336140500586,10.547618319154077,29,30,277,161,126,15,277,164,84,115,136,367,161,91,152,166,87,35,172,-2,1,233,113,215,215,1.5445158860183297,125.14391715141413,81.02468759581859,0.0,0.0,0.0,0.0,3.0,0.0,97.0,50,0.0,0,0,0,2,2,0,0,0,0,0,2,0,2,25,0,25,0,0,0,0,26,0,0,25,Neutral,Neutral,80.0,0.0,0.0,-7,10,4,19,15,-5,-7,0.0,30,20.0,98.33694897577686,0.0,0.0,51.3417119032592,44.93919833228144,1.540251357097776,82.31762378272823,0.33261020484462733,16.46352475654565,5.446921307857165,83.37422533198709,26.916828478880767,100.0,100.0,40.597643567409236,15.332610204844627
0,Test,ID1,BV01,43,0,8600,0,8600,Undified,Nan,faces\4429504760147630822.png,,,,,31,34.0147027033899,11.5,36.22154055254967,10.621700022186417,33,29,278,160,126,16,278,163,97,134,138,367,160,93,156,167,95,38,170,-2,3,233,113,215,215,1.5879259202429912,127.1927670899568,80.09993757800316,0.0,0.0,0.0,0.0,24.0,0.0,76.0,50,0.0,0,0,0,12,12,0,0,0,0,0,12,0,12,25,0,25,0,0,0,0,37,0,0,25,Neutral,Neutral,80.0,0.0,0.0,0,4,0,14,15,-4,-8,0.0,30,0.0,97.86759515267833,0.0,0.0,46.455902036091146,41.5191314252638,11.149416488661876,80.96305603445396,0.4264809694643333,16.192611206890792,10.760123359603332,79.08820691576274,26.54958470018976,100.0,100.0,40.744458405168096,15.426480969464333
0,Test,ID1,BV01,44,0,8800,0,8800,Undified,Nan,faces\20785591594650390.png,,,,,16,35.0,6.0,36.05551275463989,6.041381265149108,17,16,276,170,128,10,276,173,76,76,100,367,170,95,95,99,85,38,170,-1,0,233,113,215,215,1.5574795582149468,126.19429464123962,81.02468759581859,1.0,0.0,0.0,16.0,26.0,0.0,57.0,50,0.0,8,0,0,13,13,0,0,0,8,0,13,0,14,25,8,25,8,0,0,0,38,8,0,25,Neutral,Neutral,80.0,0.0,0.0,0,11,3,21,9,-6,-8,0.0,30,0.0,98.33587956325762,0.0,0.0,46.455902036091146,41.5191314252638,12.078534529383699,81.29085512185947,1.132824087348476,16.258171024371894,11.483041217365576,78.34265253829349,25.75697903429422,99.9,99.0,39.89362826827892,15.332824087348476
0,Test,ID1,BV01,45,0,9000,0,9000,Undified,Nan,faces\-3127959151010714227.png,,,,,25,35.014282800023196,9.0,34.058772731852805,9.055385138137416,25,26,276,164,126,13,276,167,85,97,113,367,164,100,117,116,92,37,171,-1,1,233,113,215,215,1.5623472493913757,125.14391715141413,80.09993757800316,0.0,0.0,0.0,0.0,0.0,0.0,100.0,50,0.0,0,0,0,0,0,0,0,0,0,0,0,0,0,25,0,25,0,0,0,0,25,0,0,25,Neutral,Neutral,80.0,0.0,0.0,0,7,2,12,13,-7,-8,0.0,30,6.666666666666667,98.33694897577686,0.0,0.0,48.03053010897994,42.62137107628595,0.0,81.62227560592959,0.33261020484462733,16.324455121185917,4.5997830614533886,83.78240111143023,25.98380901262542,100.0,100.0,39.79334134088944,15.332610204844627
0,Test,ID1,BV01,46,0,9200,0,9200,Undified,Nan,faces\-6605716945315779578.png,,,,,27,36.013886210738214,10.024937810560443,36.05551275463989,10.12395732415323,27,28,277,163,127,14,277,166,80,106,131,367,163,102,146,143,91,37,171,-1,0,233,113,215,215,1.556305504734537,126.09916732476864,81.02468759581859,0.0,0.0,0.0,0.0,0.0,0.0,100.0,50,0.0,0,0,0,0,0,0,0,0,0,0,0,0,0,25,0,25,0,0,0,0,25,0,0,25,Neutral,Neutral,80.0,0.0,0.0,-3,5,1,13,21,-7,-9,0.0,30,6.666666666666667,98.33587956325762,0.0,0.0,48.03053010897994,42.62137107628595,0.0,81.62152701716612,0.33282408734847596,16.324305403433225,4.599847226204543,83.78227492075297,25.983609246366825,100.0,100.0,39.793229052574915,15.332824087348476
0,Test,ID1,BV01,47,0,9400,0,9400,Undified,Nan,faces\-4835138908142996455.png,,,,,25,36.013886210738214,10.0,37.05401462729781,9.055385138137416,27,24,277,164,128,13,277,166,85,114,134,367,164,80,118,147,82,37,171,-1,2,233,113,215,215,1.5691717803228118,127.1416532848303,81.02468759581859,0.0,0.0,0.0,0.0,0.0,0.0,100.0,50,0.0,0,0,0,0,0,0,0,0,0,0,0,0,0,25,0,25,0,0,0,0,25,0,0,25,Neutral,Neutral,80.0,0.0,0.0,-2,12,-1,15,9,-7,-7,0.0,30,6.666666666666667,98.2404278726887,0.0,0.0,48.03053010897994,42.62137107628595,0.0,81.55471083376787,0.3519144254622603,16.310942166753573,4.605574327638678,83.77101162126584,25.96577887056855,100.0,100.0,39.783206625065176,15.35191442546226
0,Test,ID1,BV01,48,0,9600,0,9600,Undified,Nan,faces\4117529363592996043.png,,,,,28,36.05551275463989,11.0,37.12142238654117,10.04987562112089,30,27,276,163,129,14,276,165,97,131,134,367,163,82,123,150,89,37,172,-1,0,233,113,215,215,1.5638103499923786,125.14391715141413,80.02499609497022,0.0,0.0,0.0,0.0,0.0,0.0,100.0,50,0.0,0,0,0,0,0,0,0,0,0,0,0,0,0,25,0,25,0,0,0,0,25,0,0,25,Neutral,Neutral,80.0,0.0,0.0,-1,5,2,16,21,-7,-8,0.0,30,6.666666666666667,98.33587956325762,0.0,0.0,48.03053010897994,42.62137107628595,0.0,81.62152701716612,0.33282408734847596,16.324305403433225,4.599847226204543,83.78227492075297,25.983609246366825,100.0,100.0,39.793229052574915,15.332824087348476
0,Test,ID1,BV01,49,0,9800,0,9800,Undified,Nan,faces\2651357004217448989.png,,,,,29,36.013886210738214,11.5,37.12142238654117,10.547618319154077,31,28,277,162,128,16,277,165,96,146,151,367,162,82,140,170,89,38,171,-2,4,233,113,215,215,1.5557131905343078,126.09916732476864,81.05553651663776,0.0,0.0,0.0,0.0,0.0,0.0,100.0,50,0.0,0,0,0,0,0,0,0,0,0,0,0,0,0,25,0,25,0,0,0,0,25,0,0,25,Neutral,Neutral,80.0,0.0,0.0,-2,3,0,18,9,-4,-8,0.0,30,0.0,97.36189547074287,0.0,0.0,46.455902036091146,41.5191314252638,0.0,80.60906625709913,0.5276209058514268,16.121813251419827,4.658286271755428,83.93427760830558,26.94569432510534,100.0,100.0,40.69135993856487,15.527620905851427
0,Test,ID1,BV01,50,0,10000,0,10000,Undified,Nan,faces\-8015411127516761139.png,,,,,29,36.013886210738214,10.5,37.12142238654117,11.04536101718726,29,29,278,162,127,16,278,166,90,126,140,367,162,83,143,171,86,37,172,-1,2,233,113,215,215,1.5815178334446929,125.09996003196804,79.10120100226041,0.0,0.0,0.0,0.0,0.0,0.0,100.0,50,0.0,0,0,0,0,0,0,0,0,0,0,0,0,0,25,0,25,0,0,0,0,25,0,0,25,Neutral,Neutral,80.0,0.0,0.0,-2,4,0,13,19,-6,-9,0.0,30,6.666666666666667,98.2404278726887,0.0,0.0,48.03053010897994,42.62137107628595,0.0,81.55471083376787,0.3519144254622603,16.310942166753573,4.605574327638678,83.87101162126585,26.375778870568553,100.0,100.0,40.13320662506518,15.35191442546226
0,Test,ID1,BV01,51,0,10200,0,10200,Undified,Nan,faces\-6064642402826319235.png,,,,,30,36.013886210738214,11.04536101718726,36.124783736376884,11.112850452343103,30,30,278,162,127,15,278,165,90,129,142,368,162,93,157,168,91,37,171,-1,1,233,113,215,215,1.5686377924781938,127.09838708654017,81.02468759581859,0.0,0.0,0.0,0.0,0.0,0.0,100.0,50,0.0,0,0,0,0,0,0,0,0,0,0,0,0,0,25,0,25,0,0,0,0,25,0,0,25,Neutral,Neutral,80.0,0.0,0.0,-1,11,7,15,12,-4,-6,0.0,30,6.666666666666667,98.33694897577686,0.0,0.0,48.03053010897994,42.62137107628595,0.0,81.62227560592959,0.33261020484462733,16.324455121185917,4.5997830614533886,84.08240111143023,27.21380901262542,100.0,100.0,40.84334134088944,15.332610204844627
0,Test,ID1,BV01,52,0,10400,0,10400,Undified,Nan,faces\3212107948352778338.png,,,,,17,34.058772731852805,6.041381265149108,34.0147027033899,6.041381265149108,17,17,280,171,123,12,280,175,95,99,104,368,171,92,89,96,93,36,168,-2,1,233,113,215,215,1.6061742504937782,127.1416532848303,79.1580697086532,0.0,0.0,0.0,0.0,0.0,0.0,100.0,50,0.0,0,0,0,0,0,0,0,0,0,0,0,0,0,25,0,25,0,0,0,0,25,0,0,25,Neutral,Neutral,80.0,0.0,0.0,-1,10,4,16,16,-4,-8,0.0,30,13.333333333333334,98.33694897577686,0.0,0.0,49.658530379140956,43.760971265398666,0.0,81.9641556626634,0.33261020484462733,16.39283113253268,4.5997830614533886,84.11658911710362,27.30269782737621,100.0,100.0,40.89462334939951,15.332610204844627
0,Test,ID1,BV01,53,0,10600,0,10600,Undified,Nan,faces\8302002281399689595.png,,,,,27,36.013886210738214,10.0,35.128336140500586,9.552630379629154,27,27,277,163,127,14,277,166,94,127,135,368,163,92,140,152,93,36,171,-1,1,233,113,215,215,1.576292188756511,126.14277624977184,80.02499609497022,0.0,0.0,0.0,0.0,0.0,0.0,100.0,50,0.0,0,0,0,0,0,0,0,0,0,0,0,0,0,25,0,25,0,0,0,0,25,0,0,25,Neutral,Neutral,80.0,0.0,0.0,-2,9,5,20,9,-4,-7,0.0,30,13.333333333333334,98.33694897577686,0.0,0.0,49.658530379140956,43.760971265398666,0.0,81.9641556626634,0.33261020484462733,16.39283113253268,4.5997830614533886,84.11658911710362,27.30269782737621,100.0,100.0,40.89462334939951,15.332610204844627
0,Test,ID1,BV01,54,0,10800,0,10800,Undified,Nan,faces\-6630427483512151430.png,,,,,29,36.013886210738214,11.520797289396148,37.21558813185679,10.61510775430992,31,28,277,163,128,15,277,165,92,150,163,367,163,89,159,177,90,37,171,-2,2,233,113,215,215,1.5251249909212592,125.14391715141413,82.05485969764375,0.0,0.0,0.0,0.0,0.0,0.0,100.0,50,0.0,0,0,0,0,0,0,0,0,0,0,0,0,0,25,0,25,0,0,0,0,25,0,0,25,Neutral,Neutral,80.0,0.0,0.0,0,11,1,14,14,-5,-9,0.0,30,6.666666666666667,98.2404278726887,0.0,0.0,48.03053010897994,42.62137107628595,0.0,81.55471083376787,0.3519144254622603,16.310942166753573,4.605574327638678,83.97101162126584,26.785778870568553,100.0,100.0,40.48320662506518,15.35191442546226
0,Test,ID1,BV01,55,0,11000,0,11000,Undified,Nan,faces\-2136838716876474627.png,,,,,30,37.013511046643494,11.5,37.12142238654117,11.04536101718726,31,29,277,162,128,16,277,165,100,155,155,367,162,86,153,177,93,37,171,-1,0,233,113,215,215,1.543385750167597,125.09996003196804,81.05553651663776,0.0,0.0,0.0,0.0,0.0,0.0,100.0,50,0.0,0,0,0,0,0,0,0,0,0,0,0,0,0,25,0,25,0,0,0,0,25,0,0,25,Neutral,Neutral,100.0,0.0,0.0,-6,9,9,12,21,-6,-7,0.0,30,6.666666666666667,98.33587956325762,0.0,0.0,48.03053010897994,42.62137107628595,0.0,81.62152701716612,0.33282408734847596,16.324305403433225,4.599847226204543,83.88227492075298,26.393609246366825,100.0,100.0,40.14322905257492,15.332824087348476
0,Test,ID1,BV01,56,0,11200,0,11200,Undified,Nan,faces\462564910513592897.png,,,,,29,36.013886210738214,11.0,37.12142238654117,11.04536101718726,30,29,278,162,128,15,278,165,88,124,140,368,162,83,146,175,85,36,171,-1,5,233,113,215,215,1.5632610576263546,125.09996003196804,80.02499609497022,0.0,0.0,0.0,0.0,0.0,0.0,100.0,50,0.0,0,0,0,0,0,0,0,0,0,0,0,0,0,25,0,25,0,0,0,0,25,0,0,25,Neutral,Neutral,100.0,0.0,0.0,0,3,0,12,19,-5,-9,0.0,30,13.333333333333334,96.83621206325527,0.0,0.0,49.658530379140956,43.760971265398666,0.0,80.91363982389828,0.6327575873489452,16.182727964779655,4.689827276204683,83.83950216142608,26.612360172117178,100.0,100.0,40.38704597358474,15.632757587348944
0,Test,ID1,BV01,57,0,11400,0,11400,Undified,Nan,faces\1927541646267926787.png,,,,,30,37.013511046643494,11.5,36.05551275463989,10.689189457342259,31,29,277,163,128,15,277,165,91,141,154,368,163,94,151,160,92,38,170,-1,1,233,113,215,215,1.5369023929701071,126.0634760745554,82.02438661763951,0.0,0.0,0.0,0.0,0.0,0.0,100.0,50,0.0,0,0,0,0,0,0,0,0,0,0,0,0,0,25,0,25,0,0,0,0,25,0,0,25,Neutral,Neutral,100.0,0.0,0.0,-7,9,3,14,14,-7,-6,0.0,30,0.0,98.33694897577686,0.0,0.0,46.455902036091146,41.5191314252638,0.0,81.29160371062295,0.33261020484462733,16.258320742124592,4.5997830614533886,83.74933392189958,25.897834319845693,100.0,100.0,39.74374055659344,15.332610204844627
0,Test,ID1,BV01,58,0,11600,0,11600,Undified,Nan,faces\8952641676181181649.png,,,,,33,36.013886210738214,12.5,37.12142238654117,12.103559819694366,34,32,278,159,129,16,278,161,84,135,160,369,159,88,169,191,86,38,169,-2,3,233,113,215,215,1.6377901600873055,131.18688958886096,80.09993757800316,0.0,0.0,72.0,0.0,0.0,0.0,28.0,50,0.0,0,36,72,0,0,0,0,0,36,0,36,0,0,25,0,25,0,0,36,0,25,0,0,61,Fear,Neutral,100.0,12.195121951219512,87.8048780487805,-33,91,9,-47,74,0,0,72.0,30,0.0,97.86759515267833,46.455902036091146,46.455902036091146,46.455902036091146,41.5191314252638,46.455902036091146,80.96305603445396,0.4264809694643333,44.99261120689079,30.17869041068943,63.95335327489386,44.63609933610287,71.2,100.0,49.34445840516809,55.37770048165946
0,Test,ID1,BV01,59,0,11800,0,11800,Undified,Nan,faces\1941099354891401195.png,,,,,21,34.0147027033899,7.531128874149275,34.0147027033899,7.035533905932738,22,20,280,166,124,12,280,169,99,115,116,369,166,92,101,109,95,35,169,-1,0,233,113,215,215,1.6144630290628996,129.2478239662084,80.05623023850173,0.0,0.0,72.0,0.0,0.0,0.0,28.0,50,0.0,0,36,72,0,0,0,0,0,36,0,36,0,0,25,0,25,0,0,36,0,25,0,0,61,Fear,Neutral,100.0,12.195121951219512,87.8048780487805,-39,99,8,-35,82,0,0,72.0,30,20.0,98.33587956325762,51.3417119032592,51.3417119032592,51.3417119032592,44.93919833228144,51.3417119032592,82.31687519396476,0.33282408734847596,45.26337503879296,32.83778877299711,61.96145650099879,44.77536444859107,71.2,100.0,49.547531279094706,55.2840435995436
0,Test,ID1,BV01,60,0,12000,0,12000,Undified,Nan,faces\5100162847321014058.png,,,,,27,37.013511046643494,10.5,36.05551275463989,10.04987562112089,28,27,279,165,127,14,279,167,81,133,163,369,165,93,138,147,87,38,173,-1,0,233,113,215,215,1.519860898753998,123.14625451064276,81.02468759581859,0.0,0.0,52.0,0.0,0.0,0.0,48.0,50,0.0,0,26,52,0,0,0,0,0,26,0,26,0,0,25,0,25,0,0,26,0,25,0,0,51,Fear,Neutral,100.0,16.129032258064516,83.87096774193549,-40,95,7,-43,84,0,0,52.0,30,0.0,98.33587956325762,46.455902036091146,46.455902036091146,46.455902036091146,41.5191314252638,46.455902036091146,81.29085512185947,0.33282408734847596,37.058171024371894,30.150593346054674,64.00861083534221,39.72357486399909,79.2,100.0,47.39362826827892,49.30056602283235
0,Test,ID1,BV01,61,0,12200,0,12200,Undified,Nan,faces\-4064333078465671394.png,,,,,30,37.013511046643494,12.0,37.05401462729781,11.04536101718726,32,29,279,162,129,15,279,164,95,151,158,370,162,90,151,166,92,38,170,-1,0,233,113,215,215,1.5611216629643452,128.09761902549164,82.05485969764375,0.0,0.0,0.0,0.0,0.0,0.0,100.0,50,0.0,0,0,0,0,0,0,0,0,0,0,0,0,0,25,0,25,0,0,0,0,25,0,0,25,Neutral,Neutral,100.0,0.0,0.0,-7,10,6,15,19,-7,-7,0.0,30,0.0,98.33587956325762,0.0,0.0,46.455902036091146,41.5191314252638,0.0,81.29085512185947,0.33282408734847596,16.258171024371894,4.599847226204543,83.74920773122231,25.897634553587096,100.0,100.0,39.743628268278925,15.332824087348476
0,Test,ID1,BV01,62,0,12400,0,12400,Undified,Nan,faces\-4570730030676265796.png,,,,,30,37.05401462729781,12.020797289396148,37.12142238654117,11.02268050859363,32,29,282,165,130,14,282,166,101,174,171,374,165,83,154,184,92,37,172,0,-7,233,113,215,215,1.7104288652957695,130.00384609695206,76.00657866263946,0.0,0.0,52.0,0.0,0.0,0.0,48.0,50,0.0,0,26,52,0,0,0,0,0,26,0,26,0,0,25,0,25,0,0,26,0,25,0,0,51,Fear,Neutral,100.0,16.129032258064516,83.87096774193549,-41,99,10,-41,79,0,0,52.0,30,6.666666666666667,95.19608139876723,48.03053010897994,48.03053010897994,48.03053010897994,42.62137107628595,48.03053010897994,79.42366830202285,0.9607837202465532,36.684733660404575,31.205026676012935,62.97834548939194,39.15375162444491,79.2,100.0,47.11355024530343,49.928525655730425
0,Test,ID1,BV01,63,0,12600,0,12600,Undified,Nan,faces\-2252365409528454389.png,,,,,28,37.12142238654117,11.02268050859363,36.124783736376884,10.04987562112089,29,27,281,170,131,12,281,170,93,162,174,375,170,93,148,159,93,38,174,0,-5,233,113,215,215,1.5495158519325904,124.0,80.02499609497022,5.0,0.0,0.0,72.0,0.0,0.0,23.0,50,0.0,36,0,0,0,0,2,0,0,36,0,0,0,2,25,38,25,36,0,0,2,25,36,0,25,Joy,Neutral,100.0,93.5064935064935,6.493506493506493,98,20,77,91,14,76,6,77.0,30,0.0,96.78189149123358,0.0,0.0,46.455902036091146,41.5191314252638,2.3227951018045574,80.20306347144265,4.643621701753284,70.24861269428854,7.170623816518492,89.88380729392948,78.68914659725361,99.5,95.0,83.03045952071639,36.516998325129904
0,Test,ID1,BV01,64,0,12800,0,12800,Undified,Nan,faces\-4669471129585338999.png,,,,,28,37.12142238654117,10.52268050859363,36.124783736376884,10.547618319154077,28,29,282,169,131,12,282,169,92,154,166,376,169,93,154,164,92,38,176,0,-8,233,113,215,215,1.5383351190078995,120.0,78.00640999302556,0.0,0.0,0.0,2.0,10.0,0.0,88.0,50,0.0,1,0,0,5,5,0,0,0,1,0,5,0,5,25,1,25,1,0,0,0,30,1,0,25,Neutral,Neutral,100.0,0.0,0.0,-1,11,8,23,21,-7,-6,0.0,30,0.0,94.5886552942058,0.0,0.0,46.455902036091146,41.5191314252638,4.645590203609115,78.66779813352318,1.0822689411588413,15.733559626704636,7.379755294332665,81.2629755778862,24.993247091169415,100.0,100.0,39.350169720028475,16.08226894115884
0,Test,ID1,BV01,65,0,13000,0,13000,Undified,Nan,faces\-6560979717709832692.png,,,,,27,39.204591567825325,11.04536101718726,38.11823710509184,10.050373077662341,28,26,282,173,134,13,282,173,92,169,182,377,174,98,168,171,95,37,178,0,-7,233,113,215,215,1.4374420510249029,115.00434774390055,80.00624975587844,1.0,0.0,60.0,0.0,0.0,0.0,40.0,50,0.0,0,30,60,0,0,0,0,0,30,0,30,0,0,25,0,25,0,0,30,0,25,0,0,55,Fear,Neutral,100.0,14.285714285714285,85.71428571428571,-37,94,7,-39,80,0,0,61.0,30,6.666666666666667,95.19608139876723,48.03053010897994,48.03053010897994,48.03053010897994,42.62137107628595,48.03053010897994,79.42366830202285,1.7607837202465533,40.28473366040457,31.445026676012933,62.78634548939195,41.38455162444491,75.9,99.0,47.913550245303426,52.639355148817984
0,Test,ID1,BV01,66,0,13200,0,13200,Undified,Nan,faces\-7910663301422813070.png,,,,,26,37.21558813185679,10.547618319154077,37.12142238654117,9.137464797715152,28,24,281,174,133,13,281,174,103,169,163,376,176,88,133,150,95,36,177,0,-4,233,113,215,215,1.3855421686746987,115.0,83.0,0.0,0.0,77.0,0.0,0.0,0.0,23.0,50,0.0,0,38,77,0,0,0,0,0,38,0,38,0,0,25,0,25,0,0,38,0,25,0,0,64,Fear,Neutral,100.0,11.494252873563218,88.50574712643679,-32,90,7,-44,73,0,0,77.0,30,13.333333333333334,97.31410088943862,49.658530379140956,49.658530379140956,49.658530379140956,43.760971265398666,49.658530379140956,81.24816200222662,0.537179822112276,47.049632400445326,31.97334565516121,62.546139676093695,45.81665446816602,69.2,100.0,49.88722430033399,56.91361660372148
0,Test,ID1,BV01,67,0,13400,0,13400,Undified,Nan,faces\6372197285070617621.png,,,,,24,38.209946349085605,10.024937810560443,38.11823710509184,8.558821443217981,26,22,277,179,134,12,277,179,112,149,133,372,179,92,133,144,102,37,177,0,-7,233,113,215,215,1.402387767279124,115.00434774390055,82.00609733428362,13.0,0.0,0.0,0.0,66.0,0.0,21.0,50,0.0,0,0,0,33,33,6,0,0,0,0,33,0,40,25,6,25,0,0,0,6,58,0,0,25,Sadness,Neutral,100.0,13.157894736842104,86.8421052631579,-28,55,40,-59,-56,-83,-46,79.0,30,6.666666666666667,95.19608139876723,48.03053010897994,48.03053010897994,48.03053010897994,42.62137107628595,48.03053010897994,79.42366830202285,11.360783720246554,21.25673366040457,34.32502667601293,52.18234548939195,11.624151624444908,98.7,87.0,26.063550245303432,57.42131003603603
0,Test,ID1,BV01,68,0,13600,0,13600,Undified,Nan,faces\-1412272722213096472.png,,,,,26,39.11521443121589,10.5,38.209946349085605,10.547618319154077,26,27,273,177,136,13,273,178,102,143,140,370,177,94,168,177,98,38,176,0,-6,233,113,215,215,1.4525760993018708,122.01639234135716,84.0,0.0,0.0,0.0,0.0,88.0,0.0,12.0,50,0.0,0,0,0,44,44,0,0,0,0,0,44,0,44,25,0,25,0,0,0,0,69,0,0,25,Sadness,Neutral,100.0,10.204081632653061,89.79591836734694,-22,51,40,-51,-59,-83,-43,88.0,30,0.0,96.08269550779448,46.455902036091146,46.455902036091146,46.455902036091146,41.5191314252638,46.455902036091146,79.71362628303527,0.7834608984411034,21.926725256607057,30.285784389382464,55.442735116797564,14.272680082438571,100.0,100.0,30.507043942455297,60.23244049027784
0,Test,ID1,BV01,69,0,13800,0,13800,Undified,Nan,faces\-660303524300256036.png,,,,,23,37.013511046643494,9.552630379629154,36.124783736376884,8.154234499766936,25,22,275,171,131,13,275,173,96,127,132,369,171,89,114,127,92,40,173,0,-6,233,113,215,215,1.4825900884203955,129.0620006043607,87.05170877128145,43.0,0.0,0.0,10.0,38.0,0.0,9.0,50,0.0,5,0,0,19,19,22,0,0,5,0,19,0,40,25,26,25,5,0,0,22,44,5,0,25,Anticipation,Pessimism,100.0,18.867924528301888,81.13207547169812,0,0,0,0,0,0,0,91.0,30,0.0,96.08269550779448,0.0,0.0,43.45982085070782,39.421874595495474,18.68772296580436,79.08444923410478,35.183460898441105,52.216889846820955,25.333285900724732,67.6418162028307,49.28529392880927,95.7,57.0,51.46266738511572,58.81647976636563
0,Test,ID1,BV01,70,0,14000,0,14000,Undified,Nan,faces\4684006970012417916.png,,,,,24,36.013886210738214,9.027692569068707,36.124783736376884,8.640901102795718,25,23,276,165,129,13,276,168,85,88,103,368,165,82,117,141,83,37,173,0,-5,233,113,215,215,1.5311938007468373,124.0644993541666,81.02468759581859,0.0,0.0,0.0,0.0,0.0,0.0,100.0,50,0.0,0,0,0,0,0,0,0,0,0,0,0,0,0,25,0,25,0,0,0,0,25,0,0,25,Neutral,Neutral,80.0,0.0,0.0,0,10,0,22,14,-5,-8,0.0,30,15.0,96.78189149123358,0.0,0.0,48.03053010897994,42.62137107628595,0.0,80.53373536674928,0.643621701753284,16.106747073349858,4.693086510525985,83.79890432825414,26.513324274512733,100.0,100.0,40.330060305012395,15.643621701753284
0,Test,ID1,BV01,71,0,14200,0,14200,Undified,Nan,faces\6692057268646212932.png,,,,,26,37.013511046643494,10.0,36.05551275463989,9.055385138137416,27,25,277,167,130,13,277,169,62,95,152,370,167,94,129,137,78,36,174,0,-6,233,113,215,215,1.5011272096755337,123.10158406779337,82.00609733428362,0.0,0.0,0.0,0.0,0.0,0.0,100.0,50,0.0,0,0,0,0,0,0,0,0,0,0,0,0,0,25,0,25,0,0,0,0,25,0,0,25,Neutral,Neutral,80.0,0.0,0.0,0,6,4,19,16,-7,-8,0.0,30,20.0,96.08269550779448,0.0,0.0,49.658530379140956,43.760971265398666,0.0,80.38617823507573,0.7834608984411034,16.077235647015147,4.735038269532331,83.55058720788172,25.651603279557104,100.0,100.0,39.60792673526136,15.783460898441103
0,Test,ID1,BV01,72,0,14400,0,14400,Undified,Nan,faces\8865521331893350172.png,,,,,26,36.05551275463989,10.04987562112089,36.124783736376884,9.055385138137416,27,25,278,168,129,13,278,170,121,142,117,370,168,94,133,141,107,38,175,0,-9,233,113,215,215,1.5381926266849684,123.06502346320828,80.00624975587844,11.0,0.0,0.0,0.0,0.0,0.0,89.0,50,0.0,0,0,0,0,0,6,0,0,0,0,0,0,6,25,6,25,0,0,0,6,25,0,0,25,Neutral,Neutral,80.0,0.0,0.0,0,7,-1,12,19,-7,-6,0.0,30,10.0,93.61136712239826,0.0,0.0,46.455902036091146,41.5191314252638,5.1101492239700255,77.98369641325792,10.077726575520348,15.596739282651583,10.333900045839618,78.8312496046541,24.57904906377989,98.9,89.0,37.04755446198869,16.277726575520347
0,Test,ID1,BV01,73,0,14600,0,14600,Undified,Nan,faces\5338688018900544870.png,,,,,26,36.013886210738214,9.527692569068707,36.124783736376884,9.634710039206887,26,26,276,167,129,14,276,170,96,112,116,368,167,85,126,147,90,37,174,-1,-1,233,113,215,215,1.5013370972793096,123.14625451064276,82.02438661763951,0.0,0.0,0.0,2.0,0.0,0.0,98.0,50,0.0,1,0,0,0,0,0,0,0,1,0,0,0,0,25,1,25,1,0,0,0,25,1,0,25,Neutral,Neutral,80.0,0.0,0.0,-7,11,6,17,11,-5,-8,0.0,30,15.0,98.34398171348894,0.0,0.0,48.03053010897994,42.62137107628595,0.0,81.62719852232804,0.33120365730221124,16.32543970446561,4.5993610971906635,83.98323097448028,26.80512272803004,100.0,100.0,40.4940797783492,15.331203657302211
0,Test,ID1,BV01,74,0,14800,0,14800,Undified,Nan,faces\2560540115268776043.png,,,,,26,36.05551275463989,10.0,37.12142238654117,9.552630379629154,27,25,274,170,130,14,274,173,103,105,101,366,170,85,140,163,94,37,173,-1,1,233,113,215,215,1.4839299711995513,126.14277624977184,85.00588214941364,2.0,0.0,0.0,41.0,0.0,0.0,56.0,50,0.0,20,0,0,0,0,1,0,0,20,0,0,0,1,25,22,25,20,0,0,1,25,20,0,25,Neutral,Neutral,80.0,0.0,0.0,-5,10,0,12,16,-7,-9,0.0,30,15.0,98.33694897577686,0.0,0.0,48.03053010897994,42.62137107628595,0.9606106021795988,81.62227560592959,1.9326102048446274,16.324455121185917,5.6081188926521675,82.97573244647121,25.903142146129518,99.8,98.0,39.393341340889435,15.332610204844627
0,Test,ID1,BV01,75,0,15000,0,15000,Undified,Nan,faces\212149527684032091.png,,,,,27,37.05401462729781,10.5,36.124783736376884,10.04987562112089,28,27,273,171,131,14,273,173,101,117,115,367,171,101,156,153,101,37,174,-1,0,233,113,215,215,1.5373375227124315,126.09916732476864,82.02438661763951,0.0,0.0,0.0,0.0,0.0,0.0,100.0,50,0.0,0,0,0,0,0,0,0,0,0,0,0,0,0,25,0,25,0,0,0,0,25,0,0,25,Neutral,Neutral,100.0,0.0,0.0,0,9,5,21,11,-4,-9,0.0,30,15.0,98.33587956325762,0.0,0.0,48.03053010897994,42.62137107628595,0.0,81.62152701716612,0.33282408734847596,16.324305403433225,4.599847226204543,84.08227492075297,27.213609246366822,100.0,100.0,40.84322905257492,15.332824087348476
0,Test,ID1,BV01,76,0,15200,0,15200,Undified,Nan,faces\-2015905075182024530.png,,,,,20,36.05551275463989,7.0,36.05551275463989,8.031128874149275,19,22,274,176,130,10,274,178,61,58,94,367,176,94,122,129,77,38,174,0,0,233,113,215,215,1.5188370611392217,126.0634760745554,83.0,0.0,0.0,0.0,0.0,0.0,0.0,100.0,50,0.0,0,0,0,0,0,0,0,0,0,0,0,0,0,25,0,25,0,0,0,0,25,0,0,25,Neutral,Neutral,100.0,0.0,0.0,-1,4,-1,13,15,-4,-6,0.0,30,10.0,98.33587956325762,0.0,0.0,46.455902036091146,41.5191314252638,0.0,81.29085512185947,0.33282408734847596,16.258171024371894,4.599847226204543,84.04920773122231,27.127634553587097,100.0,100.0,40.79362826827892,15.332824087348476
0,Test,ID1,BV01,77,0,15400,0,15400,Undified,Nan,faces\7416077071331718859.png,,,,,28,37.12142238654117,10.52268050859363,37.05401462729781,10.621700022186417,28,28,273,173,132,13,273,174,103,127,123,367,173,92,161,175,97,40,174,0,-3,233,113,215,215,1.471662394045645,125.09996003196804,85.00588214941364,4.0,0.0,0.0,0.0,19.0,0.0,77.0,50,0.0,0,0,0,10,10,2,0,0,0,0,10,0,12,25,2,25,0,0,0,2,34,0,0,25,Neutral,Neutral,100.0,0.0,0.0,-1,8,-1,13,11,-7,-9,0.0,30,0.0,97.81548750430306,0.0,0.0,43.45982085070782,39.421874595495474,8.257365961634486,80.29740363166079,3.6369024991393872,16.059480726332158,10.132622028640784,79.22364274025345,25.19671518194054,99.6,96.0,38.79461054474912,15.436902499139388
0,Test,ID1,BV01,78,0,15600,0,15600,Undified,Nan,faces\-287610193580468231.png,,,,,27,38.11823710509184,10.524937810560443,38.11823710509184,10.621700022186417,27,27,274,173,132,13,274,174,81,113,138,367,173,94,164,174,87,36,175,-1,0,233,113,215,215,1.4827212172344266,123.10158406779337,83.02409288875127,4.0,0.0,0.0,0.0,71.0,0.0,25.0,50,0.0,0,0,0,36,36,2,0,0,0,0,36,0,38,25,2,25,0,0,0,2,60,0,0,25,Sadness,Neutral,100.0,12.345679012345679,87.65432098765432,-22,50,36,-60,-57,-83,-43,75.0,30,20.0,98.33587956325762,49.658530379140956,49.658530379140956,49.658530379140956,43.760971265398666,49.658530379140956,81.96340707389993,3.532824087348476,21.492681414779987,32.872038934732075,53.59870955960433,11.400722724435413,99.6,96.0,27.444511061084995,55.99640433426206
0,Test,ID1,BV01,79,0,15800,0,15800,Undified,Nan,faces\6276617864289884742.png,,,,,30,38.11823710509184,12.0,38.11823710509184,11.112850452343103,31,29,273,173,133,14,273,174,91,135,147,367,173,92,165,179,91,38,173,0,-3,233,113,215,215,1.4712391714794515,125.06398362438324,85.00588214941364,2.0,0.0,0.0,0.0,65.0,0.0,33.0,50,0.0,0,0,0,32,32,1,0,0,0,0,32,0,34,25,1,25,0,0,0,1,58,0,0,25,Sadness,Neutral,100.0,13.333333333333334,86.66666666666667,-27,49,37,-60,-53,-81,-43,67.0,30,10.0,97.81548750430306,46.455902036091146,46.455902036091146,46.455902036091146,41.5191314252638,46.455902036091146,80.92658068059129,2.036902499139387,21.27731613611826,30.66181686959195,55.46320457238558,10.12796562738638,99.8,98.0,26.788987102088694,53.85356916580606
0,Test,ID1,BV01,80,0,16000,0,16000,Undified,Nan,faces\-8935118576504499696.png,,,,,28,37.05401462729781,11.0,38.11823710509184,10.621700022186417,29,27,274,170,132,14,274,172,95,134,141,367,170,96,167,173,95,37,172,-1,0,233,113,215,215,1.5193514540266977,126.14277624977184,83.02409288875127,0.0,0.0,0.0,0.0,0.0,0.0,100.0,50,0.0,0,0,0,0,0,0,0,0,0,0,0,0,0,25,0,25,0,0,0,0,25,0,0,25,Neutral,Neutral,80.0,0.0,0.0,1,13,5,18,9,-6,-8,0.0,30,15.0,98.33587956325762,0.0,0.0,48.03053010897994,42.62137107628595,0.0,81.62152701716612,0.33282408734847596,16.324305403433225,4.599847226204543,83.88227492075298,26.393609246366825,100.0,100.0,40.14322905257492,15.332824087348476
0,Test,ID1,BV01,81,0,16200,0,16200,Undified,Nan,faces\1498690300766094672.png,,,,,30,38.11823710509184,12.0,38.209946349085605,11.605443038891847,31,30,274,168,131,15,274,170,93,149,160,366,168,97,185,190,95,34,174,-1,0,233,113,215,215,1.5135901022972391,124.1974234837422,82.05485969764375,0.0,0.0,0.0,0.0,0.0,0.0,100.0,50,0.0,0,0,0,0,0,0,0,0,0,0,0,0,0,25,0,25,0,0,0,0,25,0,0,25,Neutral,Neutral,80.0,0.0,0.0,-2,5,6,22,19,-7,-7,0.0,30,30.0,98.33587956325762,0.0,0.0,53.0819450562014,46.157361539340975,0.0,82.68232415608263,0.33282408734847596,16.536464831216527,4.599847226204543,83.88835463464463,26.25941650248512,100.0,100.0,39.95234862341239,15.332824087348476
0,Test,ID1,BV01,82,0,16400,0,16400,Undified,Nan,faces\-7760798404506726160.png,,,,,18,36.0,7.5,35.05709628591621,6.0827625302982185,20,17,274,173,128,11,274,175,96,112,116,366,173,87,87,100,91,38,172,-1,0,233,113,215,215,1.4775987099443333,124.1974234837422,84.05355435673141,8.0,0.0,4.0,0.0,0.0,0.0,88.0,50,0.0,0,2,4,0,0,4,0,0,2,0,2,0,4,25,4,25,0,0,2,4,25,0,0,27,Neutral,Neutral,80.0,0.0,0.0,-6,4,4,12,21,-6,-6,0.0,30,10.0,98.33587956325762,0.0,0.0,46.455902036091146,41.5191314252638,3.7164721628872917,81.29085512185947,6.732824087348476,16.258171024371894,8.563906915792554,80.67795997955191,25.990509778420062,97.6,92.0,38.09362826827892,15.332824087348476
0,Test,ID1,BV01,83,0,16600,0,16600,Undified,Nan,faces\-5829784390690816593.png,,,,,29,37.013511046643494,11.0,36.22154055254967,11.04536101718726,29,30,274,167,128,15,274,170,85,127,149,365,167,96,163,169,90,38,172,-2,1,233,113,215,215,1.5245107576687351,128.14054783713078,84.05355435673141,0.0,0.0,13.0,0.0,0.0,0.0,87.0,50,0.0,0,6,13,0,0,0,0,0,6,0,6,0,0,25,0,25,0,0,6,0,25,0,0,32,Neutral,Neutral,80.0,0.0,0.0,-5,10,6,17,19,-6,-6,0.0,30,10.0,98.33694897577686,0.0,0.0,46.455902036091146,41.5191314252638,6.0392672646918495,81.29160371062295,0.33261020484462733,16.258320742124592,7.921380057033906,81.19205632543519,26.042106560199258,94.8,100.0,38.79374055659344,15.332610204844627
0,Test,ID1,BV01,84,0,16800,0,16800,Undified,Nan,faces\-8072168256924827397.png,,,,,20,37.0,8.031128874149275,37.013511046643494,7.531128874149275,21,20,273,173,130,13,273,176,97,125,128,365,173,93,121,130,95,37,171,-2,0,233,113,215,215,1.4783983782140326,124.32618388738553,84.09518416651456,22.0,0.0,14.0,0.0,0.0,0.0,64.0,50,0.0,0,7,14,0,0,11,0,0,7,0,7,0,11,25,11,25,0,0,7,11,25,0,0,32,Neutral,Neutral,80.0,0.0,0.0,0,5,3,22,16,-7,-9,0.0,30,15.0,98.33587956325762,0.0,0.0,48.03053010897994,42.62137107628595,10.566716623975587,81.62152701716612,17.93282408734848,16.324305403433225,15.691541369391118,74.90891960620371,25.0962737149119,92.2,78.0,33.99322905257492,15.332824087348476
0,Test,ID1,BV01,85,0,17000,0,17000,Undified,Nan,faces\2721693942075929469.png,,,,,26,37.013511046643494,10.0,36.22154055254967,9.552630379629154,27,26,274,168,129,15,274,172,91,118,129,366,168,85,133,156,88,39,173,-2,0,233,113,215,215,1.5143258667912958,124.25779653607252,82.05485969764375,1.0,0.0,0.0,5.0,0.0,0.0,95.0,50,0.0,2,0,0,0,0,0,0,0,2,0,0,0,0,25,3,25,2,0,0,0,25,2,0,25,Neutral,Neutral,80.0,0.0,0.0,-8,7,6,23,12,-6,-6,0.0,30,5.0,98.33587956325762,0.0,0.0,44.932896411722155,40.45302748820551,0.44932896411722156,80.97102394074199,1.132824087348476,16.194204788148397,5.086978156469015,83.427519868899,26.1855079720754,99.9,99.0,39.8456535911113,15.332824087348476
0,Test,ID1,BV01,86,0,17200,0,17200,Undified,Nan,faces\-4670768798036622005.png,,,,,29,38.05259518088089,12.0,38.209946349085605,11.04536101718726,31,28,275,167,131,16,275,170,89,135,151,367,167,88,161,182,88,37,171,-2,3,233,113,215,215,1.550046986361593,127.1416532848303,82.02438661763951,5.0,0.0,0.0,30.0,0.0,0.0,65.0,50,0.0,15,0,0,0,0,2,0,0,15,0,0,0,2,25,18,25,15,0,0,2,25,15,0,25,Neutral,Neutral,80.0,0.0,0.0,-5,4,-1,20,18,-4,-8,0.0,30,15.0,97.86759515267833,0.0,0.0,48.03053010897994,42.62137107628595,2.401526505448997,81.2937279297606,4.4264809694643334,16.258745585952123,7.148783868836248,82.01034569790706,26.924466552230854,99.5,95.0,39.79405918946409,15.426480969464333
0,Test,ID1,BV01,87,0,17400,0,17400,Undified,Nan,faces\-4176376489111535447.png,,,,,31,37.05401462729781,12.020797289396148,37.12142238654117,11.610967233145622,32,31,276,167,130,15,276,169,77,117,151,368,167,90,154,170,83,36,171,-1,1,233,113,215,215,1.5071940654036382,128.191263352851,85.05292469985967,0.0,0.0,0.0,0.0,0.0,0.0,100.0,50,0.0,0,0,0,0,0,0,0,0,0,0,0,0,0,25,0,25,0,0,0,0,25,0,0,25,Neutral,Neutral,100.0,0.0,0.0,-3,6,6,20,15,-5,-7,0.0,30,20.0,98.33694897577686,0.0,0.0,49.658530379140956,43.760971265398666,0.0,81.9641556626634,0.33261020484462733,16.39283113253268,4.5997830614533886,84.01658911710362,26.89269782737621,100.0,100.0,40.54462334939951,15.332610204844627
0,Test,ID1,BV01,88,0,17600,0,17600,Undified,Nan,faces\2877798323407416680.png,,,,,30,37.12142238654117,11.52268050859363,37.12142238654117,11.112850452343103,31,29,276,168,130,14,276,169,78,119,151,368,168,81,142,174,79,36,172,-1,0,233,113,215,215,1.5188261977608852,126.09916732476864,83.02409288875127,0.0,0.0,0.0,0.0,0.0,0.0,100.0,50,0.0,0,0,0,0,0,0,0,0,0,0,0,0,0,25,0,25,0,0,0,0,25,0,0,25,Neutral,Neutral,100.0,0.0,0.0,-7,9,-1,22,10,-7,-8,0.0,30,20.0,98.33587956325762,0.0,0.0,49.658530379140956,43.760971265398666,0.0,81.96340707389993,0.33282408734847596,16.392681414779986,4.599847226204543,83.81646292642635,26.072498061117617,100.0,100.0,39.84451106108499,15.332824087348476
0,Test,ID1,BV01,89,0,17800,0,17800,Undified,Nan,faces\-7194633662742781368.png,,,,,30,37.05401462729781,11.520797289396148,37.12142238654117,11.04536101718726,31,29,277,168,130,14,277,169,78,118,150,369,168,88,158,179,83,37,172,-1,0,233,113,215,215,1.549471338484066,127.1416532848303,82.05485969764375,0.0,0.0,0.0,0.0,0.0,0.0,100.0,50,0.0,0,0,0,0,0,0,0,0,0,0,0,0,0,25,0,25,0,0,0,0,25,0,0,25,Neutral,Neutral,100.0,0.0,0.0,-5,13,0,20,15,-7,-6,0.0,30,15.0,98.33587956325762,0.0,0.0,48.03053010897994,42.62137107628595,0.0,81.62152701716612,0.33282408734847596,16.324305403433225,4.599847226204543,83.78227492075297,25.983609246366825,100.0,100.0,39.793229052574915,15.332824087348476
0,Test,ID1,BV01,90,0,18000,0,18000,Undified,Nan,faces\-2071882909703254254.png,,,,,18,36.0,7.035533905932738,36.013886210738214,6.5,19,18,277,174,129,10,277,176,95,98,103,369,174,95,106,111,95,37,172,0,-3,233,113,215,215,1.536766594805227,126.09916732476864,82.05485969764375,6.0,0.0,47.0,1.0,0.0,0.0,47.0,50,0.0,0,24,47,0,0,3,0,0,24,0,24,0,3,25,4,25,0,0,24,3,25,0,0,48,Anticipation,Anxiety,100.0,17.543859649122805,82.45614035087719,0,0,0,0,0,0,0,54.0,30,15.0,97.81548750430306,0.0,0.0,48.03053010897994,42.62137107628595,22.574349151220574,81.25725257589792,5.236902499139388,37.851450515179586,18.486962782913135,73.33615503125928,41.14792864710041,80.6,94.0,47.08858788638469,49.55093758685869
0,Test,ID1,BV01,91,0,18200,0,18200,Undified,Nan,faces\6322543346551840418.png,,,,,27,37.013511046643494,10.5,37.12142238654117,10.12395732415323,28,27,276,170,130,14,276,172,100,138,138,368,170,91,144,157,95,37,172,-1,-1,233,113,215,215,1.5007429158130507,126.14277624977184,84.05355435673141,0.0,0.0,0.0,2.0,0.0,0.0,98.0,50,0.0,1,0,0,0,0,0,0,0,1,0,0,0,0,25,1,25,1,0,0,0,25,1,0,25,Neutral,Neutral,80.0,0.0,0.0,-6,7,0,13,17,-6,-7,0.0,30,15.0,98.34398171348894,0.0,0.0,48.03053010897994,42.62137107628595,0.0,81.62719852232804,0.33120365730221124,16.32543970446561,4.5993610971906635,83.88323097448028,26.39512272803004,100.0,100.0,40.1440797783492,15.331203657302211
0,Test,ID1,BV01,92,0,18400,0,18400,Undified,Nan,faces\4577290721056631186.png,,,,,29,36.05551275463989,11.02268050859363,37.21558813185679,10.547618319154077,30,28,277,169,130,14,277,171,95,124,130,369,169,89,158,177,92,37,172,-1,1,233,113,215,215,1.4881222794354083,125.14391715141413,84.09518416651456,1.0,0.0,0.0,0.0,0.0,0.0,99.0,50,0.0,0,0,0,0,0,0,0,0,0,0,0,0,0,25,0,25,0,0,0,0,25,0,0,25,Neutral,Neutral,80.0,0.0,0.0,0,8,7,23,16,-4,-8,0.0,30,15.0,98.33694897577686,0.0,0.0,48.03053010897994,42.62137107628595,0.4803053010897994,81.62227560592959,1.1326102048446274,16.324455121185917,5.103950977052778,83.67906677895073,27.173475579377467,99.9,99.0,40.64334134088944,15.332610204844627
