Problem,NameTest,User,Module,Image,Timestamp,TimeBlock,TimeVideo,TimeDetection,URL_Media,Codigo_Media,URL,XEyeTracking,YEyeTracking,Distance,Velocity,Blinks,B_left_horizontal,B_left_vertical,B_right_horizontal,B_right_vertical,PLeftEAR,PRightEAR,XFrame,YFrame,WFrame,HFrame,XEyeLeft,YEyeLeft,GazeRatioLeft,LWLeft,RWLeft,XEyeRight,YEyeRight,GazeRatioRight,LWRight,RWRight,GazeRatioAvg,FrownT,Pitch,Roll,Yaw,XPose,YPose,WidthPose,HeightPose,MouthRatio,VMouth,HMouth,Anger,Disgust,Fear,Joy,Sadness,Surprise,Neutral,Anticipation,Trust,Love,Submission,Awe,Disapproval,Remorse,Contempt,Agressiveness,Optimism,Guilt,Curiosity,Despair,Unbelief,Envy,Cynicism,Pride,Hope,Delight,Sentimentality,Shame,Outrage,Pessimism,Morbidness,Dominance,Anxiety,Predominant,Trend,Veracity,Positive valence,Negative valence,Jvalence,Jarousal,Jdominance,Evalence,Earousal,Dvalence,Darousal,Intensity,eng_blinks,eng_frownt,FOCUS,Stress,Variant2,Stress_intens,Cognitive effort,Frustration,Interest,Rejection,Commitment,Confusion,Comprehension,Performance,Confidence 1,Confidence 2,PerformancePolit,Variant
0,Test,ID1,BV01,1,0,200,0,200,Undified,Nan,faces\-8970665460881455512.png,,,,,31,12.041594578792296,4.061552812808832,12.041594578792296,3.5,33,29,260,140,42,6,260,140,61,11,18,289,141,113,17,15,87,14,175,1,0,245,125,72,72,1.9096319579636367,42.01190307520001,22.0,0.0,0.0,0.0,100.0,0.0,0.0,0.0,50,0.0,50,0,0,0,0,0,0,0,50,0,0,0,0,25,50,25,50,0,0,0,25,50,0,25,Joy,Neutral,100.0,100.0,0.0,98,13,79,93,20,76,6,100.0,30,20.0,98.33587956325762,0.0,0.0,54.88116360940265,47.41681452658185,0.0,83.06016005225489,0.33282408734847596,87.01203201045098,4.599847226204543,92.22613822426185,85.38765383548991,100.0,100.0,89.05902400783823,40.33282408734848
0,Test,ID1,BV01,2,0,400,0,400,Undified,Nan,faces\-5533124726954201184.png,,,,,29,12.0,3.5,12.0,3.5,29,29,260,140,42,5,260,140,63,12,19,289,140,136,15,11,99,13,174,0,7,245,125,72,72,1.8695652173913044,43.0,23.0,0.0,0.0,0.0,89.0,0.0,0.0,11.0,50,0.0,44,0,0,0,0,0,0,0,44,0,0,0,0,25,44,25,44,0,0,0,25,44,0,25,Joy,Neutral,100.0,100.0,0.0,93,13,85,90,17,77,6,89.0,30,40.0,95.40106416225649,0.0,0.0,60.653065971263345,51.45714617988434,0.0,82.21788876754484,0.9197871675487023,79.45557775350898,4.77593615026461,92.1010399565428,82.81457618754048,100.0,100.0,87.08268331513173,38.169787167548705
0,Test,ID1,BV01,3,0,600,0,600,Undified,Nan,faces\-5615446519442863232.png,,,,,33,12.0,4.0,12.0,4.061552812808832,33,33,261,139,41,6,261,140,63,12,19,289,139,114,16,14,88,13,176,-2,7,245,117,72,72,2.047512562185564,43.04648650006177,21.02379604162864,0.0,0.0,0.0,0.0,0.0,0.0,100.0,50,0.0,0,0,0,0,0,0,0,0,0,0,0,0,0,25,0,25,0,0,0,0,25,0,0,25,Neutral,Neutral,100.0,0.0,0.0,-5,3,8,21,14,-5,-6,0.0,30,40.0,95.40106416225649,0.0,0.0,60.653065971263345,51.45714617988434,0.0,82.21788876754484,0.9197871675487023,16.44357775350897,4.77593615026461,83.9010399565428,26.94457618754049,100.0,100.0,40.582683315131725,15.919787167548701
0,Test,ID1,BV01,4,0,800,0,800,Undified,Nan,faces\2011478018636299955.png,,,,,32,11.0,4.0,12.041594578792296,3.5,36,29,266,143,41,7,266,145,52,10,19,294,143,107,15,14,79,13,178,-4,19,253,125,72,72,1.7518463166731777,42.190046219457976,24.08318915758459,0.0,0.0,0.0,84.0,0.0,0.0,16.0,50,0.0,42,0,0,0,0,0,0,0,42,0,0,0,0,25,42,25,42,0,0,0,25,42,0,25,Joy,Neutral,100.0,100.0,0.0,98,18,86,96,25,79,7,84.0,30,40.0,65.0599776048236,0.0,0.0,60.653065971263345,51.45714617988434,0.0,60.97912817734182,6.98800447903528,72.33982563546837,6.596401343710584,88.72079174276573,76.71686121861204,100.0,100.0,83.59686922660129,42.98800447903528
0,Test,ID1,BV01,5,0,1000,0,1000,Undified,Nan,faces\6172577313820746199.png,,,,,34,11.0,4.0,12.16552506059644,4.061552812808832,36,33,270,147,41,7,270,149,61,11,18,298,147,106,17,16,83,13,-179,-4,22,253,125,72,72,1.819745973985398,40.19950248448356,22.09072203437452,0.0,0.0,0.0,78.0,0.0,0.0,22.0,50,0.0,39,0,0,0,0,0,0,0,39,0,0,0,0,25,39,25,39,0,0,0,25,39,0,25,Joy,Neutral,100.0,100.0,0.0,98,17,83,94,23,78,4,78.0,30,40.0,50.00624703467075,0.0,0.0,60.653065971263345,51.45714617988434,0.0,50.44151677823483,9.99875059306585,65.62430335564697,7.499625177919755,86.84445153548768,71.99482434810747,100.0,100.0,80.46622751673522,44.49875059306585
0,Test,ID1,BV01,6,0,1200,0,1200,Undified,Nan,faces\5315131423398802435.png,,,,,37,12.041594578792296,4.561552812808832,12.041594578792296,4.561552812808832,37,37,269,144,42,8,269,146,78,15,19,298,144,111,20,18,94,13,179,-5,18,253,125,72,72,1.7890641321772542,41.303752856126756,23.08679276123039,16.0,0.0,0.0,67.0,0.0,0.0,17.0,50,0.0,34,0,0,0,0,8,0,0,34,0,0,0,8,25,42,25,34,0,0,8,25,34,0,25,Joy,Neutral,100.0,80.72289156626506,19.27710843373494,94,20,85,87,23,80,5,83.0,30,40.0,69.0246058772074,0.0,0.0,60.653065971263345,51.45714617988434,9.704490555402135,63.754367968010484,18.99507882455852,72.5108735936021,15.535993452838731,81.94664203453007,76.88325619545562,98.4,84.0,80.96315519520158,46.76435593299226
0,Test,ID1,BV01,7,0,1400,0,1400,Undified,Nan,faces\1357068551301615224.png,,,,,36,11.04536101718726,4.061552812808832,12.16552506059644,4.561552812808832,36,37,270,146,41,10,270,150,57,11,19,298,146,105,19,18,81,14,-176,-7,25,253,125,72,72,1.8022072077516864,39.812058474788756,22.09072203437452,0.0,0.0,0.0,14.0,7.0,0.0,78.0,50,0.0,7,0,0,4,4,0,0,0,7,0,4,0,4,25,7,25,7,0,0,0,28,7,0,25,Neutral,Neutral,100.0,0.0,0.0,0,6,0,21,18,-4,-6,0.0,30,0.0,35.510423303684185,0.0,0.0,54.88116360940265,47.41681452658185,3.8416814526581855,39.082340670553485,12.897915339263164,7.816468134110697,10.482299400740951,75.12239454646257,15.68282462228463,100.0,100.0,34.46235110058302,27.897915339263164
0,Test,ID1,BV01,8,0,1600,0,1600,Undified,Nan,faces\-4318105544195796098.png,,,,,32,11.04536101718726,4.0,12.369316876852979,3.58113883008419,36,28,273,147,41,10,273,152,66,8,12,301,147,90,19,21,78,12,-176,-9,24,261,125,72,72,1.632653485687065,40.024992192378996,24.515301344262525,0.0,2.0,75.0,0.0,0.0,0.0,23.0,50,0.0,0,38,75,0,1,1,0,0,38,0,38,1,0,26,0,25,0,0,38,0,25,1,0,62,Fear,Neutral,100.0,11.76470588235294,88.23529411764706,-42,88,3,-39,79,0,0,77.0,30,40.0,40.25858975696685,67.03200460356393,67.03200460356393,67.03200460356393,55.92240322249475,67.03200460356393,44.95773379662522,13.54828204860663,39.791546759325044,45.43208714654216,48.1501036624288,35.30444381539918,69.0,98.0,44.243660069493785,68.2571055780184
0,Test,ID1,BV01,9,0,1800,0,1800,Undified,Nan,faces\8500211515152749747.png,,,,,31,12.041594578792296,4.061552812808832,13.341664064126336,4.123105625617661,33,30,277,149,42,10,277,153,60,14,23,305,149,78,15,19,69,13,-176,-9,21,261,125,72,72,1.4762082344456309,38.832975677895206,26.305892875931807,0.0,0.0,0.0,89.0,0.0,0.0,11.0,50,0.0,44,0,0,0,0,0,0,0,44,0,0,0,0,25,44,25,44,0,0,0,25,44,0,25,Joy,Neutral,80.0,100.0,0.0,90,21,76,91,20,79,5,89.0,30,20.0,55.03961080030571,0.0,0.0,60.653065971263345,51.45714617988434,0.0,53.9648714141793,8.992077839938858,74.51697428283586,7.197623351981657,87.53838845983262,76.0950566995281,100.0,100.0,83.54473071212689,46.24207783993886
0,Test,ID1,BV01,10,0,2000,0,2000,Undified,Nan,faces\4944330348076834347.png,,,,,31,12.0,4.0,13.341664064126336,4.123105625617661,33,30,280,151,42,10,280,156,66,10,15,308,151,111,19,17,88,14,-169,-7,27,269,133,72,72,1.4838776042785655,37.36308338453881,25.179356624028344,0.0,0.0,0.0,89.0,0.0,0.0,11.0,50,0.0,44,0,0,0,0,0,0,0,44,0,0,0,0,25,44,25,44,0,0,0,25,44,0,25,Joy,Neutral,80.0,100.0,0.0,89,22,79,97,17,76,7,89.0,30,0.0,26.99821688321372,0.0,0.0,54.88116360940265,47.41681452658185,0.0,33.123796176224154,14.600356623357257,69.28075923524483,8.880106987007178,83.80829402801666,69.3117784468577,100.0,100.0,79.36856942643362,51.85035662335726
0,Test,ID1,BV01,11,0,2200,0,2200,Undified,Nan,faces\-5928974386964551127.png,,,,,36,11.0,4.5,12.16552506059644,4.123105625617661,40,33,283,153,41,10,283,157,55,11,20,311,153,125,15,12,90,13,-169,-6,28,269,133,72,72,1.5580466275693734,36.1386219991853,23.19482700948641,0.0,0.0,0.0,89.0,0.0,0.0,11.0,50,0.0,44,0,0,0,0,0,0,0,44,0,0,0,0,25,44,25,44,0,0,0,25,44,0,25,Joy,Neutral,80.0,100.0,0.0,91,18,85,91,17,77,4,89.0,30,20.0,23.317431025494297,0.0,0.0,60.653065971263345,51.45714617988434,0.0,31.75934557181131,15.33651379490114,69.36386911436226,9.100954138470343,83.59517124640487,69.34935351759331,100.0,100.0,79.5139018357717,52.58651379490114
0,Test,ID1,BV01,12,0,2400,0,2400,Undified,Nan,faces\4327546361100344768.png,,,,,37,11.0,4.561552812808832,12.369316876852979,4.123105625617661,41,33,283,156,41,9,283,159,60,12,20,311,156,100,17,17,80,13,-168,-6,26,269,133,72,72,1.389171404790523,35.17101079013795,25.317977802344327,0.0,0.0,0.0,89.0,0.0,0.0,11.0,50,0.0,44,0,0,0,0,0,0,0,44,0,0,0,0,25,44,25,44,0,0,0,25,44,0,25,Joy,Neutral,100.0,100.0,0.0,96,15,77,92,21,78,5,89.0,30,20.0,31.232035321925014,0.0,0.0,60.653065971263345,51.45714617988434,0.0,37.29956857931281,13.753592935614998,70.82791371586256,8.626077880684498,84.62909455338368,71.23780160016658,100.0,100.0,80.69493528689692,51.003592935614996
0,Test,ID1,BV01,13,0,2600,0,2600,Undified,Nan,faces\1819685085682286735.png,,,,,38,11.0,4.5,12.369316876852979,4.611062569605222,40,37,283,156,41,10,283,160,70,14,20,311,156,106,16,15,88,13,-167,-6,25,269,133,72,72,1.3002889852208646,34.205262752974136,26.305892875931807,0.0,0.0,0.0,89.0,0.0,0.0,11.0,50,0.0,44,0,0,0,0,0,0,0,44,0,0,0,0,25,44,25,44,0,0,0,25,44,0,25,Joy,Neutral,100.0,100.0,0.0,97,19,81,98,17,79,7,89.0,30,20.0,35.510423303684185,0.0,0.0,60.653065971263345,51.45714617988434,0.0,40.29444016654423,12.897915339263164,71.78288803330885,8.369374601778949,85.23394433523127,72.44700447515919,100.0,100.0,81.49416602498164,50.147915339263164
0,Test,ID1,BV01,14,0,2800,0,2800,Undified,Nan,faces\-5216258075940123549.png,,,,,35,12.0,4.549509756796391,12.369316876852979,4.123105625617661,37,33,283,153,41,9,283,156,71,15,21,311,153,123,21,17,97,13,-170,-6,24,269,133,72,72,1.357504485511662,36.87817782917155,27.166155414412252,0.0,0.0,0.0,89.0,0.0,0.0,11.0,50,0.0,44,0,0,0,0,0,0,0,44,0,0,0,0,25,44,25,44,0,0,0,25,44,0,25,Joy,Neutral,100.0,100.0,0.0,95,22,84,92,21,79,6,89.0,30,20.0,40.25858975696685,0.0,0.0,60.653065971263345,51.45714617988434,0.0,43.618156683842095,11.94828204860663,72.44763133676842,8.084484614581989,85.79422797671863,73.3339619686324,100.0,100.0,81.99272350257633,49.19828204860663
0,Test,ID1,BV01,15,0,3000,0,3000,Undified,Nan,faces\-9021292476026014357.png,,,,,36,11.0,4.5,12.16552506059644,4.123105625617661,40,33,282,147,41,9,282,150,66,12,18,310,147,131,21,16,98,14,-175,-6,28,269,125,72,72,1.6200634796925206,40.79215610874228,25.179356624028344,0.0,0.0,100.0,0.0,0.0,0.0,0.0,50,0.0,0,50,100,0,0,0,0,0,50,0,50,0,0,25,0,25,0,0,50,0,25,0,0,75,Fear,Awe,100.0,9.090909090909092,90.9090909090909,-34,89,7,-43,78,0,0,100.0,30,0.0,23.317431025494297,54.88116360940265,54.88116360940265,54.88116360940265,47.41681452658185,54.88116360940265,30.54724607582056,15.33651379490114,46.10944921516411,39.2855941236418,51.62624930866862,37.799436449822004,60.0,100.0,44.58208691137308,78.06378652217387
0,Test,ID1,BV01,16,0,3200,0,3200,Undified,Nan,faces\6093409661923276432.png,,,,,22,10.04987562112089,2.5,12.041594578792296,2.58113883008419,24,21,284,146,39,6,284,148,62,5,8,310,146,130,17,13,96,13,179,-7,34,269,125,72,72,2.1626977629090782,43.73785545725808,20.223748416156685,0.0,100.0,0.0,0.0,0.0,0.0,0.0,50,0.0,0,0,0,0,50,50,0,0,0,0,0,50,0,75,0,25,0,0,50,0,25,50,0,25,Disgust,Neutral,100.0,9.090909090909092,90.9090909090909,-20,64,40,-3,-25,-69,36,100.0,30,20.0,8.362432319251969,0.0,0.0,60.653065971263345,51.45714617988434,0.0,21.29084647744168,98.32751353614961,16.658169295488335,33.998254060844886,48.03048139906826,7.525759759267244,50.0,0.0,9.043626971616252,81.05478626342233
0,Test,ID1,BV01,17,0,3400,0,3400,Undified,Nan,faces\9143935718220021290.png,,,,,32,12.041594578792296,3.5,11.04536101718726,4.061552812808832,29,36,289,143,41,7,289,145,76,10,13,318,143,88,15,17,82,13,176,-7,22,277,125,72,72,2.1485661808897967,43.18564576337836,20.09975124224178,95.0,0.0,0.0,0.0,0.0,0.0,5.0,50,0.0,0,0,0,0,0,48,0,0,0,0,0,0,48,25,48,25,0,0,0,48,25,0,0,25,Anger,Neutral,100.0,9.523809523809524,90.47619047619048,-39,82,32,-51,89,-45,62,95.0,30,20.0,49.420571417533075,0.0,0.0,60.653065971263345,51.45714617988434,60.653065971263345,50.031543846238456,86.11588571649338,30.906308769247694,63.693951999142854,29.547992785309567,21.212685240090572,90.5,5.0,21.754731576935768,71.484933335541
0,Test,ID1,BV01,18,0,3600,0,3600,Undified,Nan,faces\-1902847082225497642.png,,,,,33,12.041594578792296,4.0,12.16552506059644,4.123105625617661,33,33,293,143,41,8,293,145,111,20,18,321,143,172,19,11,141,13,179,-5,21,277,125,72,72,1.9060946254872748,42.1070065428546,22.09072203437452,38.0,0.0,0.0,46.0,0.0,0.0,16.0,50,0.0,23,0,0,0,0,19,0,0,23,0,0,0,19,25,42,25,23,0,0,19,25,23,0,25,Anticipation,Joy,100.0,54.761904761904766,45.23809523809524,0,0,0,0,0,0,0,84.0,30,20.0,54.69923187138037,0.0,0.0,60.653065971263345,51.45714617988434,23.04816506908007,53.72660616393156,39.460153625723926,44.34532123278631,29.01453687571122,62.16103111582419,40.64775465256531,96.2,62.0,47.25899092458974,56.36967743524774
0,Test,ID1,BV01,19,0,3800,0,3800,Undified,Nan,faces\-1056865527899449686.png,,,,,19,10.04987562112089,2.118033988749895,11.04536101718726,2.0,21,18,290,146,40,5,290,148,66,4,6,318,146,75,9,12,70,13,178,-5,20,277,125,72,72,1.7518463166731777,42.190046219457976,24.08318915758459,78.0,8.0,0.0,0.0,0.0,0.0,14.0,50,60.0,30,30,0,0,4,43,0,0,0,30,0,4,39,29,39,55,0,0,4,39,25,4,0,25,Anger,Neutral,100.0,11.363636363636363,88.63636363636364,-38,80,33,-52,99,-45,64,86.0,30,20.0,59.765591461083254,0.0,0.0,60.653065971263345,51.45714617988434,60.653065971263345,57.27305787672358,76.84688170778335,30.374611575344716,60.91325079652985,32.49670515044848,21.067934984225744,88.2,14.0,22.84095868150854,66.70597261687425
0,Test,ID1,BV01,20,0,4000,0,4000,Undified,Nan,faces\650828766340045188.png,,,,,28,11.0,3.5615528128088303,12.041594578792296,3.0,32,24,287,145,41,6,287,146,41,7,17,315,145,122,11,9,81,14,-178,-3,24,269,125,72,72,1.7149561287090933,41.19465984809196,24.020824298928627,0.0,0.0,0.0,89.0,0.0,0.0,11.0,50,0.0,44,0,0,0,0,0,0,0,44,0,0,0,0,25,44,25,44,0,0,0,25,44,0,25,Joy,Neutral,80.0,100.0,0.0,94,20,86,98,23,80,7,89.0,30,0.0,40.25858975696685,0.0,0.0,54.88116360940265,47.41681452658185,0.0,42.406057187851346,11.94828204860663,72.56121143757026,8.084484614581989,85.77301802711955,73.42881609967479,100.0,100.0,82.1609085781777,49.19828204860663
0,Test,ID1,BV01,21,0,4200,0,4200,Undified,Nan,faces\3310621774503229581.png,,,,,34,11.0,4.0,12.0,4.061552812808832,36,33,287,146,40,6,287,147,57,11,19,314,146,150,18,12,103,14,-176,0,27,269,125,72,72,1.777964292327995,39.11521443121589,22.0,0.0,0.0,0.0,89.0,0.0,0.0,11.0,50,0.0,44,0,0,0,0,0,0,0,44,0,0,0,0,25,44,25,44,0,0,0,25,44,0,25,Joy,Neutral,80.0,100.0,0.0,90,22,80,90,24,77,6,89.0,30,0.0,26.99821688321372,0.0,0.0,54.88116360940265,47.41681452658185,0.0,33.123796176224154,14.600356623357257,69.63675923524482,8.880106987007178,83.90829402801667,69.72177844685771,100.0,100.0,79.71856942643363,51.85035662335726
0,Test,ID1,BV01,22,0,4400,0,4400,Undified,Nan,faces\-4207211396228792351.png,,,,,34,11.04536101718726,4.061552812808832,12.041594578792296,4.061552812808832,36,33,288,147,41,6,288,147,62,10,16,316,148,118,19,16,90,14,-176,0,24,269,125,72,72,1.6657420890118968,40.01249804748511,24.020824298928627,0.0,0.0,0.0,89.0,0.0,0.0,11.0,50,0.0,44,0,0,0,0,0,0,0,44,0,0,0,0,25,44,25,44,0,0,0,25,44,0,25,Joy,Neutral,80.0,100.0,0.0,93,23,78,94,23,76,5,89.0,30,0.0,40.25858975696685,0.0,0.0,54.88116360940265,47.41681452658185,0.0,42.406057187851346,11.94828204860663,71.13721143757027,8.084484614581989,85.37301802711954,71.78881609967479,100.0,100.0,80.76090857817769,49.19828204860663
0,Test,ID1,BV01,23,0,4600,0,4600,Undified,Nan,faces\-6021847787008968020.png,,,,,34,11.04536101718726,4.061552812808832,12.041594578792296,4.061552812808832,36,33,288,149,41,6,288,149,76,13,17,316,150,133,20,15,104,14,-174,1,24,269,133,72,72,1.7727272727272727,39.0,22.0,0.0,0.0,0.0,89.0,0.0,0.0,11.0,50,0.0,44,0,0,0,0,0,0,0,44,0,0,0,0,25,44,25,44,0,0,0,25,44,0,25,Joy,Neutral,80.0,100.0,0.0,94,17,84,88,20,77,7,89.0,30,0.0,40.25858975696685,0.0,0.0,54.88116360940265,47.41681452658185,0.0,42.406057187851346,11.94828204860663,71.49321143757027,8.084484614581989,85.47301802711955,72.19881609967479,100.0,100.0,81.1109085781777,49.19828204860663
0,Test,ID1,BV01,24,0,4800,0,4800,Undified,Nan,faces\1632936690000452414.png,,,,,38,11.04536101718726,4.549509756796391,13.0,4.561552812808832,41,35,286,150,42,7,286,150,85,18,21,314,151,109,24,22,97,13,-175,1,20,269,133,72,72,1.6824323203019769,37.013511046643494,22.0,0.0,0.0,0.0,82.0,0.0,0.0,18.0,50,0.0,41,0,0,0,0,0,0,0,41,0,0,0,0,25,41,25,41,0,0,0,25,41,0,25,Joy,Neutral,80.0,100.0,0.0,90,17,79,90,22,80,5,82.0,30,20.0,60.11875347222429,0.0,0.0,60.653065971263345,51.45714617988434,0.0,57.5202712845223,7.976249305555142,70.54405425690446,6.892874791666543,88.237727295119,75.70384055064248,100.0,100.0,83.02804069267835,43.47624930555514
0,Test,ID1,BV01,25,0,5000,0,5000,Undified,Nan,faces\-2217840524569144036.png,,,,,31,12.041594578792296,4.061552812808832,12.041594578792296,3.5615528128088303,33,29,283,149,42,7,283,149,111,20,18,312,151,115,22,19,113,14,-173,1,17,269,133,72,72,1.5833333333333333,38.0,24.0,0.0,0.0,0.0,88.0,0.0,0.0,12.0,50,0.0,44,0,0,0,0,0,0,0,44,0,0,0,0,25,44,25,44,0,0,0,25,44,0,25,Joy,Neutral,80.0,100.0,0.0,93,22,79,88,16,79,6,88.0,30,0.0,73.27327600790984,0.0,0.0,54.88116360940265,47.41681452658185,0.0,65.51633756351144,5.345344798418032,76.1112675127023,6.1036034395254095,89.56875100473081,78.93595949135094,100.0,100.0,85.07745063452671,42.34534479841803
0,Test,ID1,BV01,26,0,5200,0,5200,Undified,Nan,faces\-1053512808969476861.png,,,,,17,11.04536101718726,2.0,12.0,2.0,18,16,280,149,41,4,280,149,50,4,8,308,150,100,12,12,75,14,-177,0,15,261,133,72,72,1.6,40.0,25.0,0.0,0.0,0.0,89.0,0.0,0.0,11.0,50,0.0,44,0,0,0,0,0,0,0,44,0,0,0,0,25,44,25,44,0,0,0,25,44,0,25,Joy,Neutral,80.0,100.0,0.0,99,13,81,96,26,80,5,89.0,30,0.0,80.2071718606894,0.0,0.0,54.88116360940265,47.41681452658185,0.0,70.37006466045713,3.95856562786212,78.15401293209143,5.687569688358636,90.4869507153588,80.89121123665016,100.0,100.0,86.35550969906856,41.20856562786212
0,Test,ID1,BV01,27,0,5400,0,5400,Undified,Nan,faces\-8713618213292798077.png,,,,,31,12.0,4.061552812808832,12.0,3.5,33,29,278,145,42,5,278,145,45,9,20,307,145,161,21,13,103,15,177,-1,13,261,125,72,72,1.6786576106526059,42.0,25.019992006393608,0.0,0.0,0.0,89.0,0.0,0.0,11.0,50,0.0,44,0,0,0,0,0,0,0,44,0,0,0,0,25,44,25,44,0,0,0,25,44,0,25,Joy,Neutral,100.0,100.0,0.0,91,12,77,94,16,77,8,89.0,30,0.0,86.54475225759381,0.0,0.0,49.658530379140956,43.760971265398666,0.0,73.70961795993527,2.6910495484812373,77.75392359198706,5.307314864544371,90.82510990435803,80.55991548041962,100.0,100.0,85.80644269399029,39.94104954848124
0,Test,ID1,BV01,28,0,5600,0,5600,Undified,Nan,faces\8345822652498787827.png,,,,,33,12.041594578792296,4.123105625617661,12.041594578792296,4.061552812808832,34,33,278,143,41,6,278,143,61,11,18,306,144,105,19,18,83,14,177,0,4,261,125,72,72,1.6158424259692312,42.01190307520001,26.0,0.0,0.0,0.0,89.0,0.0,0.0,11.0,50,0.0,44,0,0,0,0,0,0,0,44,0,0,0,0,25,44,25,44,0,0,0,25,44,0,25,Joy,Neutral,100.0,100.0,0.0,96,14,77,89,21,78,7,89.0,30,13.333333333333334,97.36189547074287,0.0,0.0,54.88116360940265,47.41681452658185,0.0,82.37837118749455,0.5276209058514268,79.8436742374989,4.658286271755428,92.31120810134512,83.27571360700816,100.0,100.0,87.45675567812418,37.77762090585143
0,Test,ID1,BV01,29,0,5800,0,5800,Undified,Nan,faces\2203700557429955712.png,,,,,33,12.041594578792296,4.061552812808832,12.0,4.061552812808832,33,33,278,142,42,6,278,142,78,15,19,307,143,123,21,17,100,14,177,0,5,261,125,72,72,1.750495961466667,42.01190307520001,24.0,0.0,0.0,0.0,89.0,0.0,0.0,11.0,50,0.0,44,0,0,0,0,0,0,0,44,0,0,0,0,25,44,25,44,0,0,0,25,44,0,25,Joy,Neutral,100.0,100.0,0.0,96,20,80,97,16,78,7,89.0,30,13.333333333333334,96.83621206325527,0.0,0.0,54.88116360940265,47.41681452658185,0.0,82.01039280225324,0.6327575873489452,79.77007856045064,4.689827276204683,92.24917745926159,83.17751594648948,100.0,100.0,87.40155892033798,37.88275758734895
0,Test,ID1,BV01,30,0,6000,0,6000,Undified,Nan,faces\4205520686333949433.png,,,,,36,11.04536101718726,4.5,12.0,4.0,40,33,279,142,41,6,279,142,60,14,23,307,143,118,19,16,89,13,179,0,-10,261,125,72,72,1.6956521739130437,39.0,23.0,0.0,0.0,0.0,0.0,0.0,0.0,100.0,50,0.0,0,0,0,0,0,0,0,0,0,0,0,0,0,25,0,25,0,0,0,0,25,0,0,25,Neutral,Neutral,100.0,0.0,0.0,0,13,-1,23,9,-6,-8,0.0,30,26.666666666666668,91.90457695670509,0.0,0.0,60.653065971263345,51.45714617988434,0.0,79.77034772365886,1.619084608658983,15.954069544731773,4.985725382597695,83.38845446628774,25.88143237754349,100.0,100.0,39.86555215854883,16.619084608658984
0,Test,ID1,BV01,31,0,6200,0,6200,Undified,Nan,faces\-1000346522099453305.png,,,,,34,11.04536101718726,4.0,12.041594578792296,4.0,36,33,279,143,41,5,279,143,50,9,18,307,143,94,17,18,72,14,-178,0,0,261,125,72,72,1.6235912437750717,39.0,24.020824298928627,0.0,0.0,0.0,0.0,0.0,0.0,100.0,50,0.0,0,0,0,0,0,0,0,0,0,0,0,0,0,25,0,25,0,0,0,0,25,0,0,25,Neutral,Neutral,100.0,0.0,0.0,-8,7,3,22,10,-5,-6,0.0,30,13.333333333333334,98.66247947693074,0.0,0.0,54.88116360940265,47.41681452658185,0.0,83.28877999182606,0.2675041046138517,16.657755998365214,4.580251231384156,84.1646770140753,27.238662699364045,100.0,100.0,40.743316998773906,15.267504104613852
0,Test,ID1,BV01,32,0,6400,0,6400,Undified,Nan,faces\-836001983533955580.png,,,,,33,12.041594578792296,4.061552812808832,12.041594578792296,4.061552812808832,33,33,279,144,42,5,279,144,70,14,20,308,144,113,17,15,91,13,179,0,9,261,125,72,72,1.855650536611662,39.01281840626232,21.02379604162864,94.0,0.0,0.0,0.0,0.0,0.0,6.0,50,0.0,0,0,0,0,0,47,0,0,0,0,0,0,47,25,47,25,0,0,0,47,25,0,0,25,Anger,Neutral,100.0,9.615384615384617,90.38461538461539,-41,72,31,-55,93,-43,63,94.0,30,26.666666666666668,92.87098580467497,0.0,0.0,60.653065971263345,51.45714617988434,60.653065971263345,80.44683391723777,76.625802839065,37.52136678344756,60.84692713591434,35.06714168299231,29.918422647608672,90.6,6.0,27.017025087585665,62.52195668521885
0,Test,ID1,BV01,33,0,6600,0,6600,Undified,Nan,faces\-3729625521796610796.png,,,,,29,12.0,3.0,12.041594578792296,4.0,25,33,283,146,42,5,283,147,86,13,15,312,146,120,18,15,103,15,-177,-2,-23,269,125,72,72,1.8961818525599088,40.0,21.095023109728988,94.0,1.0,0.0,0.0,0.0,0.0,5.0,50,0.0,0,0,0,0,0,48,0,0,0,0,0,0,47,26,47,25,0,0,0,47,25,0,0,25,Anger,Anticipation,100.0,9.615384615384617,90.38461538461539,-44,82,28,-60,87,-44,62,95.0,30,0.0,45.17029611888368,0.0,0.0,49.658530379140956,43.760971265398666,49.658530379140956,44.74749866283817,86.96594077622326,30.229499732567636,57.9019739413945,33.75317071316822,20.71219173702636,90.1,5.0,21.312124799425725,72.31209462237712
0,Test,ID1,BV01,34,0,6800,0,6800,Undified,Nan,faces\-6872648176563089713.png,,,,,39,12.041594578792296,4.549509756796391,12.041594578792296,5.0,37,41,285,148,42,6,285,148,104,22,21,314,148,133,24,18,118,14,-174,0,-21,269,133,72,72,1.5592658221590552,39.01281840626232,25.019992006393608,0.0,0.0,0.0,89.0,0.0,0.0,11.0,50,0.0,44,0,0,0,0,0,0,0,44,0,0,0,0,25,44,25,44,0,0,0,25,44,0,25,Joy,Neutral,100.0,100.0,0.0,92,20,77,89,14,77,7,89.0,30,13.333333333333334,55.01398981388843,0.0,0.0,54.88116360940265,47.41681452658185,0.0,52.73483722769645,8.997202037222314,73.5589674455393,7.199160611166694,87.2141552338363,74.95512483030774,100.0,100.0,82.66022558415447,46.247202037222316
0,Test,ID1,BV01,35,0,7000,0,7000,Undified,Nan,faces\-5131783318082818648.png,,,,,29,12.041594578792296,3.5,13.038404810405297,4.0,29,30,284,149,43,6,284,149,123,16,13,313,150,118,19,16,120,13,-175,0,-13,269,133,72,72,1.6092830889844998,37.013511046643494,23.0,0.0,0.0,0.0,87.0,0.0,0.0,13.0,50,0.0,44,0,0,0,0,0,0,0,44,0,0,0,0,25,44,25,44,0,0,0,25,44,0,25,Joy,Neutral,100.0,100.0,0.0,93,12,82,97,18,77,6,87.0,30,26.666666666666668,85.82235123333135,0.0,0.0,60.653065971263345,51.45714617988434,0.0,75.51278971729724,2.8355297533337307,76.69855794345945,5.350658926000119,90.97075183092964,80.52527261241728,100.0,100.0,85.6769184575946,39.58552975333373
0,Test,ID1,BV01,36,0,7200,0,7200,Undified,Nan,faces\-2892967177054899970.png,,,,,37,12.041594578792296,4.561552812808832,12.041594578792296,4.549509756796391,37,37,284,149,42,6,284,149,100,20,20,313,149,112,18,16,106,14,-174,0,-16,269,133,72,72,1.6527458964128883,38.01315561749642,23.0,0.0,0.0,0.0,0.0,0.0,0.0,100.0,50,0.0,0,0,0,0,0,0,0,0,0,0,0,0,0,25,0,25,0,0,0,0,25,0,0,25,Neutral,Neutral,100.0,0.0,0.0,0,2,0,16,15,-4,-8,0.0,30,13.333333333333334,76.76625403772937,0.0,0.0,54.88116360940265,47.41681452658185,0.0,67.96142218438511,4.646749192454126,13.592284436877023,5.894024757736238,81.68092241224952,23.55844778732123,100.0,100.0,38.79421332765777,19.646749192454127
0,Test,ID1,BV01,37,0,7400,0,7400,Undified,Nan,faces\-2817095612346349006.png,,,,,33,12.0,4.0,12.0,4.061552812808832,33,33,283,147,42,5,283,147,72,13,18,312,147,105,18,17,88,14,179,0,0,269,133,72,72,1.598721533954863,40.0,25.019992006393608,63.0,0.0,0.0,21.0,0.0,0.0,16.0,50,0.0,10,0,0,0,0,32,0,0,10,0,0,0,32,25,42,25,10,0,0,32,25,10,0,25,Anger,Neutral,100.0,25.0,75.0,-46,77,31,-51,98,-43,64,84.0,30,13.333333333333334,98.33587956325762,0.0,0.0,54.88116360940265,47.41681452658185,54.88116360940265,83.06016005225489,50.73282408734848,35.764032010450975,49.904487211376,44.08242623612469,28.973282636676196,93.7,37.0,31.609024007838237,55.08282408734848
0,Test,ID1,BV01,38,0,7600,0,7600,Undified,Nan,faces\-7519939082119606704.png,,,,,27,12.041594578792296,3.1622776601683795,12.0,3.5,26,29,282,143,41,5,282,143,64,9,14,310,143,115,22,19,89,14,179,2,-27,269,125,72,72,2.1496389536205127,43.04648650006177,20.02498439450079,95.0,0.0,0.0,0.0,0.0,0.0,5.0,50,0.0,0,0,0,0,0,48,0,0,0,0,0,0,48,25,48,25,0,0,0,48,25,0,0,25,Anger,Neutral,100.0,9.523809523809524,90.47619047619048,-40,76,35,-51,94,-45,65,95.0,30,13.333333333333334,27.202322918262063,0.0,0.0,54.88116360940265,47.41681452658185,54.88116360940265,33.266670400757995,90.55953541634759,27.5533340801516,61.85250061007574,29.344666552015212,17.00113425539102,90.5,5.0,19.2400005601137,75.9285830353952
0,Test,ID1,BV01,39,0,7800,0,7800,Undified,Nan,faces\6272733819594455328.png,,,,,33,11.04536101718726,4.123105625617661,12.041594578792296,3.58113883008419,37,29,282,141,41,7,282,141,66,12,18,310,143,94,18,19,80,14,178,3,25,269,125,72,72,2.047512562185564,43.04648650006177,21.02379604162864,7.0,0.0,0.0,77.0,0.0,0.0,16.0,50,0.0,38,0,0,0,0,4,0,0,38,0,0,0,4,25,42,25,38,0,0,4,25,38,0,25,Joy,Neutral,100.0,91.66666666666666,8.333333333333332,98,12,81,88,27,78,5,84.0,30,13.333333333333334,34.82445037097229,0.0,0.0,54.88116360940265,47.41681452658185,3.8416814526581855,38.60215961765516,18.63510992580554,67.52843192353104,12.203457776703665,81.89744974040259,70.04028487845406,99.3,93.0,78.49032394264827,51.11844325913887
0,Test,ID1,BV01,40,0,8000,0,8000,Undified,Nan,faces\1972589249454616462.png,,,,,29,12.041594578792296,3.58113883008419,12.041594578792296,3.5,29,29,282,144,42,7,282,144,94,17,18,311,146,112,18,16,103,14,178,3,16,269,125,72,72,1.8274537592032984,42.190046219457976,23.08679276123039,11.0,84.0,0.0,0.0,0.0,0.0,5.0,50,0.0,0,0,0,0,42,48,0,0,0,0,0,42,6,67,6,25,0,0,42,6,25,42,0,25,Disgust,Cynicism,100.0,10.638297872340425,89.36170212765957,-29,58,31,-3,-23,-67,37,95.0,30,13.333333333333334,76.82951645088069,0.0,0.0,54.88116360940265,47.41681452658185,6.036927997034292,68.00570587359104,80.63409670982387,26.141141174718207,32.01053941131602,54.49213905830629,19.400640374228388,56.9,5.0,16.750855881038657,65.72452224173875
0,Test,ID1,BV01,41,0,8200,0,8200,Undified,Nan,faces\-9220754665900207506.png,,,,,21,11.0,2.118033988749895,11.0,2.618033988749895,19,23,285,150,39,6,285,150,83,10,12,312,152,77,14,18,80,13,179,3,-13,269,133,72,72,1.6032116329218993,40.11234224026316,25.019992006393608,1.0,0.0,0.0,83.0,0.0,0.0,16.0,50,0.0,42,0,0,0,0,0,0,0,42,0,0,0,0,25,42,25,42,0,0,0,25,42,0,25,Joy,Anticipation,100.0,98.80952380952381,1.1904761904761905,99,17,77,94,17,80,7,84.0,30,26.666666666666668,85.87997735464029,0.0,0.0,60.653065971263345,51.45714617988434,0.6065306597126334,75.5531280022135,3.624004529071942,75.59062560044269,5.920793221563531,90.81867822297052,80.97014982285043,99.9,99.0,85.93296920033202,39.12162357669099
0,Test,ID1,BV01,42,0,8400,0,8400,Undified,Nan,faces\460050193521555344.png,,,,,30,11.180339887498945,3.58113883008419,12.0,3.5,32,29,285,147,41,8,285,147,56,9,16,313,150,83,20,24,69,13,-176,3,2,269,133,72,72,1.5208875834635331,38.05259518088089,25.019992006393608,49.0,0.0,0.0,35.0,0.0,0.0,16.0,50,0.0,18,0,0,0,0,24,0,0,18,0,0,0,24,25,42,25,18,0,0,24,25,18,0,25,Anticipation,Anger,100.0,41.66666666666667,58.333333333333336,0,0,0,0,0,0,0,84.0,30,26.666666666666668,98.20402817024762,0.0,0.0,60.653065971263345,51.45714617988434,29.72000232591904,84.17996357313862,39.559194365950475,50.43599271462773,32.71375958904062,62.246988686081366,48.26968976189279,95.1,51.0,49.626994535970795,50.94252769928381
0,Test,ID1,BV01,43,0,8600,0,8600,Undified,Nan,faces\-8677186764809374004.png,,,,,34,11.180339887498945,4.123105625617661,12.0,4.0,36,33,286,146,41,8,286,146,66,16,24,314,149,117,20,17,91,12,-176,4,-19,269,133,72,72,1.7597241867642626,37.12142238654117,21.095023109728988,94.0,0.0,0.0,0.0,0.0,0.0,6.0,50,0.0,0,0,0,0,0,47,0,0,0,0,0,0,47,25,47,25,0,0,0,47,25,0,0,25,Anger,Neutral,100.0,9.615384615384617,90.38461538461539,-40,80,27,-51,95,-42,65,94.0,30,40.0,64.69499165361613,0.0,0.0,67.03200460356393,55.92240322249475,67.03200460356393,62.06321512427971,82.26100166927678,34.220643024855946,66.0459030327432,29.169599086233415,25.132763689693267,90.6,6.0,24.60948226864196,68.15715551543062
0,Test,ID1,BV01,44,0,8800,0,8800,Undified,Nan,faces\-226481393070724275.png,,,,,34,11.180339887498945,4.123105625617661,12.0,4.0,36,33,285,147,41,9,285,147,69,16,23,313,150,114,24,21,91,13,-176,4,10,269,133,72,72,1.5413831674718383,37.12142238654117,24.08318915758459,0.0,0.0,0.0,89.0,0.0,0.0,11.0,50,0.0,44,0,0,0,0,0,0,0,44,0,0,0,0,25,44,25,44,0,0,0,25,44,0,25,Joy,Neutral,100.0,100.0,0.0,95,23,85,95,21,78,5,89.0,30,26.666666666666668,91.70251523267711,0.0,0.0,60.653065971263345,51.45714617988434,0.0,79.62890451683927,1.6594969534645772,79.29378090336785,4.997849086039373,91.76461118285243,82.53368724749507,100.0,100.0,87.0443356775259,38.909496953464576
0,Test,ID1,BV01,45,0,9000,0,9000,Undified,Nan,faces\9188261933941972424.png,,,,,36,11.180339887498945,4.061552812808832,12.0,4.5,36,37,285,147,41,9,285,147,69,16,23,313,150,120,24,20,94,13,-173,5,-20,269,133,72,72,1.6846705179643764,37.21558813185679,22.09072203437452,86.0,5.0,0.0,0.0,0.0,0.0,9.0,50,0.0,0,0,0,0,2,46,0,0,0,0,0,2,43,28,43,25,0,0,2,43,25,2,0,25,Anger,Anticipation,100.0,10.416666666666668,89.58333333333334,-37,81,33,-59,95,-43,65,91.0,30,26.666666666666668,59.88523595842956,0.0,0.0,60.653065971263345,51.45714617988434,60.653065971263345,57.356809024865996,80.82295280831408,32.219361804973204,62.10607212668907,31.750823201135344,23.06428457633003,88.9,9.0,23.5535213537299,68.16878614164742
0,Test,ID1,BV01,46,0,9200,0,9200,Undified,Nan,faces\6481298489874407236.png,,,,,20,12.041594578792296,2.58113883008419,12.041594578792296,2.5,21,20,284,149,42,7,284,149,87,14,16,313,152,128,18,14,107,14,-176,5,-5,269,133,72,72,1.6550564967712402,38.209946349085605,23.08679276123039,0.0,0.0,0.0,89.0,0.0,0.0,11.0,50,0.0,44,0,0,0,0,0,0,0,44,0,0,0,0,25,44,25,44,0,0,0,25,44,0,25,Joy,Neutral,80.0,100.0,0.0,96,18,84,95,19,76,7,89.0,30,13.333333333333334,96.77064550110329,0.0,0.0,54.88116360940265,47.41681452658185,0.0,81.96449620874685,0.6458708997793423,79.04889924174937,4.693761269933803,92.04144060492764,82.34526811267948,100.0,100.0,86.69467443131202,37.89587089977934
0,Test,ID1,BV01,47,0,9400,0,9400,Undified,Nan,faces\-903947753085921037.png,,,,,23,11.0,3.0,11.04536101718726,2.23606797749979,27,20,279,148,40,4,279,148,53,8,15,307,148,75,9,12,64,14,-179,-2,20,261,125,72,72,1.6698986571435954,40.11234224026316,24.020824298928627,0.0,0.0,0.0,89.0,0.0,0.0,11.0,50,0.0,44,0,0,0,0,0,0,0,44,0,0,0,0,25,44,25,44,0,0,0,25,44,0,25,Joy,Neutral,80.0,100.0,0.0,95,20,78,94,27,77,6,89.0,30,13.333333333333334,60.11875347222429,0.0,0.0,54.88116360940265,47.41681452658185,0.0,56.30817178853155,7.976249305555142,74.27363435770631,6.892874791666543,87.81651734551993,75.90869468168489,100.0,100.0,83.19622576827973,45.22624930555514
0,Test,ID1,BV01,48,0,9600,0,9600,Undified,Nan,faces\2893712509073667.png,,,,,24,12.041594578792296,3.0,12.041594578792296,3.0,24,24,272,143,41,6,272,145,81,13,16,300,143,100,16,16,90,13,177,-5,14,261,125,72,72,1.6009657968394708,40.311288741492746,25.179356624028344,0.0,0.0,0.0,89.0,0.0,0.0,11.0,50,0.0,44,0,0,0,0,0,0,0,44,0,0,0,0,25,44,25,44,0,0,0,25,44,0,25,Joy,Neutral,80.0,100.0,0.0,96,21,80,96,23,76,7,89.0,30,26.666666666666668,83.54863070807225,0.0,0.0,60.653065971263345,51.45714617988434,0.0,73.92118534961587,3.2902738583855498,77.44023706992317,5.4870821575156645,90.60245280894905,80.19054161829888,100.0,100.0,85.48817780244238,40.54027385838555
0,Test,ID1,BV01,49,0,9800,0,9800,Undified,Nan,faces\-6992913281687480155.png,,,,,34,11.04536101718726,4.061552812808832,12.0,4.0,36,33,278,140,40,5,278,140,78,15,19,305,140,142,20,14,110,14,179,1,24,261,125,72,72,2.0458544332358914,43.01162633521314,21.02379604162864,0.0,0.0,0.0,89.0,0.0,0.0,11.0,50,0.0,44,0,0,0,0,0,0,0,44,0,0,0,0,25,44,25,44,0,0,0,25,44,0,25,Joy,Neutral,100.0,100.0,0.0,95,23,78,96,26,79,5,89.0,30,13.333333333333334,38.92456835017414,0.0,0.0,54.88116360940265,47.41681452658185,0.0,41.47224220309645,12.215086329965173,72.0184484406193,8.164525898989552,85.51560350111801,72.76962090088591,100.0,100.0,81.67083633046447,49.465086329965175
0,Test,ID1,BV01,50,0,10000,0,10000,Undified,Nan,faces\3042970191123376779.png,,,,,32,11.04536101718726,4.061552812808832,12.0,3.5,36,29,282,140,41,7,282,140,107,15,14,310,142,169,22,13,138,15,179,2,20,269,125,72,72,1.8212833856189727,42.04759208325728,23.08679276123039,0.0,0.0,0.0,89.0,0.0,0.0,11.0,50,0.0,44,0,0,0,0,0,0,0,44,0,0,0,0,25,44,25,44,0,0,0,25,44,0,25,Joy,Neutral,100.0,100.0,0.0,89,19,77,96,27,77,7,89.0,30,0.0,59.765591461083254,0.0,0.0,49.658530379140956,43.760971265398666,0.0,54.96420540237787,8.04688170778335,74.00484108047557,6.914064512335004,87.6651689303698,75.55756824363145,100.0,100.0,82.99463081035668,45.29688170778335
0,Test,ID1,BV01,51,0,10200,0,10200,Undified,Nan,faces\2535486245383899869.png,,,,,34,12.041594578792296,4.061552812808832,11.0,4.0,33,36,285,142,41,7,285,142,117,20,17,314,144,100,17,17,108,13,177,3,1,269,125,72,72,1.7563946055481423,42.190046219457976,24.020824298928627,0.0,0.0,0.0,89.0,0.0,0.0,11.0,50,0.0,44,0,0,0,0,0,0,0,44,0,0,0,0,25,44,25,44,0,0,0,25,44,0,25,Joy,Neutral,100.0,100.0,0.0,92,23,84,97,20,77,7,89.0,30,26.666666666666668,98.33694897577686,0.0,0.0,60.653065971263345,51.45714617988434,0.0,84.2730081370091,0.33261020484462733,79.86660162740182,4.5997830614533886,92.4474743645382,83.3629994707061,100.0,100.0,87.39095122055137,37.58261020484463
0,Test,ID1,BV01,52,0,10400,0,10400,Undified,Nan,faces\-8223541159071702554.png,,,,,17,11.04536101718726,2.118033988749895,12.0,2.0,19,16,278,146,40,3,278,146,71,5,7,305,146,91,11,12,81,14,176,-3,22,261,125,72,72,1.7898179448932985,43.104524124504614,24.08318915758459,64.0,0.0,0.0,20.0,0.0,0.0,16.0,50,0.0,10,0,0,0,0,32,0,0,10,0,0,0,32,25,42,25,10,0,0,32,25,10,0,25,Anger,Neutral,80.0,23.809523809523807,76.19047619047619,-43,81,28,-54,93,-43,65,84.0,30,13.333333333333334,49.420571417533075,0.0,0.0,54.88116360940265,47.41681452658185,54.88116360940265,48.81944435024771,61.31588571649339,28.915888870049542,53.07940570011947,38.118419874929195,19.816703075054843,93.6,36.0,26.272916652537155,65.16350476411243
0,Test,ID1,BV01,53,0,10600,0,10600,Undified,Nan,faces\8560469541571226853.png,,,,,34,11.0,4.061552812808832,12.041594578792296,4.0,36,33,279,144,41,6,279,144,57,12,21,307,145,94,18,19,75,14,179,0,22,261,125,72,72,1.8641906049463524,41.012193308819754,22.0,95.0,0.0,0.0,0.0,0.0,0.0,5.0,50,0.0,0,0,0,0,0,48,0,0,0,0,0,0,48,25,48,25,0,0,0,48,25,0,0,25,Anger,Neutral,80.0,9.523809523809524,90.47619047619048,-45,79,29,-58,89,-44,63,95.0,30,13.333333333333334,49.420571417533075,0.0,0.0,54.88116360940265,47.41681452658185,54.88116360940265,48.81944435024771,86.11588571649338,31.043888870049543,60.51940570011947,32.066419874929196,21.56150307505484,90.5,5.0,21.922916652537157,71.484933335541
0,Test,ID1,BV01,54,0,10800,0,10800,Undified,Nan,faces\-1387202680911558653.png,,,,,37,12.16552506059644,4.549509756796391,12.0,4.549509756796391,37,37,283,146,41,9,283,146,110,21,19,311,149,113,26,23,111,12,-176,4,-27,269,133,72,72,1.9081136642273102,38.209946349085605,20.02498439450079,93.0,0.0,0.0,0.0,0.0,0.0,7.0,50,0.0,0,0,0,0,0,46,0,0,0,0,0,0,46,25,46,25,0,0,0,46,25,0,0,25,Anger,Neutral,80.0,9.70873786407767,90.29126213592234,-45,79,32,-57,90,-44,65,93.0,30,40.0,26.927801273921325,0.0,0.0,67.03200460356393,55.92240322249475,67.03200460356393,35.626181858493354,89.01443974521574,27.95723637169867,68.07193445552488,24.705070621429428,17.027052526766276,90.7,7.0,19.943927278774005,75.43725527919632
0,Test,ID1,BV01,55,0,11000,0,11000,Undified,Nan,faces\2366973022715497894.png,,,,,24,11.04536101718726,2.699172818834085,12.0,3.0,24,25,282,148,41,8,282,148,80,12,15,310,152,94,16,17,87,14,-179,5,17,269,133,72,72,1.6433938950914333,38.11823710509184,23.19482700948641,93.0,0.0,0.0,0.0,0.0,0.0,7.0,50,0.0,0,0,0,0,0,46,0,0,0,0,0,0,46,25,46,25,0,0,0,46,25,0,0,25,Anger,Neutral,80.0,9.70873786407767,90.29126213592234,-43,73,28,-56,96,-44,65,93.0,30,13.333333333333334,73.27327600790984,0.0,0.0,54.88116360940265,47.41681452658185,54.88116360940265,65.51633756351144,79.74534479841803,33.93526751270229,58.608243424696866,35.265039016593654,25.55558829253723,90.7,7.0,24.42745063452672,66.16816033239861
0,Test,ID1,BV01,56,0,11200,0,11200,Undified,Nan,faces\-8822975306394353177.png,,,,,19,11.04536101718726,2.118033988749895,11.04536101718726,2.23606797749979,19,20,282,149,39,8,282,149,125,15,12,309,153,88,15,17,106,12,-177,5,22,269,133,72,72,1.7255315170675505,38.11823710509184,22.09072203437452,94.0,0.0,0.0,0.0,0.0,0.0,5.0,50,0.0,0,0,0,0,0,47,0,0,0,0,0,0,47,25,47,25,0,0,0,47,25,0,0,25,Anger,Neutral,80.0,9.615384615384617,90.38461538461539,-45,75,27,-50,91,-46,64,94.0,30,40.0,50.00624703467075,0.0,0.0,67.03200460356393,55.92240322249475,67.03200460356393,51.781093891017946,85.19875059306585,30.660218778203593,66.92722770987993,27.03632722119785,20.74890619487427,90.6,6.0,21.667164083652693,71.0949044392197
0,Test,ID1,BV01,57,0,11400,0,11400,Undified,Nan,faces\-1410119120891768337.png,,,,,20,11.180339887498945,2.23606797749979,11.04536101718726,2.23606797749979,20,20,284,150,40,7,284,150,116,7,6,312,153,82,14,17,99,14,179,5,5,269,133,72,72,1.7296829994795357,38.209946349085605,22.09072203437452,55.0,0.0,1.0,0.0,0.0,0.0,44.0,50,0.0,0,0,1,0,0,28,0,0,0,0,0,0,28,25,28,25,0,0,0,28,25,0,0,26,Anger,Neutral,80.0,15.384615384615385,84.61538461538461,-46,81,34,-51,88,-45,62,56.0,30,13.333333333333334,96.83621206325527,0.0,0.0,54.88116360940265,47.41681452658185,54.88116360940265,82.01039280225324,44.63275758734895,28.722078560450647,48.07446726137614,45.241465471124414,21.026744747675753,94.1,45.0,26.651558920337983,50.7866037411951
0,Test,ID1,BV01,58,0,11600,0,11600,Undified,Nan,faces\1285439413183974588.png,,,,,28,12.16552506059644,3.1622776601683795,11.04536101718726,3.5,25,31,285,147,41,8,285,147,150,15,10,314,150,81,18,22,115,13,-178,6,-11,269,133,72,72,1.6648417682192946,38.3275357934736,23.021728866442675,93.0,0.0,0.0,0.0,0.0,0.0,7.0,50,0.0,0,0,0,0,0,46,0,0,0,0,0,0,46,25,46,25,0,0,0,46,25,0,0,25,Anger,Neutral,100.0,9.70873786407767,90.29126213592234,-38,79,28,-59,94,-43,63,93.0,30,26.666666666666668,90.0120600405039,0.0,0.0,60.653065971263345,51.45714617988434,60.653065971263345,78.44558588231803,76.39758799189923,36.893117176463605,60.77846268176461,34.92178844282012,29.15357531486152,90.7,7.0,26.716837882347704,62.82040352587981
0,Test,ID1,BV01,59,0,11800,0,11800,Undified,Nan,faces\8086212960640509274.png,,,,,28,11.04536101718726,3.64269164289302,12.0,3.0,32,25,287,146,41,7,287,146,84,16,19,315,149,114,16,14,99,14,-178,5,-17,269,125,72,72,1.6111631343124169,40.311288741492746,25.019992006393608,90.0,0.0,0.0,0.0,0.0,0.0,10.0,50,0.0,0,0,0,0,0,45,0,0,0,0,0,0,45,25,45,25,0,0,0,45,25,0,0,25,Anger,Neutral,100.0,10.0,90.0,-43,83,29,-54,93,-46,63,90.0,30,13.333333333333334,73.0874338294366,0.0,0.0,54.88116360940265,47.41681452658185,54.88116360940265,65.38624803858018,77.38251323411268,32.51724960771604,57.89939395540526,35.61910963953381,24.00847297359842,91.0,10.0,23.70793720578703,65.38251323411268
0,Test,ID1,BV01,60,0,12000,0,12000,Undified,Nan,faces\-9218571478092628426.png,,,,,37,12.16552506059644,4.561552812808832,12.0,4.5,37,37,287,145,42,8,287,145,95,22,23,316,147,133,28,21,114,14,-178,4,-19,269,125,72,72,1.6073163406000501,40.311288741492746,25.079872407968914,94.0,0.0,0.0,0.0,0.0,0.0,6.0,50,0.0,0,0,0,0,0,47,0,0,0,0,0,0,47,25,47,25,0,0,0,47,25,0,0,25,Anger,Neutral,100.0,9.615384615384617,90.38461538461539,-40,79,34,-53,88,-43,63,94.0,30,13.333333333333334,64.69499165361613,0.0,0.0,54.88116360940265,47.41681452658185,54.88116360940265,59.51153851550584,82.26100166927678,33.334307703101175,59.362940485954496,34.16080146278699,24.593964775155158,90.6,6.0,23.876730777325875,68.15715551543062
0,Test,ID1,BV01,61,0,12200,0,12200,Undified,Nan,faces\5144710801297048273.png,,,,,34,11.180339887498945,4.061552812808832,12.0,4.061552812808832,36,33,289,145,41,7,289,145,113,17,15,317,147,146,22,15,129,13,-179,5,-18,269,125,72,72,1.7077000076826483,41.303752856126756,24.186773244895647,0.0,0.0,0.0,89.0,0.0,0.0,11.0,50,0.0,44,0,0,0,0,0,0,0,44,0,0,0,0,25,44,25,44,0,0,0,25,44,0,25,Joy,Neutral,80.0,100.0,0.0,93,20,81,95,16,79,6,89.0,30,26.666666666666668,68.88730486503205,0.0,0.0,60.653065971263345,51.45714617988434,0.0,63.65825725948773,6.222539026993591,76.45565145189755,6.366761708098077,89.1724163594703,78.68180595081897,100.0,100.0,84.99873858892315,43.47253902699359
0,Test,ID1,BV01,62,0,12400,0,12400,Undified,Nan,faces\4732530822708848402.png,,,,,37,12.041594578792296,4.611062569605222,12.0,4.5,38,37,288,144,41,8,288,144,115,22,19,316,146,122,27,22,118,14,-179,4,-19,269,125,72,72,1.6468884763146907,41.303752856126756,25.079872407968914,12.0,0.0,0.0,73.0,0.0,0.0,16.0,50,0.0,36,0,0,0,0,6,0,0,36,0,0,0,6,25,42,25,36,0,0,6,25,36,0,25,Joy,Neutral,80.0,85.88235294117646,14.117647058823529,97,15,80,87,15,79,7,85.0,30,13.333333333333334,64.69499165361613,0.0,0.0,54.88116360940265,47.41681452658185,6.585739633128318,59.51153851550584,16.661001669276775,72.76230770310117,13.120457299003608,83.35478801234771,76.06336343011124,98.8,88.0,81.17673077732587,46.84041343398266
0,Test,ID1,BV01,63,0,12600,0,12600,Undified,Nan,faces\-8426375367099532561.png,,,,,32,11.04536101718726,3.64269164289302,12.0,4.0,32,33,287,145,41,7,287,145,106,17,16,315,147,157,22,14,131,14,-178,5,-17,269,125,72,72,1.6073163406000501,40.311288741492746,25.079872407968914,4.0,0.0,0.0,80.0,0.0,0.0,16.0,50,0.0,40,0,0,0,0,2,0,0,40,0,0,0,2,25,42,25,40,0,0,2,25,40,0,25,Joy,Anticipation,100.0,95.23809523809523,4.761904761904762,94,19,81,99,23,77,7,84.0,30,13.333333333333334,73.0874338294366,0.0,0.0,54.88116360940265,47.41681452658185,2.195246544376106,65.38624803858018,8.582513234112678,72.54924960771605,8.282139569640663,87.6129131481455,76.90785332445958,99.6,96.0,82.75793720578703,42.57298942458887
0,Test,ID1,BV01,64,0,12800,0,12800,Undified,Nan,faces\-320465723913130231.png,,,,,27,11.180339887498945,3.1622776601683795,11.04536101718726,3.0,28,27,288,146,39,7,288,146,100,14,14,315,149,72,13,18,86,14,178,6,-19,269,125,72,72,1.6073163406000501,40.311288741492746,25.079872407968914,0.0,0.0,0.0,89.0,0.0,0.0,11.0,50,0.0,44,0,0,0,0,0,0,0,44,0,0,0,0,25,44,25,44,0,0,0,25,44,0,25,Joy,Neutral,100.0,100.0,0.0,91,22,84,93,21,79,6,89.0,30,13.333333333333334,64.34510953081067,0.0,0.0,54.88116360940265,47.41681452658185,0.0,59.26662102954202,7.130978093837865,75.57732420590841,6.63929342815136,88.51522736043312,77.51817799342882,100.0,100.0,84.33999315443131,44.38097809383787
0,Test,ID1,BV01,65,0,13000,0,13000,Undified,Nan,faces\-2338938971278469173.png,,,,,35,12.16552506059644,4.061552812808832,12.0,4.5,33,37,288,144,41,8,288,144,117,20,17,316,146,131,25,19,124,14,-179,5,-17,269,125,72,72,1.6073163406000501,40.311288741492746,25.079872407968914,0.0,0.0,0.0,89.0,0.0,0.0,11.0,50,0.0,44,0,0,0,0,0,0,0,44,0,0,0,0,25,44,25,44,0,0,0,25,44,0,25,Joy,Neutral,100.0,100.0,0.0,91,12,76,87,19,79,6,89.0,30,13.333333333333334,73.0874338294366,0.0,0.0,54.88116360940265,47.41681452658185,0.0,65.38624803858018,5.382513234112679,76.80124960771604,6.114753970233804,89.54682162767098,79.15124417241215,100.0,100.0,85.25793720578702,42.63251323411268
0,Test,ID1,BV01,66,0,13200,0,13200,Undified,Nan,faces\4308270143154482522.png,,,,,25,11.04536101718726,3.1622776601683795,11.0,2.5,28,22,287,145,39,5,287,145,78,11,14,314,146,76,13,17,77,14,178,1,-26,269,125,72,72,1.9507511025893056,41.012193308819754,21.02379604162864,0.0,100.0,0.0,0.0,0.0,0.0,0.0,50,0.0,0,0,0,0,50,50,0,0,0,0,0,50,0,75,0,25,0,0,50,0,25,50,0,25,Disgust,Neutral,100.0,9.090909090909092,90.9090909090909,-26,66,35,7,-26,-68,35,100.0,30,13.333333333333334,31.470057411677235,0.0,0.0,54.88116360940265,47.41681452658185,0.0,36.25408454614862,93.70598851766455,20.050816909229724,32.611796555299364,50.73597121037537,11.937118257574689,50.0,0.0,11.638112681922294,76.43326124493728
0,Test,ID1,BV01,67,0,13400,0,13400,Undified,Nan,faces\-577582591420789988.png,,,,,34,11.04536101718726,4.0,12.041594578792296,4.0,36,33,277,146,41,5,277,146,68,13,19,305,146,131,21,16,99,14,-179,0,23,261,125,72,72,1.6391769149382422,41.012193308819754,25.019992006393608,0.0,0.0,0.0,89.0,0.0,0.0,11.0,50,0.0,44,0,0,0,0,0,0,0,44,0,0,0,0,25,44,25,44,0,0,0,25,44,0,25,Joy,Neutral,100.0,100.0,0.0,94,15,77,90,18,79,6,89.0,30,13.333333333333334,45.01395464879853,0.0,0.0,54.88116360940265,47.41681452658185,0.0,45.734812612133524,10.997209070240295,72.87096252242671,7.799162721072088,86.23415108435569,73.90711826146894,100.0,100.0,82.31022189182002,48.247209070240295
0,Test,ID1,BV01,68,0,13600,0,13600,Undified,Nan,faces\-2799518371862087992.png,,,,,37,11.04536101718726,4.611062569605222,12.041594578792296,4.061552812808832,41,33,274,147,42,6,274,147,65,15,23,303,147,100,17,17,82,15,-176,-1,22,261,133,72,72,1.6007186884299247,40.04996878900158,25.019992006393608,0.0,0.0,0.0,88.0,0.0,0.0,12.0,50,0.0,44,0,0,0,0,0,0,0,44,0,0,0,0,25,44,25,44,0,0,0,25,44,0,25,Joy,Neutral,100.0,100.0,0.0,90,21,85,93,25,76,8,88.0,30,0.0,50.00624703467075,0.0,0.0,49.658530379140956,43.760971265398666,0.0,48.13266430388912,9.99875059306585,71.57853286077783,7.499625177919755,86.4135662880531,73.07452270477759,100.0,100.0,81.41989964558337,46.99875059306585
0,Test,ID1,BV01,69,0,13800,0,13800,Undified,Nan,faces\-3203155443028304968.png,,,,,34,11.04536101718726,4.061552812808832,12.041594578792296,4.061552812808832,36,33,276,147,41,6,276,148,68,11,16,304,147,120,18,15,94,14,-176,0,19,261,133,72,72,1.4624800368544972,38.05259518088089,26.019223662515373,0.0,0.0,0.0,89.0,0.0,0.0,11.0,50,0.0,44,0,0,0,0,0,0,0,44,0,0,0,0,25,44,25,44,0,0,0,25,44,0,25,Joy,Neutral,100.0,100.0,0.0,96,15,86,96,14,79,7,89.0,30,13.333333333333334,64.4969915538629,0.0,0.0,54.88116360940265,47.41681452658185,0.0,59.37293844567858,7.100601689227421,75.59858768913571,6.630180506768227,88.53314943915329,77.54654955533499,100.0,100.0,84.35594076685177,44.35060168922742
0,Test,ID1,BV01,70,0,14000,0,14000,Undified,Nan,faces\1806809851547060014.png,,,,,34,11.04536101718726,4.0,12.041594578792296,4.061552812808832,36,33,277,147,41,5,277,147,61,11,18,305,147,95,19,20,78,14,-178,0,19,261,125,72,72,1.51931126148172,38.01315561749642,25.019992006393608,89.0,0.0,1.0,0.0,0.0,0.0,10.0,50,0.0,0,0,1,0,0,44,0,0,0,0,0,0,44,25,44,25,0,0,0,44,25,0,0,26,Anger,Anticipation,100.0,10.1010101010101,89.8989898989899,-42,77,30,-53,90,-44,62,90.0,30,13.333333333333334,64.4969915538629,0.0,0.0,54.88116360940265,47.41681452658185,54.88116360940265,59.37293844567858,78.30060168922742,32.03458768913572,58.174820491939684,34.99743745101612,23.242978356521256,90.7,11.0,23.605940766851788,67.07534916397489
0,Test,ID1,BV01,71,0,14200,0,14200,Undified,Nan,faces\1335546787961930155.png,,,,,33,12.0,4.061552812808832,12.041594578792296,4.0,33,33,276,147,42,5,276,147,60,14,23,305,147,100,22,22,80,14,-177,-1,17,261,125,72,72,1.5592658221590552,39.01281840626232,25.019992006393608,89.0,0.0,0.0,0.0,0.0,0.0,11.0,50,0.0,0,0,0,0,0,44,0,0,0,0,0,0,44,25,44,25,0,0,0,44,25,0,0,25,Anger,Neutral,100.0,10.1010101010101,89.8989898989899,-39,83,36,-56,96,-43,62,89.0,30,13.333333333333334,73.27327600790984,0.0,0.0,54.88116360940265,47.41681452658185,54.88116360940265,65.51633756351144,76.54534479841803,33.39526751270229,57.648243424696865,36.133039016593656,25.042388292537233,91.1,11.0,24.777450634526716,65.0700922731655
0,Test,ID1,BV01,72,0,14400,0,14400,Undified,Nan,faces\7494584649613375494.png,,,,,37,12.041594578792296,4.0,12.041594578792296,5.0,33,41,277,146,42,6,277,146,60,12,20,306,146,109,24,22,84,14,-178,0,16,261,125,72,72,1.6004999218994045,40.01249804748511,25.0,0.0,0.0,0.0,89.0,0.0,0.0,11.0,50,0.0,44,0,0,0,0,0,0,0,44,0,0,0,0,25,44,25,44,0,0,0,25,44,0,25,Joy,Neutral,100.0,100.0,0.0,93,13,85,89,18,78,7,89.0,30,13.333333333333334,76.86303193344635,0.0,0.0,54.88116360940265,47.41681452658185,0.0,68.029166711387,4.62739361331073,76.9738333422774,5.888218083993219,89.89234220394412,79.44652589824116,100.0,100.0,85.30437500670804,41.87739361331073
0,Test,ID1,BV01,73,0,14600,0,14600,Undified,Nan,faces\1720012809093978205.png,,,,,33,12.041594578792296,4.549509756796391,13.0,4.0,37,30,279,145,42,6,279,145,72,16,22,307,146,90,19,21,81,15,-179,0,21,261,125,72,72,1.7083333333333333,41.0,24.0,0.0,0.0,0.0,87.0,0.0,0.0,13.0,50,0.0,44,0,0,0,0,0,0,0,44,0,0,0,0,25,44,25,44,0,0,0,25,44,0,25,Joy,Neutral,100.0,100.0,0.0,89,24,85,91,16,80,6,87.0,30,0.0,55.03961080030571,0.0,0.0,49.658530379140956,43.760971265398666,0.0,51.656018939833594,8.992077839938858,72.97120378796672,7.197623351981657,87.40750321239804,75.4047550561982,100.0,100.0,83.14840284097504,45.74207783993886
0,Test,ID1,BV01,74,0,14800,0,14800,Undified,Nan,faces\-4705990692831254634.png,,,,,41,11.04536101718726,5.049509756796391,12.0,4.5,45,37,281,146,41,7,281,146,80,16,20,309,147,120,24,20,100,14,-177,1,26,269,133,72,72,1.9,38.0,20.0,94.0,0.0,0.0,0.0,0.0,0.0,5.0,50,0.0,0,0,0,0,0,47,0,0,0,0,0,0,47,25,47,25,0,0,0,47,25,0,0,25,Anger,Neutral,80.0,9.615384615384617,90.38461538461539,-37,81,30,-50,91,-44,65,94.0,30,13.333333333333334,31.232035321925014,0.0,0.0,54.88116360940265,47.41681452658185,54.88116360940265,36.08746908332206,88.953592935615,28.273493816664413,61.37071786585596,30.112172615647445,17.933084532395256,90.6,6.0,20.013120362498313,74.84974678176884
0,Test,ID1,BV01,75,0,15000,0,15000,Undified,Nan,faces\7521644895698883991.png,,,,,39,11.180339887498945,4.561552812808832,13.038404810405297,5.049509756796391,40,38,282,147,42,8,282,147,76,19,25,310,149,84,27,32,80,14,-179,3,20,269,133,72,72,1.7347567158075512,40.04996878900158,23.08679276123039,95.0,0.0,0.0,0.0,0.0,0.0,5.0,50,0.0,0,0,0,0,0,48,0,0,0,0,0,0,48,25,48,25,0,0,0,48,25,0,0,25,Anger,Neutral,100.0,9.523809523809524,90.47619047619048,-42,73,36,-52,99,-44,63,95.0,30,13.333333333333334,60.11875347222429,0.0,0.0,54.88116360940265,47.41681452658185,54.88116360940265,56.30817178853155,83.97624930555514,32.541634357706315,59.877514776838,33.32880535738276,23.559923482871163,90.5,5.0,23.046225768279733,69.34529692460276
0,Test,ID1,BV01,76,0,15200,0,15200,Undified,Nan,faces\7422695544670630325.png,,,,,41,12.16552506059644,5.0990195135927845,12.0,5.0,41,41,281,148,42,8,281,148,86,26,30,310,150,103,28,27,94,14,-178,2,20,269,133,72,72,1.6946085427636517,39.01281840626232,23.021728866442675,72.0,0.0,0.0,11.0,0.0,0.0,17.0,50,0.0,6,0,0,0,0,36,0,0,6,0,0,0,36,25,42,25,6,0,0,36,25,6,0,25,Anger,Neutral,100.0,13.253012048192772,86.74698795180723,-42,74,29,-58,88,-45,63,83.0,30,13.333333333333334,60.11875347222429,0.0,0.0,54.88116360940265,47.41681452658185,54.88116360940265,56.30817178853155,65.57624930555514,29.52163435770631,54.357514776838,37.64480535738276,20.591523482871164,92.8,28.0,24.896225768279734,65.41299629350695
0,Test,ID1,BV01,77,0,15400,0,15400,Undified,Nan,faces\-2103123432158059341.png,,,,,24,11.04536101718726,3.0,12.0,2.618033988749895,27,21,281,148,42,7,281,148,88,16,18,310,151,94,16,17,91,14,-178,2,15,269,133,72,72,1.6544606600382996,38.05259518088089,23.0,95.0,0.0,0.0,0.0,0.0,0.0,5.0,50,0.0,0,0,0,0,0,48,0,0,0,0,0,0,48,25,48,25,0,0,0,48,25,0,0,25,Anger,Neutral,100.0,9.523809523809524,90.47619047619048,-41,74,31,-53,95,-43,63,95.0,30,13.333333333333334,80.2071718606894,0.0,0.0,54.88116360940265,47.41681452658185,54.88116360940265,70.37006466045713,79.95856562786211,35.73401293209143,58.67220967353009,35.79923872722165,27.72244003783645,90.5,5.0,25.50550969906857,65.32761324690973
0,Test,ID1,BV01,78,0,15600,0,15600,Undified,Nan,faces\8742916401353156152.png,,,,,33,12.041594578792296,4.061552812808832,12.041594578792296,4.0,33,33,281,146,42,6,281,146,61,13,21,310,147,105,19,18,83,14,-178,1,19,269,125,72,72,1.7380318515439042,40.01249804748511,23.021728866442675,0.0,100.0,0.0,0.0,0.0,0.0,0.0,50,0.0,0,0,0,0,50,50,0,0,0,0,0,50,0,75,0,25,0,0,50,0,25,50,0,25,Disgust,Neutral,100.0,9.090909090909092,90.9090909090909,-20,65,40,-2,-31,-69,35,100.0,30,13.333333333333334,64.4969915538629,0.0,0.0,54.88116360940265,47.41681452658185,0.0,59.37293844567858,87.10060168922742,24.274587689135714,30.630180506768223,54.533149439153284,17.696549555334975,50.0,0.0,14.755940766851786,69.82787441650015
0,Test,ID1,BV01,79,0,15800,0,15800,Undified,Nan,faces\-6383535580466930834.png,,,,,31,12.0,4.0,12.0,3.5,33,29,279,144,42,6,279,144,50,10,20,308,145,105,20,19,77,14,179,0,16,261,125,72,72,1.638689572303735,41.0,25.019992006393608,0.0,0.0,0.0,89.0,0.0,0.0,11.0,50,0.0,44,0,0,0,0,0,0,0,44,0,0,0,0,25,44,25,44,0,0,0,25,44,0,25,Joy,Neutral,80.0,100.0,0.0,94,15,83,97,17,79,5,89.0,30,13.333333333333334,76.82951645088069,0.0,0.0,54.88116360940265,47.41681452658185,0.0,68.00570587359104,4.634096709823862,77.32514117471821,5.890229012947159,89.98838737700139,79.8502652060979,100.0,100.0,85.65085588103867,41.884096709823865
0,Test,ID1,BV01,80,0,16000,0,16000,Undified,Nan,faces\-4198415949311540718.png,,,,,34,11.0,4.0,12.0,4.0,36,33,279,142,41,5,279,142,76,13,17,307,142,111,20,18,93,15,175,0,13,261,125,72,72,1.7901134226237974,43.0,24.020824298928627,0.0,0.0,0.0,89.0,0.0,0.0,11.0,50,0.0,44,0,0,0,0,0,0,0,44,0,0,0,0,25,44,25,44,0,0,0,25,44,0,25,Joy,Neutral,80.0,100.0,0.0,92,22,77,88,17,77,7,89.0,30,0.0,86.54475225759381,0.0,0.0,49.658530379140956,43.760971265398666,0.0,73.70961795993527,2.6910495484812373,77.75392359198706,5.307314864544371,90.82510990435803,80.55991548041962,100.0,100.0,85.80644269399029,39.94104954848124
0,Test,ID1,BV01,81,0,16200,0,16200,Undified,Nan,faces\-3163506355687847563.png,,,,,32,11.0,4.0,12.0,3.5,36,29,280,141,41,5,280,141,82,14,17,308,141,115,22,19,98,15,172,-1,7,261,125,72,72,1.8352262954621037,44.04543109109048,24.0,0.0,0.0,0.0,89.0,0.0,0.0,11.0,50,0.0,44,0,0,0,0,0,0,0,44,0,0,0,0,25,44,25,44,0,0,0,25,44,0,25,Joy,Neutral,80.0,100.0,0.0,97,16,87,97,27,78,7,89.0,30,0.0,95.40106416225649,0.0,0.0,49.658530379140956,43.760971265398666,0.0,79.90903629319914,0.9197871675487023,79.34980725863983,4.77593615026461,91.97015470910823,82.6242745442106,100.0,100.0,87.08635544397987,38.169787167548705
0,Test,ID1,BV01,82,0,16400,0,16400,Undified,Nan,faces\5018739449021513960.png,,,,,35,12.041594578792296,4.5,12.0,4.0,37,33,282,140,41,6,282,140,83,20,24,310,141,95,19,20,89,14,174,0,9,269,125,72,72,1.7590478109698882,44.01136216933078,25.019992006393608,0.0,0.0,0.0,89.0,0.0,0.0,11.0,50,0.0,44,0,0,0,0,0,0,0,44,0,0,0,0,25,44,25,44,0,0,0,25,44,0,25,Joy,Neutral,100.0,100.0,0.0,91,15,86,97,22,79,7,89.0,30,13.333333333333334,92.87098580467497,0.0,0.0,54.88116360940265,47.41681452658185,0.0,79.23473442124703,1.4258028390650055,79.57094688424941,4.927740851719502,91.8812807607491,82.84681168138667,100.0,100.0,87.33521016318704,38.67580283906501
0,Test,ID1,BV01,83,0,16600,0,16600,Undified,Nan,faces\8509090614239740810.png,,,,,35,12.0,4.549509756796391,12.0,4.0,37,33,283,140,42,6,283,140,104,24,23,312,141,94,18,19,99,14,172,-1,16,269,125,72,72,1.8333333333333333,44.0,24.0,0.0,0.0,0.0,89.0,0.0,0.0,11.0,50,0.0,44,0,0,0,0,0,0,0,44,0,0,0,0,25,44,25,44,0,0,0,25,44,0,25,Joy,Neutral,100.0,100.0,0.0,96,23,82,98,23,79,6,89.0,30,13.333333333333334,76.82951645088069,0.0,0.0,54.88116360940265,47.41681452658185,0.0,68.00570587359104,4.634096709823862,77.32514117471821,5.890229012947159,89.98838737700139,79.8502652060979,100.0,100.0,85.65085588103867,41.884096709823865
0,Test,ID1,BV01,84,0,16800,0,16800,Undified,Nan,faces\1256094259243391425.png,,,,,37,12.041594578792296,5.049509756796391,12.0,4.061552812808832,41,33,284,141,42,6,284,141,82,23,28,313,142,100,21,21,91,16,172,0,3,269,125,72,72,1.76,44.0,25.0,0.0,0.0,0.0,89.0,0.0,0.0,11.0,50,0.0,44,0,0,0,0,0,0,0,44,0,0,0,0,25,44,25,44,0,0,0,25,44,0,25,Joy,Neutral,100.0,100.0,0.0,95,24,83,92,19,77,4,89.0,30,0.0,97.86759515267833,0.0,0.0,44.932896411722155,40.45302748820551,0.0,80.64322485333648,0.4264809694643333,79.1406449706673,4.6279442908393,92.06196705266221,82.41700291860035,100.0,100.0,86.84648372800048,37.676480969464336
0,Test,ID1,BV01,85,0,17000,0,17000,Undified,Nan,faces\4102225999946771061.png,,,,,33,12.0,4.061552812808832,12.0,4.0,33,33,284,142,42,6,284,142,81,18,22,313,143,100,22,22,90,15,176,0,16,269,125,72,72,1.750495961466667,42.01190307520001,24.0,44.0,0.0,0.0,40.0,0.0,0.0,16.0,50,0.0,20,0,0,0,0,22,0,0,20,0,0,0,22,25,42,25,20,0,0,22,25,20,0,25,Anticipation,Anger,100.0,47.61904761904761,52.38095238095239,0,0,0,0,0,0,0,84.0,30,10.0,76.82951645088069,0.0,0.0,49.658530379140956,43.760971265398666,21.849753366822018,66.90895289523608,39.83409670982387,46.98179057904722,28.46759336469927,63.9168205977642,44.118920283585446,95.6,56.0,48.036342934285415,53.72933480506196
0,Test,ID1,BV01,86,0,17200,0,17200,Undified,Nan,faces\7429102609326370709.png,,,,,31,12.0,4.123105625617661,12.041594578792296,3.5,34,29,282,141,42,6,282,141,83,15,18,311,142,111,20,18,97,13,174,1,20,269,125,72,72,1.7590478109698882,44.01136216933078,25.019992006393608,0.0,0.0,0.0,89.0,0.0,0.0,11.0,50,0.0,44,0,0,0,0,0,0,0,44,0,0,0,0,25,44,25,44,0,0,0,25,44,0,25,Joy,Neutral,100.0,100.0,0.0,91,23,84,87,26,76,5,89.0,30,30.0,59.765591461083254,0.0,0.0,60.653065971263345,51.45714617988434,0.0,57.27305787672358,8.04688170778335,74.11061157534472,6.914064512335004,87.79605417780436,75.74786988696133,100.0,100.0,82.99095868150853,45.29688170778335
0,Test,ID1,BV01,87,0,17400,0,17400,Undified,Nan,faces\-533470514448665719.png,,,,,39,11.04536101718726,5.049509756796391,12.0,4.0,45,33,283,141,41,7,283,141,75,18,24,311,143,110,21,19,92,15,177,2,24,269,125,72,72,1.9017894937896056,42.01190307520001,22.09072203437452,95.0,0.0,0.0,0.0,0.0,0.0,5.0,50,0.0,0,0,0,0,0,48,0,0,0,0,0,0,48,25,48,25,0,0,0,48,25,0,0,25,Anger,Neutral,100.0,9.523809523809524,90.47619047619048,-39,72,32,-57,96,-44,62,95.0,30,10.0,38.92456835017414,0.0,0.0,49.658530379140956,43.760971265398666,49.658530379140956,40.37548922474149,88.21508632996517,29.3550978449483,58.276717607517085,33.016174836460486,19.54548978983142,90.5,5.0,20.656323383711225,73.5841339490128
